t,x,y,z,roll,pitch,yaw,qw,qx,qy,qz,vx,vy,vz,wx,wy,wz,ax,ay,az,wx_dot,wy_dot,wz_dot,m1,m2,m3,m4
0.0,0.0,2.0,1.6500000000000001,0.0,0.0,0.0,1.0,0.0,0.0,0.0,-0.0,-0.0,0.0,1.5514316596547915e-13,-0.0001257568994284691,0.0,0.0,-0.0,0.0,1.7451692255157145e-10,-0.012574138510978465,1.2957797180054206e-15,0.12265337635686786,0.12259662364234447,0.122596623643132,0.12265337635765569
0.01,-1.2336751833940135e-09,2.0,1.6500000000000001,1.5514316596431382e-15,-1.257568994284774e-06,9.02244153421693e-21,0.9999999999998024,7.757158298242524e-16,-6.287844971423456e-07,4.998978855087286e-21,-1.2336751833940136e-07,-7.609772290611265e-17,0.0,1.900312391481194e-12,-0.00025149828453825375,1.2957797180054206e-17,-1.2336751833940137e-05,-1.521954458122253e-14,0.0,7.173515063243837e-10,-0.018858880809465153,5.6316641564496815e-15,0.1226675592830713,0.12258244071388494,0.12258244071712202,0.12266755928630965
0.02,-7.401746709472458e-09,2.0,1.6500000000000001,3.800624782913464e-14,-5.029965690767396e-06,1.8356679771404143e-19,0.9999999999968374,1.9003123914738055e-14,-2.5149828453810462e-06,1.3957592951051756e-19,-6.168071526078444e-07,-2.282725156097094e-15,0.0,1.4502173292453154e-11,-0.0005029345156177721,1.1263328312899363e-16,-4.9343963426844296e-05,-3.7284129121758534e-13,0.0,3.1052397350300648e-09,-0.025137418525233577,2.7876736656015985e-14,0.12268172820443787,0.12256827178464927,0.12256827179866137,0.12268172821845642
0.03,-2.4671068615851174e-08,1.9999999999999998,1.6500000000000001,2.915948975015673e-13,-1.1316259306652805e-05,1.1510896865965706e-18,0.9999999999839928,1.4579744875170636e-13,-5.658129653296212e-06,1.4004857114408162e-18,-1.7269321906378713e-06,-2.1302631285074554e-14,0.0,6.400510709208249e-11,-0.0007542466550429253,5.704925303003739e-16,-0.00011101250380300268,-2.8605459448013185e-12,0.0,9.494988041422854e-09,-0.025121908976145222,9.829419825060567e-14,0.12268169319554616,0.12256830677730184,0.12256830682014563,0.1226816932384126
0.04,-6.167310623951425e-08,1.9999999999999991,1.6500000000000001,1.3181083896375282e-12,-2.0114898791664634e-05,3.4758331655373215e-18,0.9999999999494239,6.590541948029107e-13,-1.0057449395662761e-05,8.36632079606975e-18,-3.700203762366308e-06,-1.1410152987213388e-13,0.0,2.0440193412091024e-10,-0.0010053726951406766,2.078517248141107e-15,-0.00019732715717284352,-1.2930643305645954e-11,0.0,2.321661102373741e-08,-0.025100200948495556,2.749291023223088e-13,0.12268164419250413,0.12256835575232414,0.12256835585707941,0.12268164429732276
0.05,-1.2950180653189754e-07,1.9999999999999958,1.6500000000000001,4.379633579943488e-12,-3.142371320955498e-05,3.422481931686557e-18,0.9999999998765688,2.1898167897283388e-12,-1.5711856604131044e-05,3.611732835898664e-17,-6.782870029238319e-06,-4.3919696112871443e-13,0.0,5.283373275668307e-10,-0.0012562506740128364,6.0690745767465505e-15,-0.0003082666266872003,-4.296420544151315e-11,0.0,4.8671510503419073e-08,-0.025072299781839117,6.524348688435754e-13,0.12268158120554709,0.12256841869586269,0.12256841891546373,0.12268158142529864
0.06,-2.4171086079348025e-07,1.9999999999999853,1.6500000000000001,1.1884854942090508e-11,-4.523991227209151e-05,-1.9716734118373073e-17,0.9999999997441689,5.942427469301999e-12,-2.261995613411679e-05,1.2455908166854974e-16,-1.1220905426158239e-05,-1.3561073547194807e-12,0.0,1.1778321441892917e-09,-0.001506818690777459,1.5127214625012615e-14,-0.0004438035396919878,-1.165904270924674e-10,0.0,9.13298923754843e-08,-0.02503821233914515,1.3712669492748869e-12,0.1226815042482374,0.12256849559052034,0.12256849600257483,0.12268150466060834
0.07,-4.1431036050326425e-07,1.9999999999999571,1.6500000000000001,2.7936276471290133e-11,-6.156008702539516e-05,-1.3133384304540446e-16,0.9999999995262945,1.396813822700705e-11,-3.0780043507837354e-05,3.642729811250462e-16,-1.7259949970978267e-05,-3.575488047372232e-12,0.0,2.3549351750765165e-09,-0.0017570149207957395,3.349441356224429e-14,-0.0006039044544819876,-2.7405487262332833e-10,0.0,1.5772271640193727e-07,-0.024997947005166762,2.626736644261595e-12,0.12268141333746581,0.12256858641536619,0.12256858712693626,0.12268141404964213
0.08,-6.65762847068263e-07,1.9999999999998892,1.6500000000000001,5.898355847713595e-11,-8.038021068846517e-05,-4.926933969488198e-16,0.9999999991923777,2.9491779204849055e-11,-4.019010533341311e-05,9.389310157923578e-16,-2.5145248656499414e-05,-8.370386167895696e-12,0.0,4.332286472228037e-09,-0.002006777630880794,6.766194751024452e-14,-0.000788529868552068,-5.786287101414538e-10,0.0,2.554320665294955e-07,-0.024951513684446355,4.6778670532014774e-12,0.12268130849345209,0.1225686911459462,0.12256869229828571,0.122681309646871
0.09,-1.0169787564676638e-06,1.9999999999997415,1.6500000000000001,1.1458200603280025e-10,-0.00010169563964369234,-1.4458281485974357e-15,0.9999999987072496,5.7291002905578555e-11,-5.0847819799934985e-05,2.190208524171275e-15,-3.51215909399387e-05,-1.785895593963472e-11,0.0,7.463576505666428e-09,-0.0022560451944846666,1.2705175462627384e-13,-0.0009976342283438005,-1.1240494835518244e-09,0.0,3.930799525088161e-07,-0.02489892379895363,7.856018654033493e-12,0.12268118973974614,0.12256880975429625,0.12256881152753558,0.12268119151479832
0.1,-1.4913112599156245e-06,1.999999999999444,1.6500000000000001,2.0825508893675094e-10,-0.00012550111457912413,-3.644115738386688e-15,0.9999999980311838,1.0412754414903234e-10,-6.275055724838063e-05,4.712003574690048e-15,-4.7433250344792325e-05,-3.536887016680257e-11,0.0,1.2193885522404359e-08,-0.002504756106859867,2.2478232059091439e-13,-0.0012311659404850464,-2.0429824340720437e-09,0.0,5.803155553565626e-07,-0.02484019028535867,1.2573252622591739e-11,0.122681057103229,0.12256894220895591,0.12256894482672893,0.1226810597239036
0.11,-2.114550501815685e-06,1.9999999999988822,1.6500000000000001,3.584597173877263e-10,-0.00015179076178220883,-8.24219314263174e-15,0.9999999971199456,1.7922985786489922e-10,-7.589538081824348e-05,9.481621820123824e-15,-6.232392418999677e-05,-6.589354258557701e-11,0.0,1.906988761279768e-08,-0.00275284900019184,3.7851680707810863e-13,-0.0014890673845197224,-3.5164898558111432e-09,0.0,8.278009309530541e-07,-0.024775327591937575,1.933040069701149e-11,0.12268091061411339,0.12256908847498393,0.1225690922089896,0.12268091435257988
0.12,-2.914917236428476e-06,1.999999999997876,1.6500000000000001,5.896528433490931e-10,-0.00018055809458470995,-1.7160480709459315e-14,0.9999999959248468,2.948264196984678e-10,-9.027904716972133e-05,1.8036408109472674e-14,-8.00366734612579e-05,-1.16650139509433e-10,0.0,2.8749904141465443e-08,-0.0030002626586986183,6.113903345311442e-13,-0.0017712749271245826,-5.784494457149478e-09,0.0,1.1471951878050858e-06,-0.024704351675106595,2.8724811172307377e-11,0.1226807503059442,0.12256924851397591,0.12256925368846679,0.12268075548706385
0.13,-3.9230558648227635e-06,1.9999999999961524,1.6500000000000001,9.334578049587674e-10,-0.00021179601495844327,-3.344112624757671e-14,0.9999999943928061,4.667288980916698e-10,-0.00010589800728129141,3.2705097683117994e-14,-0.00010081386283938318,-1.9774920793412036e-10,0.0,4.2013791368899397e-08,-0.003246936033693972,9.530130305242562e-13,-0.002077718937809457,-9.157221202549508e-09,0.0,1.5511371567240992e-06,-0.02462727999558653,4.1457741471503734e-11,0.1226805762155991,0.12256942228408226,0.12256942928027484,0.12268058322135877
0.14,-5.172026873827812e-06,1.9999999999933125,1.6500000000000001,1.4299286804977964e-09,-0.00024549681526145426,-6.171363371715454e-14,0.9999999924664141,7.14964331075028e-10,-0.00012274840732248192,5.690391743180653e-14,-0.0001248971009004121,-3.2298558116113767e-10,0.0,5.977264727594743e-08,-0.003492808258610349,1.440545163961219e-12,-0.0024083238060970376,-1.4027600629769506e-08,0.0,2.053226571872348e-06,-0.024544131514194996,5.834136868052692e-11,0.12268038838328862,0.1225696097400288,0.12256961900042744,0.12268039765715082
0.15,-6.697298678852593e-06,1.9999999999887865,1.6500000000000001,2.128910769534898e-09,-0.00028165218013421426,-1.0878980274957747e-13,0.9999999900840061,1.0644553665520948e-09,-0.00014082608960163027,9.550818855678939e-14,-0.00015252718050229793,-5.107600422364392e-10,0.0,8.307832280634636e-08,-0.0037378186639778718,2.1198404041347946e-12,-0.002763007960177896,-2.088461517691713e-08,0.0,2.6680037843123666e-06,-0.024454926687262332,8.030539045221594e-11,0.12268018685255708,0.12256981083313809,0.12256982286576715,0.12268019890371817
0.16,-8.536738872584407e-06,1.999999999981781,1.6500000000000001,3.0914951720840622e-09,-0.00032025318854537755,-1.8440886693524232e-13,0.9999999871797369,1.5457475514607586e-09,-0.00016012659358840043,1.5531086321486726e-13,-0.0001839440193728464,-7.851410302869509e-10,0.0,1.1313272296219476e-07,-0.0039819067923555955,3.0466529730055377e-12,-0.0031416838870360593,-3.032756861401994e-08,0.0,3.410928030856218e-06,-0.02435968746167239,1.0840318977786456e-10,0.12267997167028125,0.12257002551135274,0.12257004089388934,0.12267998707783401
0.17,-1.0730604881726086e-05,1.9999999999712135,1.6500000000000001,4.391565292114024e-09,-0.00036129031598660234,-3.0215487332449575e-13,0.9999999836836635,2.1957825829384764e-09,-0.0001806451570108121,2.455800666613678e-13,-0.00021938660091356626,-1.1770754653911454e-09,0.0,1.5129688342347071e-07,-0.0042250124132113195,4.287904199692086e-12,-0.0035442581540400604,-4.3081257256436915e-08,0.0,4.298354282648889e-06,-0.024258437269526843,1.4381753828999072e-10,0.12267974288667112,0.12257025371925948,0.12257027310306164,0.12267976230366193
0.18,-1.3321534034076875e-05,1.9999999999556342,1.6500000000000001,6.11743294969585e-09,-0.00040475343681590446,-4.805693859857163e-13,0.999999979521832,3.058716363582988e-09,-0.0002023767170265174,3.787283104223776e-13,-0.0002590929152340334,-1.725757544177468e-09,0.0,1.9909980861517255e-07,-0.004467075537746132,5.923003738805352e-12,-0.003970631431994046,-6.001202024409743e-08,0.0,5.347508699533008e-06,-0.024151201022424434,1.8786581399485697e-10,0.122679500555269,0.12257049539811544,0.12257051951213849,0.12267952471264565
0.19,-1.6354533038407622e-05,1.9999999999331324,1.6500000000000001,8.373561646629386e-09,-0.0004506318267489695,-7.444835162196219e-13,0.9999999746163697,4.186780633167005e-09,-0.0002253159114680395,5.71106588661095e-13,-0.0003032999004313103,-2.4801641211577245e-09,0.0,2.5824705741413086e-07,-0.004708036433659808,8.045220479589226e-12,-0.004420698519643068,-8.21446448028145e-08,0.0,6.5764627178286056e-06,-0.024038005105358723,2.420047106345514e-10,0.1226792447329488,0.12257075048587544,0.12257078014047111,0.12267927444339174
0.2,-1.9876966879725637e-05,1.9999999999012266,1.6500000000000001,1.128237439370958e-08,-0.000498914165497814,-1.1265940749887663e-12,0.9999999688855821,5.6411868808141e-09,-0.0002494570801616697,8.439370668050664e-13,-0.000352243384128901,-3.5007650401392115e-09,0.0,3.3062906297174465e-07,-0.004947835639853307,1.076309795149638e-11,-0.004894348369626367,-1.1068010106333528e-07,0.0,8.004105800719485e-06,-0.023918877370236777,3.078344172432301e-10,0.12267897547991531,0.12257101891722062,0.12257105500781267,0.12267901164154604
0.21,-2.3938547132668785e-05,1.9999999998567366,1.6500000000000001,1.498614337403571e-08,-0.0005495885395561473,-1.6693093035408131e-12,0.9999999622440549,7.493071174751539e-09,-0.00027479426631970124,1.224398516457766e-12,-0.000406158025289658,-4.861416516202311e-09,0.0,4.1832917342852056e-07,-0.005186413981064544,1.4201908824453827e-11,-0.005391464115872016,-1.4701407970189215e-07,0.0,9.650116881966105e-06,-0.023793847129008207,3.87102247886953e-10,0.12267869285970238,0.12257130062358872,0.12257134413421902,0.12267873645966405
0.22,-2.859131969591179e-05,1.9999999997956341,1.6500000000000001,1.9648958586082636e-08,-0.0006026424451307489,-2.4268901607642395e-12,0.9999999546027607,9.824478481400332e-09,-0.00030132121800565727,1.7468790415555058e-12,-0.00046527725631698294,-6.651445391977441e-09,0.0,5.236314006110668e-07,-0.005423712582433471,1.850514290923544e-11,-0.005911923102425971,-1.9275630438430078e-07,0.0,1.153493453516177e-05,-0.023662945146398155,4.817057030580386e-10,0.122678396939172,0.12257159553320536,0.12257164753994543,0.12267844905707488
0.23,-3.388965195061046e-05,1.9999999997128728,1.6500000000000001,2.545877248279396e-08,-0.0006580627912181317,-3.4679135256410342e-12,0.9999999458691708,1.2729384981818543e-08,-0.0003290313896721516,2.454410975720415e-12,-0.0005298332254585941,-8.977931802619444e-09,0.0,6.49027864131756e-07,-0.005659672883992507,2.38360228856146e-11,-0.0064555969137080746,-2.4975058974558634e-07,0.0,1.3679725902212038e-05,-0.02352620363226081,5.93694945729949e-10,0.12267808778851164,0.12257190357111733,0.12257196524533871,0.12267814959973948
0.24,-3.9890219346051535e-05,1.9999999996021927,1.6500000000000001,3.262951749886736e-08,-0.0007158359028257261,-4.878083905839584e-12,0.9999999359473706,1.6314756831453605e-08,-0.0003579179437710011,3.4003031080245104e-12,-0.000600056739527054,-1.1968197482285868e-08,0.0,7.972259186553075e-07,-0.005894236655078687,3.037904182383442e-11,-0.007022351406187287,-3.2009561442013865e-07,0.0,1.610635441614724e-05,-0.02338365623353409,7.252746766623854e-10,0.12267776548123233,0.12257222465922638,0.12257229727072574,0.12267783826010274
0.25,-4.665199141581693e-05,1.999999999455898,1.6500000000000001,4.1403293237826994e-08,-0.00077594752433679,-6.763420325087497e-12,0.9999999247381807,2.070164374885513e-08,-0.00038797375243519125,4.64998561229707e-12,-0.000676177206951166,-1.577250663141936e-08,0.0,9.711549524547008e-07,-0.006127346008663189,3.8341516418862306e-11,-0.007612046741467954,-4.0616637745490405e-07,0.0,1.8837346354770103e-05,-0.023235338025794038,8.788053951766146e-10,0.12267743009416592,0.12257255871632482,0.12257264363629769,0.12267751521694004
0.26,-5.423621722791143e-05,1.9999999992646083,1.6500000000000001,5.2052619973553905e-08,-0.0008383828230181811,-9.25384498903589e-12,0.9999999121392812,2.602630576052054e-08,-0.00041919139923227096,6.2830832122166476e-12,-0.0007584225811722708,-2.056698593906868e-08,0.0,1.1739728457507096e-06,-0.006358943415594568,4.795514972736671e-11,-0.008224537420778525,-5.106363052914794e-07,0.0,2.1895856262997043e-05,-0.023081285504428097,1.056804033292859e-09,0.12267708170746186,0.12257290565813259,0.12257300436199085,0.12267718065519798
0.27,-6.27064102724422e-05,1.9999999990169766,1.6500000000000001,6.488275500781029e-08,-0.00090312639267013,-1.2507200098938065e-11,0.9999998980453411,3.244137137246004e-08,-0.00045156318098874107,8.395732209434617e-12,-0.0008470193043993745,-2.6556770018225856e-08,0.0,1.4090720777146417e-06,-0.006588971718751751,5.947759708471949e-11,-0.008859672320853796,-6.364999753935075e-07,0.0,2.5305631283068062e-05,-0.022921536575395755,1.2619439528297738e-09,0.12267672040458359,0.122573265397335,0.12257337946736362,0.12267683476583
0.28,-7.212833279057729e-05,1.999999998699376,1.6500000000000001,8.023406831607741e-08,-0.0009701622574170756,-1.6713718792197936e-11,0.9999998823481507,4.0117025384440845e-08,-0.00048508110968497383,1.1103157033752405e-11,-0.0009421922517369558,-3.3979378165090464e-08,0.0,1.6800854714120709e-06,-0.006817374147102483,7.319402878396219e-11,-0.009517294731201284,-7.870964215247819e-07,0.0,2.9090974433074436e-05,-0.022756130545589,1.4970542968104623e-09,0.12267634627230459,0.1225736378436223,0.12257376897147003,0.12267647774562629
0.29,-8.256997954864711e-05,1.9999999982955496,1.6500000000000001,9.848447380885793e-08,-0.0010394738756386056,-2.2100975636809157e-11,0.9999998649367596,4.9242224510266475e-08,-0.0005197369144201843,1.4542521941965744e-11,-0.0010441646756991956,-4.310832799568917e-08,0.0,1.9908915663761305e-06,-0.007044094329663531,8.941868302092874e-11,-0.010197242392741992,-9.661329846521819e-07,0.0,3.3276706875490546e-05,-0.02258510811279789,1.7651186882911375e-09,0.12267595940070344,0.12257402290373018,0.12257417289273054,0.12267610979703888
0.3,-9.410156106139012e-05,1.999999997786224,1.6500000000000001,1.2005191243459407e-07,-0.0011110441440394952,-2.8939341391552654e-11,0.999999845697616,6.002593891692792e-08,-0.0005555220434469542,1.8876073394618598e-11,-0.0011531581511242744,-5.425699114578673e-08,0.0,2.345619608921882e-06,-0.007269076309358441,1.0849640254978494e-10,-0.010899347537815409,-1.177709672457205e-06,0.0,3.788812921858714e-05,-0.022408511355263012,2.0692732715247368e-09,0.12267555988315906,0.12257442048148144,0.1225745912487991,0.12267573112800148
0.31,-0.00010679548626847875,1.999999997148681,1.6500000000000001,1.4539688325364448e-07,-0.001184855401857804,-3.754796586474527e-11,0.999999824514712,7.269841774708851e-08,-0.0005924276662747867,2.4294588476977247e-11,-0.0012693925205022765,-6.77826958429403e-08,0.0,2.7486541507478733e-06,-0.007492264556768791,1.3080414845142347e-10,-0.01162343693153817,-1.4263439894915957e-06,0.0,4.295098189474848e-05,-0.022226383720835026,2.412804092191994e-09,0.12267514781634506,0.12257483047782902,0.12257502405642766,0.12267534195174465
0.32,-0.00012072634466859607,1.9999999963562873,1.6500000000000001,1.7502501852045548e-07,-0.0012608894352099404,-4.83013116610818e-11,0.9999998012697318,8.751247664319114e-08,-0.0006304446758421542,3.1021144501623166e-11,-0.0013930858397301319,-8.409108077330211e-08,0.0,3.2046392468168515e-06,-0.0077136039837751415,1.5675248439362482e-10,-0.01236933191450545,-1.7169961991075038e-06,0.0,4.849140466081783e-05,-0.02203877001572341,2.7991438152665735e-09,0.12267472330022289,0.12257525279090024,0.12257547133132769,0.12267494248660667
0.33,-0.00013597088791546748,1.9999999953779795,1.6500000000000001,2.0948969872327076e-07,-0.0013391274815715748,-6.163626039899197e-11,0.9999997758422013,1.0474480524755992e-07,-0.0006695636907564761,3.9315224634935866e-11,-0.0015244543243069135,-1.0364070427080725e-07,0.0,3.71848224396423e-06,-0.00793303995708326,1.8678702475675494e-10,-0.013136848446823727,-2.0550949774318436e-06,0.0,5.4535895266652776e-05,-0.021845716392833055,3.2318677809247676e-09,0.12267428643803553,0.12257568731604176,0.12257593308802964,0.12267453295583897
0.34,-0.00015260801088038255,1.9999999941776987,1.6500000000000001,2.4939470344754944e-07,-0.0014195502343932308,-7.805981161080808e-11,0.9999997481096443,1.2469729261126145e-07,-0.0007097750576014467,4.947717402834273e-11,-0.0016637122959826823,-1.269479124531402e-07,0.0,4.295357152149907e-06,-0.008150518311631803,2.2138984001212017e-10,-0.013925797153463143,-2.4465634188390366e-06,0.0,6.111126733907594e-05,-0.02164727033969454,3.714689400764501e-09,0.12267383733629955,0.12257613394586617,0.1225764093397393,0.12267411358740858
0.35000000000000003,-0.00017071873218587415,1.9999999927137786,1.6500000000000001,2.9539689385080893e-07,-0.0015021378478493512,-9.815739300633631e-11,0.9999997179477381,1.4769836840524421e-07,-0.0007510688533111132,6.185302050768479e-11,-0.0018110721298739707,-1.545919695178232e-07,0.0,4.940707590745749e-06,-0.00836598536387715,2.6108081277204496e-10,-0.014735983370917357,-2.897845351607198e-06,0.0,6.82446075293616e-05,-0.021443480665986857,4.25145489846239e-09,0.12267337610479681,0.12257659257029921,0.12257690009819285,0.12267368461379527
0.36,-0.000190386174215351,1.9999999909382762,1.6500000000000001,3.4820892246296807e-07,-0.0015868699417195863,-1.2260179908912903e-10,0.9999996852304749,1.7410435779043487e-07,-0.0007934348876100778,7.683967338070576e-11,-0.0019667442020588457,-1.8722045299337346e-07,0.0,5.660249302737139e-06,-0.00857938792495154,3.0641893798136797e-10,-0.015567207195158257,-3.415931921720841e-06,0.0,7.596323197331823e-05,-0.021234397490663744,4.8461374008386925e-09,0.12267290285656544,0.12257706307662834,0.12257740537350925,0.12267324627178569
0.37,-0.00021169554260360771,1.9999999887962492,1.6500000000000001,4.0860196595753186e-07,-0.0016737256064010225,-1.5216277326642473e-10,0.999999649830324,2.0430084776908466e-07,-0.0008368627055191873,9.489051336402081e-11,-0.0021309368376643788,-2.2555491631521886e-07,0.0,6.459972230212113e-06,-0.008790673313690425,3.580035607888188e-10,-0.016419263530872665,-4.008388402109392e-06,0.0,8.429464211386527e-05,-0.021020072228646828,5.502830387156803e-09,0.12267241770789039,0.12257754534955212,0.12257792517404094,0.1226727988022632
0.38,-0.0002347341052132643,1.9999999862249749,1.6500000000000001,4.77408476475218e-07,-0.0017626834080500162,-1.877172465914583e-10,0.999999611618397,2.387040628077706e-07,-0.0008813415899260428,1.165213860076513e-10,-0.002303856259459221,-2.703968206644307e-07,0.0,7.346142145014444e-06,-0.008999789369524476,4.1647554572450403e-10,-0.017291942141967644,-4.6833811839859395e-06,0.0,9.326647993682144e-05,-0.020800557577139046,6.2257405063303584e-09,0.12267192077829245,0.12257803927123054,0.12257845950622334,0.12267234244999452
0.39,-0.00025959117060231183,1.999999983153106,1.6500000000000001,5.555249470229457e-07,-0.0018537213938522653,-2.302602441242985e-10,0.9999995704646164,2.7776224749309945e-07,-0.0009268605642196486,1.423170103081985e-10,-0.0024857065369638187,-3.2263373756981646e-07,0.0,8.325301828948542e-06,-0.009206684465233206,4.82518370915426e-10,-0.018185027703330633,-5.449704906375431e-06,0.0,0.00010290648267137045,-0.02057590750151571,7.019179773511527e-09,0.12267141219051696,0.12257854472133689,0.12257900837442245,0.12267187746341335
0.4,-0.0002863580659880656,1.9999999794997645,1.6500000000000001,6.439146864175879e-07,-0.001946817097419713,-2.809164675987806e-10,0.9999995262378841,3.2195705395438904e-07,-0.0009734083949884988,1.7293781345202939e-10,-0.0026766895360907064,-3.832458233310284e-07,0.0,9.404271798441853e-06,-0.00941130751955479,5.568591411947346e-10,-0.01909829985383038,-6.316809679396975e-06,0.0,0.00011324243700735288,-0.020346177220784134,7.887557159352494e-09,0.1226708920705218,0.12257906157710938,0.12257957178078165,0.12267140409439958
0.41000000000000003,-0.00031512811471294907,1.9999999751735678,1.6500000000000001,7.436105991955672e-07,-0.0020419475443128185,-3.409525606431551e-10,0.9999994788062544,3.718049317634233e-07,-0.0010209735947813712,2.0912720181870133e-10,-0.0028770048693271153,-4.5331256587258096e-07,0.0,1.05901505690956e-05,-0.009613608009648889,6.402695141024759e-10,-0.02003153325054395,-7.294828356391222e-06,0.0,0.00012430213288221033,-0.02011142319270822,8.835369587019776e-09,0.12267036054746408,0.12257958971340503,0.12258014972506732,0.12267092259805781
0.42,-0.00034599661321765493,1.9999999700715856,1.6500000000000001,8.557179658663481e-07,-0.002139089257686713,-4.117900602261304e-10,0.9999994280371064,4.278585179998567e-07,-0.0010695444249300913,2.517192775036776e-10,-0.003086849846472047,-5.340198041865661e-07,0.0,1.189031445608606e-05,-0.009813535983408955,7.335665329351301e-10,-0.020984497624195086,-8.394603809562128e-06,0.0,0.0001361133168909479,-0.01987170309847002,9.867192353769008e-09,0.12266981775368617,0.12258012900275299,0.12258074220451358,0.12267043323249098
0.43,-0.00037906080752734693,1.9999999640782258,1.6500000000000001,9.814172188501776e-07,-0.002238218264059719,-4.950190352937486e-10,0.9999993737973202,4.907080251519784e-07,-0.0011191088984335025,3.016470086897803e-10,-0.0033064194259397515,-6.266670200659102e-07,0.0,1.3312416906914558e-05,-0.010011042071618289,8.37613361177856e-10,-0.021956957835788535,-9.627716163432933e-06,0.0,0.00014870364537305188,-0.019627075826917154,1.0987668995605642e-08,0.12266926382470059,0.12258067931541014,0.12258134921366667,0.12266993625857306
0.44,-0.0004144198692566859,1.9999999570640425,1.6500000000000001,1.121966709408121e-06,-0.002339310099202631,-5.924124107323608e-10,0.999999315953453,5.609826245063879e-07,-0.0011696547829018477,3.599508612105554e-10,-0.0035359061666414295,-7.326749013707746e-07,0.0,1.4864387363547097e-05,-0.010206077499947298,9.53319912847243e-10,-0.022948673934424516,-1.1006509940099483e-05,0.0,0.00016210063723076662,-0.019377601458483995,1.2201500615265296e-08,0.12266869889917464,0.1225812405194161,0.12258197074422894,0.12266943193971849
0.45,-0.00045217487113958013,1.9999999488844709,1.6500000000000001,1.2787054608455725e-06,-0.002442339814147173,-7.059409718456619e-10,0.9999992543719173,6.393518226666945e-07,-0.001221169603560772,4.2778789760772887e-10,-0.0037755001804568116,-8.535931756086935e-07,0.0,1.655442965152989e-05,-0.010398594100787969,1.081643373483162e-09,-0.023959401216277477,-1.2544121070000939e-05,0.0,0.00017633162653351875,-0.01912334124865543,1.3513434695358466e-08,0.12266812311891295,0.12258181248064985,0.12258260678490254,0.12266892054165064
0.46,-0.0004924287620896732,1.9999999393784778,1.6500000000000001,1.453055903249025e-06,-0.002547281981311971,-8.377890414765138e-10,0.9999991889191592,7.265268288306503e-07,-0.001273640646314112,5.064413488913169e-10,-0.0040253890853070885,-9.911087121447852e-07,0.0,1.8391019894217472e-05,-0.010588544324920407,1.2235886067544122e-09,-0.024988890284722527,-1.4254503721718104e-05,0.0,0.0001914237149636914,-0.018864357611055385,1.4928253420124912e-08,0.12266753662883985,0.12258239506288696,0.12258325732123294,0.12266840233216751
0.47000000000000003,-0.0005352863417976983,1.9999999283671317,1.6500000000000001,1.6465265850000114e-06,-0.0026541107007443444,-9.903708187449181e-10,0.9999991194618388,8.232619104471921e-07,-0.0013270549608646312,5.973306630669846e-10,-0.004285757958840517,-1.1470538908924354e-06,0.0,2.038290395080372e-05,-0.010775881253009077,1.3802084418856602e-09,-0.0260368871115927,-1.6152456904154187e-05,0.0,0.00020740372415921316,-0.0186007141001779,1.645076153079338e-08,0.12266693957698019,0.12258298812785669,0.12258392233545326,0.12266787758090633
0.48,-0.0005808542348719374,1.9999999156520878,1.6500000000000001,1.860714856299802e-06,-0.0027627996064762002,-1.166347365120182e-09,0.9999990458670107,9.303557348697013e-07,-0.0013813993638918417,7.020220333033471e-10,-0.004556789292741839,-1.3234152348677549e-06,0.0,2.2539094377401736e-05,-0.010960558606923965,1.5526038373702799e-09,-0.027103133099550005,-1.8253650794351646e-05,0.0,0.00022429814800867007,-0.018332475393664175,1.8085773740993744e-08,0.1226663321144396,0.12258359153530118,0.12258460180632864,0.12266734655910705
0.49,-0.0006292408645281345,1.999999901013981,1.6500000000000001,2.0973095199336575e-06,-0.0028733218729922482,-1.368644220206553e-09,0.9999989680023044,1.0486526946194123e-06,-0.0014366604422860229,8.222394073746516e-10,-0.004838662947676487,-1.5223423035234042e-06,0.0,2.486886691097712e-05,-0.01114253076088236,1.741923916705535e-09,-0.028187365145552496,-2.0574652744152014e-05,0.0,0.0002421331049548532,-0.0180597072742413,1.9838101740162375e-08,0.12266571439538317,0.12258420514303381,0.12258529570900126,0.122666809539374
0.5,-0.0006805564258353205,1.9999998842107345,1.6500000000000001,2.3580934445043034e-06,-0.0029856502218087336,-1.6004696262065327e-09,0.9999988857361061,1.1790442138733262e-06,-0.001492824556437537,9.598759787343958e-10,-0.005131556108880368,-1.746156843309623e-06,0.0,2.73817564764988e-05,-0.01132175275240879,1.9493658721735274e-09,-0.02928931570539955,-2.3132952918913904e-05,0.0,0.00026093429036275814,-0.017782476611333687,2.171254081424316e-08,0.12266508657701317,0.12258482880699868,0.12258600401483669,0.12266626679543757
0.51,-0.0007349128585241105,1.999999864975768,1.6500000000000001,2.6449461353706473e-06,-0.0030997569281608415,-1.8653333365439606e-09,0.9999987989377394,1.3224700337941974e-06,-0.0015498778435805236,1.1170061582557694e-09,-0.005435643242405826,-1.997362191443013e-06,0.0,3.0087552718232282e-05,-0.011498180293109034,2.1761747329903982e-09,-0.030408712859336995,-2.5946989521567202e-05,0.0,0.00028072692900814095,-0.017500851342241216,2.371385611422298e-08,0.12266444881954619,0.12258546238133057,0.1225867266912704,0.12266571860191451
0.52,-0.0007924238193641457,1.9999998430161166,1.6500000000000001,2.9598462585398623e-06,-0.003215613827796919,-2.16706598058963e-09,0.9999987074776472,1.4799194743262035e-06,-0.001607806221190038,1.2958980243183821e-09,-0.005751096052034207,-2.2786529283973955e-06,0.0,3.299629505666162e-05,-0.011671769779253615,2.423642994457987e-09,-0.03154528037870367,-2.9036173555399552e-05,0.0,0.00030153572774271957,-0.017214900452942623,2.5846768604339173e-08,0.12266380128618808,0.1225861057184154,0.12258746370165663,0.12266516523406838
0.53,-0.0008532046541174428,1.9999998180104464,1.6500000000000001,3.304874112778521e-06,-0.0033331923238775515,-2.509838952845605e-09,0.9999986112275727,1.6524326700887277e-06,-0.0016665953904316621,1.4990262475306506e-09,-0.0060780834368652685,-2.592924774166406e-06,0.0,3.6118267273086674e-05,-0.011842478302167886,2.6931101050771817e-09,-0.032698737793600045,-3.2420913079143894e-05,0.0,0.0003233848283920491,-0.016924693958591565,2.8115940722972617e-08,0.12266314414310839,0.12258675866895094,0.12258821500511805,0.12266460696756942
0.54,-0.0009173723690745284,1.999999789606973,1.6500000000000001,3.6822140452317437e-06,-0.003452463393977576,-2.8981847913211345e-09,0.9999985100607394,1.8411017780123332e-06,-0.0017262308396626274,1.7290854849567208e-09,-0.006416771449593458,-2.943284722884964e-06,0.0,3.94639916245026e-05,-0.012010263658425446,2.9859618089174393e-09,-0.03386880046156004,-3.612263690816372e-05,0.0,0.00034629776094200707,-0.01663030288365161,3.0525961790312176e-08,0.12266247755941351,0.12258742108200818,0.12258898055639703,0.12266404407825507
0.55,-0.0009850456021803218,1.9999997574212758,1.6500000000000001,4.0941568058681135e-06,-0.00357339759718903,-3.3370180061835774e-09,0.9999984038520309,2.0470721543754358e-06,-0.0017866978479834474,1.989004237269257e-09,-0.006767323255480909,-3.333061409936936e-06,0.0,4.3044222491926816e-05,-0.012175084359840918,3.3036293408834252e-09,-0.035055179637206016,-4.0163817715814855e-05,0.0,0.0003702973970696679,-0.016331799241681415,3.308133319785674e-08,0.12266180170711882,0.12258809280509234,0.12258976030570949,0.12266347684188987
0.56,-0.0010563445937568348,1.9999997210340053,1.6500000000000001,4.543101836102514e-06,-0.003695965081323025,-3.831656316103053e-09,0.9999982924781707,2.2715434989174127e-06,-0.0018479814888390565,2.2819591607782957e-09,-0.0071298990920368056,-3.7658157052196845e-06,0.0,4.686993956589596e-05,-0.012336899643259075,3.647588472874574e-09,-0.03625758254286731,-4.456799448940009e-05,0.0,0.00039540590407404294,-0.016029256014792482,3.578645341583643e-08,0.12266111676111902,0.12258877368420469,0.12259055419860028,0.12266290553392697
0.5700000000000001,-0.0011313911568298469,1.999999679988487,1.6500000000000001,5.031559486988967e-06,-0.0038201355902084694,-4.3878422460408385e-09,0.999998175817899,2.51577096372388e-06,-0.0019100666336684224,2.6113898247951938e-09,-0.0075046562294125456,-4.245351525783371e-06,0.0,5.0952340573407674e-05,-0.012495669480136768,4.019358409200154e-09,-0.03747571244014182,-4.9359794295523654e-05,0.0,0.00042164469926192066,-0.015722747132775917,3.8645602855472545e-08,0.12266042289915799,0.12258946356390474,0.1225913621758004,0.12266233042926984
0.58,-0.0012103086470668086,1.999999633788211,1.6500000000000001,5.5621531624210415e-06,-0.00394587847108559,-5.011765036570045e-09,0.9999980537521506,2.781066224602643e-06,-0.0019729379556015967,2.9810139032831665e-09,-0.007891748931521947,-4.7757268606143686e-06,0.0,5.530283355113437e-05,-0.012651354585914593,4.420500529984025e-09,-0.0387092687023802,-5.456495331009867e-05,0.0,0.0004490344048437044,-0.015412347451879225,4.166292862355548e-08,0.12265972030179664,0.12259016228737214,0.12259218417308837,0.12266175180203494
0.59,-0.0012932219323333143,1.9999995818942147,1.6500000000000001,6.137621382828233e-06,-0.004073162682092077,-5.710082811174483e-09,0.9999979261642287,3.068798512694328e-06,-0.002036579933203134,3.3948427882257117e-09,-0.008291328417895523,-5.361264999888441e-06,0.0,5.993302867028176e-05,-0.012803916429174353,4.852616981671263e-09,-0.03995794688807175,-6.0210337068759305e-05,0.0,0.00047759480339370803,-0.015098132733341006,4.4842429207906374e-08,0.12265900915237989,0.12259086969646885,0.12259302012115221,0.12266116992531613
0.6,-0.00138025736187558,1.9999995237223471,1.6500000000000001,6.760819764913249e-06,-0.00420195679983976,-6.489944944359344e-09,0.9999977929399798,3.3803956040899405e-06,-0.0021009768542608093,3.857197610615181e-09,-0.008703542826277633,-6.006565960581117e-06,0.0,6.485472961900853e-05,-0.012953317240581413,5.3173491141421524e-09,-0.0412214388151108,-6.632395989398195e-05,0.0,0.000507344793928933,-0.014780179621659475,4.81879391326947e-08,0.12265828963700261,0.12259158563180132,0.12259386994545544,0.12266058507095043
0.61,-0.0014715427351364363,1.9999994586404215,1.6500000000000001,7.4347229130367576e-06,-0.004332229027079604,-7.359014569837669e-09,0.9999976539679651,3.71734476525854e-06,-0.0021661128196185575,4.372725653429747e-09,-0.009128537175975135,-6.716518099890248e-06,0.0,7.007992454886042e-05,-0.013099520021607542,5.816375764325157e-09,-0.04249943263592238,-7.293500345582508e-05,0.0,0.0005383023486597113,-0.014458565622432838,5.1703113622576505e-08,0.12265756194447393,0.12259230993278283,0.12259473356610617,0.12265999750928494
0.62,-0.0015672072702124441,1.9999993859652487,1.6500000000000001,8.162426217923359e-06,-0.004463947200452831,-8.325491164540181e-09,0.9999975091396299,4.081193652121814e-06,-0.002231971747052508,4.946417139431947e-09,-0.009566453331965893,-7.4963099074998995e-06,0.0,7.562077659220276e-05,-0.01324248855303007,6.3514113865936825e-09,-0.04379161291342528,-8.007383442385493e-05,0.0,0.0005704844704651609,-0.014133369080022908,5.539141331598843e-08,0.12265682626628009,0.122593042437696,0.12259561089772894,0.12265940750894697
0.63,-0.001667381571959813,1.9999993049595526,1.6500000000000001,8.947147558434891e-06,-0.004597078798325907,-9.39813314074655e-09,0.999997358349472,4.473551160648612e-06,-0.0022985373751890125,5.583622375089824e-09,-0.010017429969775346,-8.35144196729566e-06,0.0,8.148961395816364e-05,-0.013382187403208,6.924204030644926e-09,-0.04509766069781064,-8.777202116853344e-05,0.0,0.0006039071511456642,-0.013804669154977769,5.9256089067739465e-08,0.1226560827965468,0.12259378298375426,0.12259650184934048,0.122658815336615
0.64,-0.001772197599756883,1.9999992148287626,1.6500000000000001,9.79222890223482e-06,-0.004731590948707183,-1.0586280375263848e-08,0.9999972014952062,4.89608822688135e-06,-0.002365793267463533,6.290069230396414e-09,-0.01048160254112903,-9.287739078730048e-06,0.0,8.769891961511604e-05,-0.013518581936129625,7.536533167948472e-09,-0.04641725360411399,-9.606234947110543e-05,0.0,0.0006385853305040268,-0.013472545801150333,6.330016688095456e-08,0.12265533173199923,0.12259453140716484,0.1225974063242283,0.12265822125679353
0.65,-0.0018817886349310126,1.9999991147176874,1.6500000000000001,1.0701137801250187e-05,-0.004867450437242837,-1.1899876601295545e-08,0.9999970384779276,5.350538574347657e-06,-0.0024337228161192374,7.071880932849077e-09,-0.010959103240388837,-1.0311362527633105e-05,0.0,9.426132056824418e-05,-0.013651638319231007,8.190207368264017e-09,-0.04775006589055811,-0.00010497883720183265,0.0,0.0006745328563060057,-0.013137079742591828,6.752643300882656e-08,0.12265457327192168,0.12259528754318946,0.12259832421983394,0.12265762553158917
0.66,-0.0019962892478577886,1.9999990037070616,1.6500000000000001,1.167746877792554e-05,-0.005004623715289876,-1.3349491585463921e-08,0.9999968692022719,5.838699406854645e-06,-0.00250230924624417,7.935594152350824e-09,-0.011450060971780456,-1.1428822495868288e-05,0.0,0.00010118957674123616,-0.013781323530981462,8.887061828125003e-09,-0.049095768537644566,-0.0001145567479272836,0.0,0.0007117624451700871,-0.012798352450230262,7.193741926719919e-08,0.12265380761811547,0.12259605122620687,0.1225992554276395,0.122657028420491
0.67,-0.002115835264740541,1.99999888080997,1.6500000000000001,1.2724944598355893e-05,-0.005143076908063788,-1.494634300938068e-08,0.9999966935765714,6.362432044709608e-06,-0.002571535619845787,8.888177352315475e-09,-0.011954601317419287,-1.2646990598847624e-05,0.0,0.00010849656947164592,-0.013907605368235612,9.628955753608001e-09,-0.050454029327970315,-0.00012483260340829622,0.0,0.0007502856444359506,-0.01245644611835156,7.653538859808893e-08,0.12265303497485551,0.1225968222897735,0.1226001998330585,0.12265643018015322
0.68,-0.0022405637340782232,1.9999987449681447,1.6500000000000001,1.3847417428483787e-05,-0.0052827758228585955,-1.6702317972218936e-08,0.9999965115130104,6.9236625024600134e-06,-0.0026413848399617413,9.937049380801433e-09,-0.01247284650614186,-1.3973112539543541e-05,0.0,0.00011619528962995517,-0.014030452453348493,1.0417769600086782e-08,-0.051824512926747446,-0.00013584419495118983,0.0,0.0007901127950594474,-0.012111443640777826,8.132232092384829e-08,0.12265225554884573,0.12259760056668483,0.12260115731533114,0.12265583106418146
0.6900000000000001,-0.0023706128928297878,1.9999985950481347,1.6500000000000001,1.5048869869647767e-05,-0.00542368595733679,-1.8629994027932483e-08,0.9999963229277746,7.52438200629689e-06,-0.0027118396548056587,1.1090098274068705e-08,-0.013004915383149563,-1.541482086726806e-05,0.0,0.00012429882537283487,-0.014149834241051169,1.1255402172084967e-08,-0.05320688096300176,-0.00014763059357580607,0.0,0.0008312529955816776,-0.011763428587070832,8.62998993336877e-08,0.12265146954917332,0.1225983858890354,0.12260212774742349,0.12265523132292275
0.7000000000000001,-0.0025061221322832416,1.999998429837348,1.6500000000000001,1.63334158698772e-05,-0.005565772507886915,-2.074265966811114e-08,0.9999961277412006,8.166647449319517e-06,-0.002782882661946766,1.2355700243554894e-08,-0.013550923380471251,-1.6980147829133693e-05,0.0,0.00013282034954158873,-0.01426572102508991,1.2143767586760536e-08,-0.054600792111427626,-0.00016023215896500967,0.0,0.0008737140672183437,-0.011412485178363338,9.146949664013899e-08,0.12265067718726168,0.12259917808827939,0.12260311099593169,0.1226546312032594
0.71,-0.002647231963637645,1.9999982480399654,1.6500000000000001,1.770530150743993e-05,-0.005709000378046278,-2.3054334158960797e-08,0.9999959258779174,8.852581782915374e-06,-0.0028544963125221447,1.3742738815902333e-08,-0.01411098248825107,-1.8677538301764977e-05,0.0,0.00014177310671720174,-0.014378083944618435,1.3084792104887747e-08,-0.056005902174875534,-0.000173690547161378,0.0,0.0009175025201140809,-0.01105869826300487,9.683216234494544e-08,0.12264987867682176,0.12259997699529009,0.122604106920991,0.12265403094840628
0.72,-0.0027940839833063614,1.9999980482727213,1.6500000000000001,1.9168905643265974e-05,-0.005853334186986365,-2.5579786638566227e-08,0.9999957172669885,9.584374342567496e-06,-0.0029266629154803643,1.526062409434364e-08,-0.01468520122686761,-2.0515862790495386e-05,0.0,0.00015117039994387034,-0.014486894990350007,1.4080410833659445e-08,-0.057421864167448,-0.0001880487169779453,0.0,0.000962623520806611,-0.01070215329244768,1.0238861005571639e-07,0.12264907423380253,0.12260078244041836,0.12260511537618875,0.12265343079771378
0.73,-0.002946820837949948,1.9999978290605591,1.6500000000000001,2.0728740438991033e-05,-0.005998738278058603,-2.8334554378447838e-08,0.9999955018420467,1.0364281106462017e-05,-0.0029993646418553393,1.691931210847123e-08,-0.01527368461989023,-2.2504430482961943e-05,0.0,0.00016102557713333396,-0.014592127010467389,1.5132564306002074e-08,-0.05884832839818122,-0.00020335093509105508,0.0,0.0010090808609428173,-0.010342936296509845,1.0813920538717991e-07,0.12264826407634064,0.12260159425355173,0.12260613620848342,0.12265283098647364
0.74,-0.003105586189247101,1.999997588832152,1.6500000000000001,2.238945173748894e-05,-0.006145176727397971,-3.1334960111461326e-08,0.999995279541427,1.1194624885331254e-05,-0.0030725835290691408,1.87293242181818e-08,-0.01587653416787818,-2.4653002343699405e-05,0.0,0.0001713520171627267,-0.014693753716280204,1.6243194941403043e-08,-0.060284942555287824,-0.00021964277978459663,0.0,0.0010568769272888837,-0.009981133858747056,1.1408395438652921e-07,0.12264744842470725,0.12260241226417176,0.1226071692581284,0.12265223174573021
0.75,-0.0032705246784121528,1.9999973259152943,1.6500000000000001,2.4155819302891113e-05,-0.006292613352581923,-3.459812832633231e-08,0.9999950503082955,1.2077795442032357e-05,-0.003146301485262507,2.0701766536402047e-08,-0.016493847823027943,-2.6971804236038324e-05,0.0,0.00018216311567911163,-0.01479174968764233,1.741424339373266e-08,-0.061731351790936716,-0.00023697114331616912,0.0,0.0011060126730750438,-0.009616833091926485,1.202224925203479e-07,0.12264662750125584,0.12260323630141112,0.12260821435860039,0.1226516333020972
0.76,-0.0034417818904676598,1.999997038532162,1.6500000000000001,2.6032756917224713e-05,-0.006441011721342307,-3.814200042757137e-08,0.9999948140907708,1.3016249539428484e-05,-0.003220500293651894,2.284834933407192e-08,-0.017125719964673863,-2.9471540057326485e-05,0.0,0.00019347227062422757,-0.014886090378118734,1.864764479181e-08,-0.06318719880654679,-0.0002553842328770234,0.0,0.0011564875907132198,-0.009250121613016502,1.2655407425472826e-07,0.12264580153036705,0.12260406619410971,0.12260927133653436,0.12265103587757809
0.77,-0.0036195043182806557,1.9999967247944408,1.6500000000000001,2.8025312330938334e-05,-0.006590335160327657,-4.198534865818142e-08,0.9999945708420458,1.4012510915207936e-05,-0.00329516161691173,2.518140638978979e-08,-0.017772241375647056,-3.2163404873221555e-05,0.0,0.00020529286749337603,-0.01497675211990266,1.9945324878827224e-08,-0.06465212393856952,-0.0002749315701189748,0.0,0.0012082996859262315,-0.008881087518451333,1.3307756326689243e-07,0.12264497073839334,0.12260490177087018,0.12261034001166289,0.12265043968939293
0.78,-0.003803839326371219,1.9999963826983236,1.6500000000000001,3.0138667064724762e-05,-0.006740546763913449,-4.614778868147383e-08,0.9999943205205004,1.5069170182347475e-05,-0.003370267001580707,2.771391424551223e-08,-0.01843349921949719,-3.505909803654534e-05,0.0,0.0002176382643427522,-0.01506371212848776,2.130919605714785e-08,-0.0661257652447368,-0.00029566398922286176,0.0,0.0012614454533248847,-0.008509819359303356,1.397914233205246e-07,0.12264413535360238,0.12260574286011235,0.12261142019676148,0.12264984494981072
0.79,-0.003994935114502018,1.9999960101193779,1.6500000000000001,3.2378136060195494e-05,-0.006891609403057819,-5.064979071744045e-08,0.9999940630898126,1.618888465399832e-05,-0.0034457978824908144,3.0459511328755764e-08,-0.01910957701858158,-3.8170836275946166e-05,0.0,0.00023052177655987372,-0.015146948507088727,2.2741153345237716e-08,-0.06760775859075002,-0.0003176336334845426,0.0,0.0013159198534673957,-0.008136406116255376,1.4669370983418278e-07,0.12264329560611897,0.122606589290127,0.12261251169759976,0.12264925186598645
0.8,-0.004192940681057562,1.9999956048072818,1.6500000000000001,3.474916717710939e-05,-0.00704348573420024,-5.551268912851181e-08,0.9999937985190627,1.7374378091647648e-05,-0.003521735587217897,3.343251690086914e-08,-0.01980055463302581,-4.151136673938676e-05,0.0,0.00024395666141210012,-0.015226440250812868,2.4243070253831505e-08,-0.06909773773738585,-0.0003408939503958742,0.0,0.0013717162914343396,-0.0077609371746385596,1.537820621773355e-07,0.12264245172786595,0.12260744088912834,0.1226136143128986,0.12264866063980442
0.81,-0.00439800578622191,1.9999951643804303,1.6500000000000001,3.7257340535009614e-05,-0.007196138208200664,-6.07586903491604e-08,0.9999935267828335,1.862844037548407e-05,-0.0035980613405524613,3.6647949790137697e-08,-0.02050650824055975,-4.5093979977260544e-05,0.0,0.0002579561023885605,-0.015302167250581498,2.5816794588784426e-08,-0.07059533442799477,-0.0003654996851995987,0.0,0.0014288265969529612,-0.007383502299674206,1.6105369672219574e-07,0.1226416039525042,0.1226082974853057,0.12261472783429224,0.12264807146772838
0.8200000000000001,-0.004610280914963642,1.9999946863204126,1.6500000000000001,3.990836769727739e-05,-0.007349529079316634,-6.641087905369915e-08,0.9999932478613056,1.9953927095973088e-05,-0.0036747562689894995,4.01215468677485e-08,-0.021227510317232696,-4.8932522849739766e-05,0.0,0.00027253319335115934,-0.015374110296806352,2.746414418827542e-08,-0.07210017847636828,-0.0003915068728985824,0.0,0.0014872410060992921,-0.007004191611537178,1.6850540067729438e-07,0.12264075251537213,0.122609158906874,0.12261585204629696,0.12264748454065685
0.8300000000000001,-0.004829917239836914,1.9999941679663609,1.6500000000000001,4.27080906957695e-05,-0.007503620414215941,-7.249322245678292e-08,0.9999929617403467,2.1353759065727734e-05,-0.0037518014052361037,4.386978122398887e-08,-0.02196362961901115,-5.304141134277492e-05,0.0,0.00028770092251054636,-0.015442251082812242,2.9186902602330314e-08,-0.07361189785495079,-0.0004189728287013964,0.0,0.0015469481446073515,-0.006623095560379013,1.7613352673176252e-07,0.1226398976534226,0.12261002498212319,0.1226169867262867,0.1226469000437846
0.84,-0.005057066583607463,1.999993606509173,1.6500000000000001,4.566248089436597e-05,-0.007658374101022197,-7.903057264153627e-08,0.9999926684115961,2.2830921750839345e-05,-0.0038291776927355608,4.790988000147462e-08,-0.022714931164262295,-5.7435643276996525e-05,0.0,0.0003034721562433064,-0.015506572208013932,3.098681472291067e-08,-0.07513011878337175,-0.0004479561368877969,0.0,0.0016079350128144854,-0.006240304901689812,1.8393398853358363e-07,0.12263903960516087,0.12261089553946665,0.1226181316444727,0.1226463181564718
0.85,-0.005291881381712462,1.999992998985607,1.6500000000000001,4.877763768991914e-05,-0.007813751858391001,-8.604866681094624e-08,0.9999923678725426,2.438846462091619e-05,-0.003906865990206769,5.2259841841710574e-08,-0.02348147621712632,-6.213081089361804e-05,0.0,0.00031985962276683607,-0.015567057180846038,3.2865582373001987e-08,-0.07665446581727475,-0.0004785166380792763,0.0,0.0016701869722660252,-0.0058559106715930925,1.9190225702708668e-07,0.1226381786105795,0.12261177040748801,0.1226192865638912,0.12264573905211891
0.86,-0.005534514644563123,1.999992342272252,1.6500000000000001,5.205978704926011e-05,-0.007969715244614147,-9.357412535912615e-08,0.9999920601265998,2.602950041715971e-05,-0.0039848470761976685,5.693845390087621e-08,-0.024263322271780182,-6.714311330130191e-05,0.0,0.0003368758956886269,-0.015623690421445794,3.4824859863452404e-08,-0.07818456193741895,-0.0005107154149014649,0.0,0.001733687734005031,-0.005470004162194848,2.0003335766896584e-07,0.12263731491109478,0.12261264941498698,0.12262045124039649,0.1226451628980483
0.87,-0.005785119919699017,1.9999916330793774,1.6500000000000001,5.551527988108774e-05,-0.008126225666749422,-1.0163444766033287e-07,0.9999917451831719,2.7757204337893217e-05,-0.004063101653651514,6.196530839040739e-08,-0.025060523037595383,-7.248936876783181e-05,0.0,0.0003545333774469367,-0.015676457264089935,3.6866249526381304e-08,-0.07972002863902991,-0.0005446147760268311,0.0,0.0017984193485691548,-0.005082676897063057,2.0832186854000585e-07,0.12263644874947936,0.12261353239102397,0.12262162542266057,0.12264458985539335
0.88,-0.00604385125380307,1.999990867944657,1.6500000000000001,5.915059024173512e-05,-0.00828324438977353,-1.1025800547516415e-07,0.9999914230577168,2.9574813141042698e-05,-0.004141610354484693,6.736081859771148e-08,-0.025873128425192005,-7.818702684033038e-05,0.0,0.00037284428266001,-0.015725343959387055,3.899129723425252e-08,-0.08126048602137538,-0.0005802782385877851,0.0,0.0018643621977146969,-0.0046940206069712165,2.1676191937871798e-07,0.12263558036979698,0.12261441916496327,0.1226228088521791,0.1226440200789943
0.89,-0.006310863154586217,1.9999900432267768,1.6500000000000001,6.297231337398248e-05,-0.008440732545755763,-1.1947403387521613e-07,0.9999910937718016,3.148562416315626e-05,-0.004220353744174937,7.314623434221019e-08,-0.026701184533390983,-8.425418027767534e-05,0.0,0.00039182062140123063,-0.01577033767622936,4.120148791395566e-08,-0.08280555287754339,-0.0006177705089519916,0.0,0.0019314949878872672,-0.004304127205594956,2.2534719154291124e-07,0.12263471001733413,0.12261530956651452,0.12262400126328352,0.12264345371730108
0.9,-0.006586310552550716,1.9999891550989233,1.6500000000000001,6.698716357825828e-05,-0.008598651143049946,-1.2931261958960665e-07,0.9999907573531535,3.3492994254635664e-05,-0.004299312326358676,7.934365682185547e-08,-0.027544733637066478,-9.070957677869824e-05,0.0,0.0004114741824177553,-0.015811426503498954,4.3498241065110745e-08,-0.08435484678439843,-0.0006571574618534044,0.0,0.001999794745456633,-0.003913088765522543,2.3407091891867518e-07,0.12263383793853191,0.12261620342577355,0.12262520238315977,0.12264289091228404
0.91,-0.00687034876264117,1.9999881995421571,1.6500000000000001,7.120197191574841e-05,-0.008756961075502234,-1.3980468667920777e-07,0.9999904138357035,3.5600338630942024e-05,-0.004378466547436314,8.597605280530611e-08,-0.02840381417589984,-9.757263048969795e-05,0.0,0.0004318165163103633,-0.01584859945153981,4.5882906292329167e-08,-0.08590798419269333,-0.000698506117874267,0.0,0.0020692368137304033,-0.003520997494464023,2.4292588979053334e-07,0.12263296438091756,0.12261710057326054,0.12262641193187367,0.12264233179935136
0.92,-0.007163133445792246,1.9999871723386722,1.6500000000000001,7.562368374310978e-05,-0.008915623131672478,-1.5098197944715324e-07,0.9999900632596253,3.781112963962648e-05,-0.004457796801184303,9.306726812509361e-08,-0.029278460744036477,-0.00010486343327476538,0.0,0.0004528589186923634,-0.015881846453388235,4.835675886092141e-08,-0.08746458051731347,-0.0007418846192750603,0.0,0.002139794851759415,-0.0031279457114036235,2.5190444967453555e-07,0.12263208959303398,0.12261800083995837,0.12262762962240273,0.1226417765072744
0.93,-0.007464820570382193,1.9999860690649454,1.6500000000000001,8.02593560786649e-05,-0.009074598004066644,-1.6287704249719918e-07,0.9999897056713667,4.0128895443126426e-05,-0.004537283433372721,1.0064204042734021e-07,-0.030168704080646844,-0.00011260276573240109,0.0,0.0004746124133455516,-0.015911158365767883,5.092099528581988e-08,-0.08902425022763058,-0.0007873622041711438,0.0,0.0022114408349498908,-0.0027340258233274004,2.609985051296838e-07,0.12263121382436988,0.12261890405734772,0.12262885516067401,0.12264122515812037
0.9400000000000001,-0.007775566373601146,1.9999848850847772,1.6500000000000001,8.51161548001336e-05,-0.009233846298378083,-1.7552319785483868e-07,0.9999893411236774,4.255721861735801e-05,-0.004616906746387286,1.0872601113392512e-07,-0.031074571061392237,-0.0001208121079419051,0.0,0.0004970877353913612,-0.015936526969854783,5.357672896351509e-08,-0.09058660693794349,-0.0008350091790565953,0.0,0.0022841450574896736,-0.002339330302039179,2.7019952855019063e-07,0.12263033732528902,0.12261981005744167,0.12263008824560886,0.1226406778671935
0.9500000000000001,-0.008095527322743346,1.999983615542229,1.6500000000000001,9.020135167414045e-05,-0.009393328542735219,-1.889545190696697e-07,0.9999889696756268,4.5099734666226844e-05,-0.004696647003854563,1.1734573657342605e-07,-0.031996084690796234,-0.00012951364992303948,0.0,0.0005202953144953451,-0.015957944971808666,5.632498585682369e-08,-0.09215126349798405,-0.0008848968896775469,0.0,0.002357876136594919,-0.0019439516610611496,2.7949856394395894e-07,0.12262946034695787,0.12262071867281843,0.12263132856917439,0.12264013474298249
0.96,-0.008424860076432285,1.999982255354455,1.6500000000000001,9.552232121791808e-05,-0.00955300519695345,-2.0320580222140956e-07,0.9999885913926186,4.776013045226926e-05,-0.0047764844352692695,1.265286982376917e-07,-0.03293326409552204,-0.00013873030179249805,0.0,0.0005442452581232596,-0.015975406003076006,5.916670024239427e-08,-0.09371783208346525,-0.0009370976902590811,0.0,0.0024326010185886987,-0.0015479824329993688,2.888862336934191e-07,0.12262858314127434,0.12262162973665247,0.1226325758164413,0.12263959588711697
0.97,-0.008763721445787881,1.9999807992044376,1.6500000000000001,0.0001010865373938094,-0.009712836661788925,-2.1831253375613594e-07,0.9999882063463993,5.0542142543728663e-05,-0.004856399240622492,1.3630331212152905e-07,-0.03388612451855599,-0.00014848570360077322,0.0,0.000568947334867119,-0.015988904620468654,6.210271053069207e-08,-0.09528592428665046,-0.0009916849110915673,0.0,0.002508284986813469,-0.0011515151472116236,2.983527463038687e-07,0.12262770596079446,0.12262254308274396,0.12263382966564755,0.12263906139433174
0.98,-0.009112268355544713,1.9999792415336257,1.6500000000000001,0.00010690157013735596,-0.009872783288191984,-2.3431085508380008e-07,0.9999878146150578,5.344955547846292e-05,-0.004936371595029737,1.466989371037146e-07,-0.03485467731429735,-0.0001588042348330814,0.0,0.000594410957859529,-0.015998436306020238,6.513375516847164e-08,-0.09685515120692195,-0.0010487328244841005,0.0,0.0025848916713779512,-0.0007546423076572675,3.078879051375045e-07,0.12262682905866032,0.12262345854554632,0.12263508978826973,0.12263853135243863
0.99,-0.009470657805130426,1.9999775765344816,1.6500000000000001,0.00011297508171994239,-0.010032805386558055,-2.5123752387280375e-07,0.9999874162830211,5.6486199945170556e-05,-0.005016381653357669,1.5774588232836493e-07,-0.0358389299445539,-0.00016971102355809839,0.0,0.0006206451682946781,-0.0160039974666218,6.826046863344216e-08,-0.09842512354132762,-0.0011083166090945138,0.0,0.0026623830607422068,-0.00035745637098020394,3.1748111811577187e-07,0.12262595268852527,0.12262437596019271,0.1226363558491,0.122638005842306
1.0,-0.009839046829713321,1.9999757981429382,1.6500000000000001,0.00011931482294715159,-0.010192863235973824,-2.6912987198245137e-07,0.9999870114410426,5.965595088251553e-05,-0.005096409554848476,1.6947541354662307e-07,-0.0368388859754431,-0.00018123195520836446,0.0,0.0006476586190743731,-0.016005585433439842,7.148337753078708e-08,-0.09999545167508467,-0.00117051231264723,0.0,0.0027407195151400317,3.995027490107106e-05,3.2712140839447887e-07,0.12262507710448126,0.12262529516252012,0.1226376275063303,0.12263748493784717
1.01,-0.010217592461228197,1.999973900030772,1.6500000000000001,0.0001259286291941683,-0.010352917093456475,-2.880257599793843e-07,0.9999866001861848,6.296272549682219e-05,-0.005176435427740741,1.8191975837963815e-07,-0.03785454507519814,-0.00019339368097634498,0.0,0.0006754595585974787,-0.016003198461123778,7.480289680133174e-08,-0.10156574577201985,-0.0012353968130520325,0.0,0.0028198597818339757,0.0004374853318844102,3.367974260004935e-07,0.12262420256098391,0.12262621598909207,0.12263890441164163,0.1226369687060164
1.02,-0.01060645168938953,1.9999718755978946,1.6500000000000001,0.00013282441627975248,-0.010512927203184013,-3.0796352818965867e-07,0.9999861826217942,6.641048119910362e-05,-0.0052564393938858145,1.9511211046493136e-07,-0.03888590301287797,-0.0002062236258102764,0.0,0.0007040558147110526,-0.015996835726802154,7.821932605079695e-08,-0.10313561586492598,-0.0013030477779386184,0.0,0.0028997610121979313,0.000835056612564361,3.464974604151805e-07,0.12262332931277842,0.12262713827721938,0.12264018621030129,0.12263645720681274
1.03,-0.011005781422700941,1.9999697179645686,1.6500000000000001,0.00014001017618048723,-0.010672853805714434,-3.289819442439318e-07,0.9999857588574721,7.000321346227824e-05,-0.005336401573358589,2.090866324494541e-07,-0.03993295165798023,-0.00021974999599408914,0.0,0.0007334547788414373,-0.01598649732887249,8.173284600963535e-08,-0.10470467194581455,-0.0013735436226236073,0.0,0.0029803787806234215,0.0012325720606715454,3.562094540881133e-07,0.12262245761482475,0.12262806186497954,0.12264147254126545,0.12263595049329241
1.04,-0.011415738449470065,1.9999674199635487,1.6500000000000001,0.0001474939725871874,-0.010832657147191822,-3.5112014707929387e-07,0.9999853290090369,7.37449535995202e-05,-0.005416302089061702,2.238784577939486e-07,-0.04099567898095607,-0.00023400178629587957,0.0,0.000763663390323521,-0.015972184285588723,8.534351513255921e-08,-0.10627252405604522,-0.0014469634665284518,0.0,0.0030616671052400026,0.0016299397711135727,3.6592101686664024e-07,0.12262158772222273,0.12262898659123381,0.12264276303728852,0.12263544861158901
1.05,-0.011836479398837753,1.9999649741321575,1.6500000000000001,0.00015528393630553764,-0.010992297488537282,-3.7441758736756965e-07,0.9999848931984817,7.763976646478061e-05,-0.005496121071322109,2.3952369135462163e-07,-0.042074069054625046,-0.00024900878666959996,0.0,0.0007946881209462374,-0.01595389853345022,8.905126634696815e-08,-0.10783878237631223,-0.0015233870880684915,0.0,0.0031435784704373433,0.002027068009681325,3.756194413304631e-07,0.12262071989013681,0.12262991229564271,0.12264405732503832,0.12263495160094173
1.06,-0.012268160701830648,1.9999623727042952,1.6500000000000001,0.00016338826050320854,-0.011151735114622805,-3.989139643464607e-07,0.9999844515539243,8.169174807660597e-05,-0.005575838662479096,2.560594087096283e-07,-0.043168102056488855,-0.00026480158849485235,0.0,0.0008265349597322679,-0.015931642925395097,9.285590395916848e-08,-0.10940305731646983,-0.0016028948780351536,0.0,0.003226063851180218,0.0024238652323812365,3.8529171899313275e-07,0.12261985437372076,0.12263083881868028,0.12264535502521785,0.12263445949373193
1.07,-0.012710938552446064,1.9999596076023924,1.6500000000000001,0.00017181519580587896,-0.011310930343426073,-4.246491590366342e-07,0.9999840042095524,8.590502316647027e-05,-0.0056554350214627,2.735236541994442e-07,-0.0442777542719417,-0.0002814115903399028,0.0,0.0008592093979698418,-0.015905421228802594,9.675710072683081e-08,-0.1109649596051771,-0.001685567791495062,0.0,0.0033090727391006146,0.00282024010430839,3.949245573630081e-07,0.12261899142804264,0.12263176600164519,0.12264665575269332,0.12263397231552708
1.08,-0.013164968868778189,1.9999566704293081,1.6500000000000001,0.00018057304524477118,-0.011469843535164382,-4.516631638348562e-07,0.9999835513055613,9.028374265292631e-05,-0.005734890328361655,2.919554376518643e-07,-0.045402998098375724,-0.00029887100323328704,0.0,0.0008927164145142802,-0.01587523812330893,1.0075439510642864e-07,-0.1125241003793451,-0.0017714872982315761,0.0,0.003392553170351967,0.0032161015180548827,4.04504397843942e-07,0.12261813130800961,0.12263269368667147,0.12264795911662711,0.12263349008513406
1.09,-0.013630407254194453,1.9999535524601777,1.6500000000000001,0.00018967015905848,-0.011628435101405741,-4.799960084804045e-07,0.9999830929880861,9.483208104296883e-05,-0.005814184788979873,3.1139472976412053e-07,-0.04654380205017883,-0.00031721285542964144,0.0,0.0009270604613768811,-0.015841099198441497,1.0484718868370965e-07,-0.1140800912733674,-0.001860735331755987,0.0,0.0034764517552082577,0.003611358611876718,4.140174344187952e-07,0.1226172742682919,0.12263362171673656,0.12264926472061854,0.12263301281465862
1.1,-0.014107408958571026,1.9999502446342199,1.6500000000000001,0.00019911492935205518,-0.011786665514155473,-5.096876823993926e-07,0.999982629409127,9.955423376209116e-05,-0.0058932986393806265,3.3188245611643574e-07,-0.047700130764623073,-0.00033647099665568296,0.0,0.0009622454496184454,-0.015803010951071395,1.0903474379480454e-07,-0.11563254450811843,-0.001953394236917347,0.0,0.0035607137093874013,0.004005920787362831,4.23449633115609e-07,0.12261642056324776,0.12263454993566839,0.12265057216284873,0.12263254050957426
1.11,-0.014596128839596326,1.9999467375465023,1.6500000000000001,0.00020891578461646569,-0.011944495314916398,-5.40778053439121e-07,0.9999821607264706,0.00010445441441460124,-0.00597221215041746,3.5346048979324515e-07,-0.04887194500864059,-0.00035668010182256075,0.0,0.0009982747355646291,-0.01576098078269424,1.1331618134602183e-07,-0.11718107297970037,-0.002049546716141566,0.0,0.0036452828870807137,0.004399697726505461,4.3278675222619647e-07,0.12261557044684838,0.12263547818814895,0.12265188103623256,0.12263207316879787
1.12,-0.015096721324151359,1.999943021439676,1.6500000000000001,0.00021908118411174696,-0.01210188512372104,-5.733067830123392e-07,0.999981687103602,0.0001095368519758498,-0.006050905632251059,3.761716425902962e-07,-0.05005920168648479,-0.00037787567419112275,0.0,0.0010351511073600596,-0.015715016996541285,1.1769047883932847e-07,-0.11872529034792458,-0.002149275774332121,0.0,0.0037301018156619004,0.00479259940860538,4.4201436322053e-07,0.12261472417260255,0.1226364063197185,0.12265319092857555,0.12263161078477414
