t,x,y,z,roll,pitch,yaw,qw,qx,qy,qz,vx,vy,vz,wx,wy,wz,ax,ay,az,wx_dot,wy_dot,wz_dot,m1,m2,m3,m4
0.0,2.0,0.0,1.25,0.0,0.0,0.0,1.0,0.0,0.0,0.0,-0.0,0.0,0.0,-9.431767457137631e-05,-8.726803085560466e-14,0.0,-0.0,0.0,0.0,-0.009430603883304807,-9.816576893638245e-11,5.466570685477344e-16,0.12264628226816805,0.12264628226772498,0.12260371773183196,0.12260371773227505
0.01,2.0,9.252563875455102e-10,1.25,-9.43176745713798e-07,-8.726803085519714e-16,4.629434295733645e-21,0.9999999999998889,-4.7158837285688153e-07,-4.363401542770288e-16,2.108944204499432e-21,-4.2804969134688365e-17,9.252563875455102e-08,0.0,-0.0001886237134044244,-1.0689257202194291e-12,5.466570685477345e-18,-8.560993826937673e-15,9.252563875455101e-06,0.0,-0.014144160607503663,-4.035102223225656e-10,2.375858316216685e-15,0.12265691946441107,0.12265691946259012,0.12259308053569777,0.12259308053751927
0.02,2.0,5.551310032104342e-09,1.25,-3.772474268089466e-06,-2.1378514404081657e-14,1.580921382673965e-19,0.9999999999982211,-1.8862371340436144e-06,-1.0689257202170911e-14,5.888359526372507e-20,-1.284032900304615e-15,4.6260536445588325e-07,0.0,-0.0003772008867214496,-8.157472477306918e-12,4.7517166324333696e-17,-2.0972322630989173e-13,3.700797257013322e-05,0.0,-0.018853063896110793,-1.746697351139597e-09,1.1760498279621549e-14,0.1226675461622406,0.12266754615435829,0.12258245383950324,0.12258245384738817
0.03,2.0,1.8503301461888377e-08,1.25,-8.487194480148098e-06,-1.6402212984652447e-13,1.8777036766680204e-18,0.999999999990996,-4.243597240061313e-06,-8.20110649265079e-14,5.908299095627119e-19,-1.1982730097854433e-14,1.2951991429784033e-06,0.0,-0.0005656849913266402,-3.600287274301137e-11,2.406765362779083e-16,-1.6090570939507413e-12,8.325937785225198e-05,0.0,-0.018841431739863444,-5.3409307746768564e-09,4.146786491003629e-14,0.12266751992333044,0.12266751989922924,0.12258248008549774,0.12258248010960852
0.04,1.9999999999999996,4.625482967963568e-08,1.25,-1.5086174094638612e-05,-7.414359691695661e-13,1.2651799228903243e-17,0.999999999971551,-7.543087047247774e-06,-3.7071798462195325e-13,3.529541586568379e-18,-6.418211055307531e-14,2.7751528217747293e-06,0.0,-0.0007540295215187184,-1.1497608797084406e-10,8.768744645250595e-16,-7.273486859425852e-12,0.00014799536787963232,0.0,-0.01882515073237865,-1.3059343708080076e-08,1.1598571517327252e-13,0.1226674832085457,0.12266748314961644,0.12258251681934947,0.12258251687830554
0.05,1.9999999999999976,9.712635489892304e-08,1.25,-2.3567784910559864e-05,-2.463543888592641e-12,5.950413206166434e-17,0.99999999993057,-1.1783892455007213e-05,-1.2317719445613935e-12,1.523699790808351e-17,-2.4704829063490185e-13,5.087152521928725e-06,0.0,-0.0009421880059742133,-2.9718974690461287e-10,2.5603908397433587e-15,-2.4167365560851157e-11,0.00023119997001539818,0.0,-0.018804224883753416,-2.73777246876299e-08,2.752459608708453e-13,0.1226674360370903,0.12266743591355418,0.12258256403098884,0.12258256415458853
0.06,1.9999999999999918,1.8128314559510964e-07,1.25,-3.3929934214194664e-05,-6.685230903851266e-12,2.1851144765737525e-16,0.999999999856095,-1.6964967106283547e-05,-3.342615453298134e-12,5.25483626220917e-17,-7.628103870297085e-13,8.4156790696186e-06,0.0,-0.0011301140191937867,-6.625305817234421e-10,6.3817936819419665e-15,-6.558211523951305e-11,0.00033285265476898075,0.0,-0.018778659348160906,-5.137306456034893e-08,5.785032463228099e-13,0.12266737843340177,0.12266737820159893,0.12258262170770233,0.12258262193963869
0.07,1.9999999999999758,3.1073277037744537e-07,1.25,-4.617006529455837e-05,-1.5714155509389212e-11,6.701171213670734e-16,0.9999999997335407,-2.3085032645228775e-05,-7.85707776033585e-12,1.5367766413103144e-16,-2.011212026646886e-12,1.294496247823335e-05,0.0,-0.0013177611929374314,-1.3246510381115914e-09,1.4130455766199556e-14,-1.5415586585062314e-10,0.00045292834086144954,0.0,-0.018748460422597764,-8.871902826367396e-08,1.1081545283471402e-12,0.12266731042713053,0.1226673100268297,0.12258268983413827,0.12258269023469481
0.08,1.9999999999999376,4.993221353011856e-07,1.25,-6.028515807313687e-05,-3.3178251620245776e-11,1.792301118829763e-15,0.9999999995457125,-3.014257903200397e-05,-1.6589125829598943e-11,3.9611152320428546e-16,-4.708342219441365e-12,1.885893649237325e-05,0.0,-0.001505083227645742,-2.436911146996921e-09,2.854488424888477e-14,-3.254786494545732e-10,0.0005913974014139114,0.0,-0.018713635545349647,-1.4368053816414635e-07,1.9734751811861492e-12,0.122667232053115,0.1226672314048481,0.12258276839231337,0.12258276904103563
0.09,1.9999999999998546,7.627340673507066e-07,1.25,-7.627172984776061e-05,-6.4452378315608e-11,4.305935644874899e-15,0.9999999992728279,-3.813586491463653e-05,-3.2226189216475304e-11,9.239942244363341e-16,-1.0045662716044715e-11,2.6341193204949758e-05,0.0,-0.0016920339038444243,-4.198261801394519e-09,5.359995938992254e-14,-6.322778344979261e-10,0.0007482256712574352,0.0,-0.018674193294172043,-2.2110747502262523e-07,3.3142579150641877e-12,0.12266714335135294,0.12266714235377843,0.12258285736162042,0.12258285835995988
0.1,1.9999999999996871,1.118483444936589e-06,1.25,-9.412583615043274e-05,-1.1714348729906674e-10,9.488867391452935e-15,0.9999999988925409,-4.706291805784295e-05,-5.857174380795444e-11,1.9878765185892293e-15,-1.9894989468827253e-11,3.5574937758581876e-05,0.0,-0.001878567093529183,-6.859060647449426e-09,9.483004255016852e-14,-1.1491776191656222e-09,0.0009233744553626772,0.0,-0.018630143384185366,-3.264275036466554e-07,5.304341054923931e-12,0.12266704436696818,0.12266704289426685,0.12258295671883716,0.12258295819276259
0.11,1.9999999999993712,1.585912876361394e-06,1.25,-0.00011384307171890081,-2.0163359043238754e-10,1.9477412144892728e-14,0.9999999983799694,-5.69215358287122e-05,-1.0081679560720958e-10,4.0000592356348475e-15,-3.706511770439008e-11,4.6742943142464904e-05,0.0,-0.0020646367715281316,-1.0726811874327626e-08,1.5968678048840118e-13,-1.978025543894106e-09,0.0011168005383870865,0.0,-0.018581496665482027,-4.6563803127651553e-07,8.155013019686948e-12,0.12266693515017335,0.12266693304948151,0.1225830664381357,0.12258306854070948
0.12,1.9999999999988052,2.1861879273203892e-06,1.25,-0.00013541857158173322,-3.316797229456377e-10,3.767601672354367e-14,0.9999999977077263,-6.770928573913054e-05,-1.658398623681766e-10,7.609109751189046e-15,-6.561570347406623e-11,6.0027505095863734e-05,0.0,-0.0022501970268388235,-1.6171821272979737e-08,2.579303029439075e-13,-3.2537781321476434e-09,0.001328456195337297,0.0,-0.018528265120441346,-6.452973077291433e-07,1.2118280171413997e-11,0.12266681575622833,0.12266681284511102,0.12258318649109394,0.12258318940500772
0.13,1.9999999999978357,2.942291898614714e-06,1.25,-0.0001588470122566316,-5.25070012074525e-10,6.929782805992654e-14,0.9999999968459534,-7.942350604481398e-05,-2.625350079611531e-10,1.379746328170318e-14,-1.112339294629739e-10,7.561039712935555e-05,0.0,-0.0024352020739369586,-2.363275802891049e-08,4.020523839166811e-13,-5.150936926437147e-09,0.0015582892033440007,0.0,-0.01847046186074933,-8.72514677292563e-07,1.7489985567218057e-11,0.12266668624539481,0.12266668230936366,0.12258331684670694,0.12258332078677425
0.14,1.9999999999962383,3.879020155365455e-06,1.25,-0.00018412261306168106,-8.043348760226325e-10,1.2206080122859307e-13,0.999999995762358,-9.206130640079956e-05,-4.0216744192561297e-10,2.4006340620487203e-14,-1.8167938940322851e-10,9.367282567491758e-05,0.0,-0.00261960626405381,-3.3622114818831e-08,6.077300142882686e-13,-7.890525354253475e-09,0.0018062428545463196,0.0,-0.018408101124122972,-1.154939993321639e-06,2.4612766543838922e-11,0.1226665466828867,0.12266654147296559,0.12258345747140034,0.12258346268700131
0.15,1.9999999999936924,5.022974009127709e-06,1.25,-0.00021123913753921139,-1.197512294387657e-09,2.0706576912866131e-13,0.9999999944222534,-0.00010561956857323262,-5.98756154789217e-10,4.029251803966733e-14,-2.873025237582319e-10,0.00011439538537592176,0.0,-0.002803364096419418,-4.673155789534327e-08,8.943077147934596e-13,-1.1747596037036192e-08,0.0020722559700823806,0.0,-0.018341198270728998,-1.500752207432939e-06,3.38788394944665e-11,0.12266639713881655,0.12266639036915931,0.12258360832904394,0.12258361510651934
0.16,1.9999999999897518,6.402554154414003e-06,1.25,-0.00024018989499191123,-1.7389660086214814e-09,3.3988457842402183e-13,0.9999999927886019,-0.00012009494720727145,-8.694830184497628e-10,6.552177248617122e-14,-4.4164182953699653e-10,0.00013795801452806387,0.0,-0.00298643022946839,-6.363715896748977e-08,1.2853068041775986e-12,-1.705925734543416e-08,0.002356262915182516,0.0,-0.018269769779302444,-1.9186471461312946e-06,4.573260065869597e-11,0.12266623768813781,0.12266622903370143,0.12258376938096718,0.12258377804595726
0.17,1.9999999999838076,8.047953661246299e-06,1.25,-0.000270967742130805,-2.4702554298073734e-09,5.418879616021519e-13,0.9999999908220604,-0.0001354838706509149,-1.2351277402762983e-09,1.0360409475099721e-13,-6.621049492839089e-10,0.00016453995068221438,0.0,-0.003168759492005467,-8.510450081796916e-08,1.808959727967379e-12,-2.4233207206853452e-08,0.0026581936153611727,0.0,-0.018193833242957494,-2.417824488622291e-06,6.067303223827173e-11,0.12266606841058329,0.12266605750486008,0.12258394058597502,0.12258395150569974
0.18,1.9999999999750442,9.991150525465308e-06,1.25,-0.0003035650848346786,-3.4410559511260154e-09,8.418442563464837e-13,0.99999998848103,-0.00015178254183454643,-1.7205280196329278e-09,1.5977601389625277e-13,-9.70738618602966e-10,0.00019431968642013686,0.0,-0.00335030689432754,-1.119936487399356e-07,2.4987674489430332e-12,-3.375676138753616e-08,0.0029779735737033666,0.0,-0.018113407364677585,-3.007973960472335e-06,7.925590367238628e-11,0.12266588939059989,0.12266587582341211,0.12258412190036536,0.1225841354858429
0.19,1.999999999962387,1.226589977863484e-05,1.25,-0.0003379738800204965,-4.7101282839361236e-09,1.277821393895525e-12,0.9999999857217071,-0.00016898693920596656,-2.355064216309329e-09,2.4093560684029976e-13,-1.3950923181580218e-09,0.00022747492531397602,0.0,-0.0035310276392990186,-1.4526398002741587e-07,3.394077801415105e-12,-4.620636270206073e-08,0.0033155238892411286,0.0,-0.018028511952495555,-3.699260758670495e-06,1.0209575845548937e-10,0.12266570071727889,0.1226656840326398,0.12258431327794694,0.1225843299861465
0.2,1.99999999994444,1.4907725159487457e-05,1.25,-0.00037418563762433487,-6.3463353595044496e-09,1.899425751129389e-12,0.9999999824981386,-0.00018709281772067658,-3.173167801900342e-09,3.560359766379262e-13,-1.9691803350924887e-09,0.0002641825380803669,0.0,-0.003710877133377451,-1.859788639133455e-07,4.5406826180528205e-12,-6.225755684907715e-08,0.0036707612764151406,0.0,-0.0179391679143554,-4.502310224522788e-06,1.2986767745651996e-10,0.1226655024842834,0.1226654821783272,0.12258451467005896,0.12258453500598461
0.21,1.9999999999194142,1.7953910348965728e-05,1.25,-0.00041219142269231145,-8.429705263171549e-09,2.7704124906223983e-12,0.999999978762279,-0.00020609570988715462,-4.214852827556975e-09,5.165431707161632e-13,-2.734546790392366e-09,0.000304618518939968,0.0,-0.0038898109975861266,-2.3531018451787162e-07,5.991431350545504e-12,-8.269541983414754e-08,0.004043598085616401,0.0,-0.017845397252645202,-5.42819178166926e-06,1.6330881029978132e-10,0.1226652947897712,0.12266527030875585,0.12258472602559134,0.12258475054429341
0.22,1.9999999998850442,2.1443489771020857e-05,1.25,-0.00045198185758096984,-1.1052538594219973e-08,3.971702893085599e-12,0.9999999744640502,-0.00022599092686685388,-5.52626960477586e-09,7.369646752624731e-13,-3.741438033043063e-09,0.0003489579421931653,0.0,-0.004067785078430355,-2.945426995467307e-07,7.806858824048447e-12,-1.084254212195995e-07,0.0044339423248024624,0.0,-0.01774722305839247,-6.488402157355637e-06,2.0321966699295934e-10,0.12266507773631438,0.12266504847470028,0.12258494729100615,0.12258497659951724
0.23,1.999999999838491,2.5417238961437427e-05,1.25,-0.0004935471242665358,-1.432055857300458e-08,5.604844912184705e-12,0.9999999695514047,-0.0002467735596286317,-7.160279760045608e-09,1.0354547632971954e-12,-5.050086639079167e-09,0.00039737491902263505,0.0,-0.004244755458753976,-3.6507822766498435e-07,1.0055824690404691e-11,-1.4048470673813955e-07,0.004841697682182439,0.0,-0.01764466950513973,-7.69484790591504e-06,2.504651626355778e-10,0.12266485143081526,0.12266481672942306,0.12258517841036005,0.12258521316955213
0.24,1.9999999997762334,2.9917664507059175e-05,1.25,-0.000536876966762431,-1.8354102147092826e-08,7.79595374779605e-12,0.9999999639703904,-0.00026843848015730424,-9.177051789267836e-09,1.4345030909466828e-12,-6.732111083981077e-09,0.00045004255453339663,0.0,-0.00442067846853315,-4.484396576650315e-07,1.2816162076760004e-11,-1.8005378312242573e-07,0.005266763549964619,0.0,-0.017537761842482825,-9.059827254218768e-06,3.0597540870972655e-10,0.12266461598441876,0.12266457512866877,0.12258541932532788,0.12258546025168748
0.25,1.9999999996939426,3.4988993557896544e-05,1.25,-0.0005819606936444063,-2.3289350280326997e-08,1.0700169635959427e-11,0.9999999576652191,-0.0002909803427160067,-1.1644676203958242e-08,1.961713028383706e-12,-8.872034980525382e-09,0.000507132905040917,0.0,-0.0045955106956036326,-5.462747727493597e-07,1.6175332864599222e-11,-2.2846858733765138e-07,0.0057090350491603055,0.0,-0.017426526389248884,-1.0596011289637744e-05,3.707462451428075e-10,0.122664371512421,0.12266432373065868,0.1225856699752268,0.12258571784254599
0.26,1.999999999586342,4.067716291470156e-05,1.25,-0.0006287871806826002,-2.9279595542937758e-08,1.4506670288184692e-11,0.9999999505783355,-0.00031439358516201514,-1.4639799328347747e-08,2.6506762782014673e-12,-1.1568929591346486e-08,0.0005688169356177634,0.0,-0.004769208996318127,-6.603598834577864e-07,2.0231086979616155e-11,-2.8723292175920883e-07,0.00616840305543699,0.0,-0.017310990526343523,-1.2316424511819391e-05,4.458395080378886e-10,0.12266411813417548,0.12266406259608309,0.12258593029704276,0.12258598593802131
0.27,1.9999999994470492,4.702980769470012e-05,1.25,-0.0006773448735798179,-3.649654505718717e-08,1.9444275475944365e-11,0.9999999426504906,-0.00033867243031567604,-1.8248274774684128e-08,3.5419503740907727e-12,-1.4938183136322796e-08,0.0006352644779092308,0.0,-0.004941730506130503,-7.926032629857475e-07,2.5092123025356994e-11,-3.580312362134379e-07,0.006644754226013769,0.0,-0.0171911826892458,-1.4234424770324623e-05,5.323830286881359e-10,0.12266385597299487,0.12266379178809476,0.1225862002254563,0.122586264533214
0.28,1.999999999268399,5.4096249578274875e-05,1.25,-0.0007276217908152766,-4.5131656791571195e-08,2.5787681145215564e-11,0.9999999338208166,-0.0003638108873820686,-2.256583159331709e-08,4.684145666121695e-12,-1.9113400219676045e-08,0.0007066441882282927,0.0,-0.0051130326501030434,-9.450483788642789e-07,3.0878747553378875e-11,-4.4274173719703475e-07,0.007137971027591496,0.0,-0.017067132360141807,-1.6363682610885428e-05,6.315703602283715e-10,0.12266358515604987,0.12266351137230107,0.12258647969287054,0.12258655362236634
0.29,1.9999999990412467,6.192748463949527e-05,1.25,-0.0007796055265930279,-5.539750713744118e-08,3.386436015841527e-11,0.9999999240269034,-0.0003898027534250057,-2.7698758064570937e-08,6.135128385289478e-12,-2.4248434500588828e-08,0.0007831235059401498,0.0,-0.005283073153333339,-1.1198769152034561e-06,3.7723530229924424e-11,-5.434498040106144e-07,0.007647931765309828,0.0,-0.01693887005970703,-1.8718160053739582e-05,7.446602290247815e-10,0.12266330581426521,0.12266322141675504,0.12258676862944,0.12258685319879485
0.3,1.999999998754751,7.057617076349263e-05,1.25,-0.0008332832538942418,-6.752918764507737e-08,4.4062166295120204e-11,0.999999913204878,-0.00041664161489296633,-3.376460007100272e-08,7.963346338941928e-12,-3.051955752443154e-08,0.0008648686121465649,0.0,-0.005451810051297184,-1.3194115799390705e-06,4.5771952133874506e-11,-6.624616909848559e-07,0.008174510612722992,0.0,-0.01680642733852054,-2.1312088828168862e-05,8.729757086613372e-10,0.1226630180822125,0.12266292199194676,0.1225870669631001,0.12258716325482184
0.31,1.9999999983961332,8.00966146537797e-05,1.25,-0.0008886417276324863,-8.178572874183575e-08,5.683767749722524e-11,0.9999999012894858,-0.000444320849196528,-4.08928729614448e-08,1.0249283720009701e-11,-3.8127766419581e-08,0.0009520443886800934,0.0,-0.00561920170010375,-1.5461186917668334e-06,5.518304440315117e-11,-8.023184944442773e-07,0.00871757764278567,0.0,-0.01666983676811462,-2.4159948088006825e-05,1.0179031151518808e-09,0.12266272209799953,0.12266261317079308,0.12258737461959804,0.12258748378170521
0.32,1.9999999979504117,9.054475843271392e-05,1.25,-0.0009456672879111147,-9.845154820305352e-08,7.27253135178586e-11,0.9999998882141734,-0.00047283362633685513,-4.922578579226981e-08,1.3087051416435813e-11,-4.730123294754978e-08,0.001044814377418222,0.0,-0.0057852067866594765,-1.802610541699207e-06,6.613001443691212e-11,-9.658103625446088e-07,0.009276998859840157,0.0,-0.01652913193166349,-2.72764416335081e-05,1.1808906227797176e-09,0.12266241800315784,0.12266229502862777,0.12258769152252433,0.1225878147695676
0.33,1.9999999974001135,0.00010197816583840371,1.25,-0.0010043458633818246,-1.178379220970016e-07,9.234726212616754e-11,0.9999998739111743,-0.000502172910584777,-5.891897680662495e-08,1.65861190827479e-11,-5.8297896171976776e-08,0.0011433407399273447,0.0,-0.00594978433873702,-2.0916475244369953e-06,7.880085685874552e-11,-1.1559909256355716e-06,0.009852636232595462,0.0,-0.016384347414287806,-3.067647466556158e-05,1.3634466007444278e-09,0.12266210594252609,0.12266196764318975,0.12258801759334592,0.12258815620732359
0.34,1.9999999967249555,0.00011445600802145414,1.25,-0.0010646629747034222,-1.4028447587837734e-07,1.164242468322928e-10,0.9999998583115947,-0.0005323314622099727,-7.014225898899173e-08,2.0873195083314976e-11,-7.14082007852072e-08,0.0012477842174464019,0.0,-0.006112893734945233,-2.4161400350104385e-06,9.339894645180068e-11,-1.376191924342209e-06,0.010444347728088768,0.0,-0.016235518792990112,-3.437513009878896e-05,1.5671376715842699e-09,0.1226617860641317,0.12266163109461141,0.12258835275143931,0.12258850808260668
0.35000000000000003,1.9999999959015005,0.0001280390489450471,1.25,-0.001126603738099782,-1.6616069326068686e-07,1.4578716772928642e-10,0.9999998413455029,-0.0005633018392597585,-8.308037451036286e-08,2.6094260236536982e-11,-8.695798289997521e-08,0.001358304091219913,0.0,-0.006274494714596822,-2.7791501264127745e-06,1.1014361029043092e-10,-1.6300380121252858e-06,0.011051987346619179,0.0,-0.016082682626220944,-3.838764446061924e-05,1.7935864931214273e-09,0.12266145851906989,0.12266128546540592,0.12258869691412588,0.12258887038169453
0.36,1.9999999949027802,0.00014278963039194656,1.25,-0.001190152869015965,-1.9586744045643334e-07,1.813896455027733e-10,0.9999998229420191,-0.0005950763993869606,-9.793375685861877e-08,3.241676108116626e-11,-1.0531150487835722e-07,0.0014750581431900278,0.0,-0.0064345473874696515,-3.1838929242228233e-06,1.2927067631422923e-10,-1.9214617086752383e-06,0.011675405157643466,0.0,-0.015925876443048007,-4.2729383403931796e-05,2.044469266462161e-09,0.12266112346137965,0.12266093084045342,0.12258904999670699,0.12258924308943395
0.37,1.9999999936978903,0.0001587716565821145,1.25,-0.001255294685871402,-2.298385033353592e-07,2.2432149693673584e-10,0.9999998030294064,-0.0006276473017263282,-1.1491929942935802e-07,4.0031968150368945e-11,-1.2687464053095958e-07,0.0015982026170571193,0.0,-0.006593012243457782,-3.6337377944914105e-06,1.5103299561967413e-10,-2.254718480115174e-06,0.012314447336622956,0.0,-0.015765138731964723,-4.741581686134377e-05,2.321512973369599e-09,0.12266078104791793,0.12266056730698724,0.12258941191250092,0.12258962618916522
0.38,1.9999999922515483,0.0001760505784047188,1.25,-0.0013220131139090347,-2.6854213501512135e-07,2.758231683473841e-10,0.9999997815351648,-0.0006610065088189313,-1.3427112933450963e-07,4.915750447629376e-11,-1.5209821177651405e-07,0.0017278921797183164,0.0,-0.006749850162108946,-4.132209261449699e-06,1.757009357816212e-10,-2.634401921636994e-06,0.012968956202810562,0.0,-0.015600508929309578,-5.2462493869672405e-05,2.6264923470977822e-09,0.12266043143823038,0.1226601949545787,0.12258978257288004,0.12259001966264545
0.39,1.999999990523622,0.00019469337726840498,1.25,-0.0013902916891392492,-3.1248261136577556e-07,3.373011513096799e-10,0.9999997583861249,-0.0006951457885839645,-1.5624138516955916e-07,6.004004925819651e-11,-1.814814776059571e-07,0.0018642798830932853,0.0,-0.006905022422043974,-4.682987671884859e-06,2.0356284256162978e-10,-3.0654590178712687e-06,0.013638770257966396,0.0,-0.015432027407295086,-5.7885017093519544e-05,2.961226581548575e-09,0.12266007479442217,0.12265981387512051,0.12259016188730978,0.12259042348997133
0.4,1.9999999884686175,0.00021476854857379793,1.25,-0.0014601135623774025,-3.6220179187932797e-07,4.10344402806259e-10,0.9999997335085435,-0.0007300567163373567,-1.811009974651681e-07,7.295822131101813e-11,-2.1557577594594792e-07,0.0020075171263464193,0.0,-0.007058490710254848,-5.28990960332009e-06,2.349254674125927e-10,-3.5532054559964264e-06,0.014323724225990087,0.0,-0.015259735461669796,-6.369901707732073e-05,3.3275757843801373e-09,0.12265971128102435,0.12265942416281102,0.1225905497633872,0.12259083764950267
0.41000000000000003,1.9999999860351318,0.00023634608481228886,1.25,-0.0015314615033737203,-4.1828068332844e-07,4.967417895303413e-10,0.9999997068282004,-0.0007657306768565749,-2.091404705353861e-07,8.82256465692568e-11,-2.5498831876492207e-07,0.0021577536185145075,0.0,-0.00721021713127737,-5.956968013431273e-06,2.701143582492325e-10,-4.103340966326572e-06,0.015023649093457653,0.0,-0.015083675298985244,-6.99201262555655e-05,3.727437180440418e-09,0.12265934106485962,0.12265902591413554,0.122590946106882,0.1225912621177839
0.42,1.9999999831652668,0.0002594974582952521,1.25,-0.0016043179050342763,-4.813410036141635e-07,5.985005735173293e-10,0.9999996782704957,-0.0008021588664909815,-2.4067066442255596e-07,1.0619421355361284e-10,-3.003861405104701e-07,0.00231513734154879,0.0,-0.007360164216234553,-6.6883121284314e-06,3.094742110214011e-10,-4.721964664880066e-06,0.015738372151050194,0.0,-0.014903890023493151,-7.656395275122502e-05,4.16274107264468e-09,0.12265896431490605,0.12265861922784842,0.12259135082177677,0.12259169686946694
0.43,1.999999979794002,0.00028429560351792634,1.25,-0.0016786647877317553,-5.520467431813888e-07,7.178659535693171e-10,0.9999996477605488,-0.0008393322953170945,-2.760235756284198e-07,1.2725752031588978e-10,-3.525001997103768e-07,0.0024798145137802257,0.0,-0.007508294931747233,-7.488247068455774e-06,3.533691797021261e-10,-5.415590372223368e-06,0.016467717035861577,0.0,-0.014720423623650492,-8.364605399271089e-05,4.635446568142465e-09,0.1226585812021587,0.12265820420495332,0.12259176381030963,0.12259214187723351
0.44,1.9999999758485238,0.0003108148991622778,1.25,-0.0017544838037046482,-6.311057213625214e-07,8.573416740782819e-10,0.9999996152232976,-0.0008772417893380749,-3.155531153118542e-07,1.5185451596176065e-10,-4.1212963331133407e-07,0.0026519295538166092,0.0,-0.0076545726887075624,-8.361233208285618e-06,4.021831423842504e-10,-6.191161882706618e-06,0.01721150377457163,0.0,-0.01453332095824652,-9.118191017996915e-05,5.147537078330175e-09,0.12265819189949027,0.12265778094868263,0.12259218497301645,0.12259259711171726
0.45,1.9999999712475147,0.00033913114974325415,1.25,-0.0018317562415434844,-7.192711349948015e-07,1.0197117098534415e-09,0.9999995805835986,-0.0009158779927267472,-3.5963588362611765e-07,1.8047333941206868e-10,-4.801461630694783e-07,0.0028316250448800957,0.0,-0.007798961350912163,-9.311885272055157e-06,4.563199212687296e-10,-7.0560681580595794e-06,0.01796954882747118,0.0,-0.014342627742179896,-9.918689763055204e-05,5.701015601965971e-09,0.12265779658151002,0.12265734956447649,0.12259261420877429,0.12259306254142674
0.46,1.9999999659003935,0.000369321566902914,1.25,-0.0019104630307626865,-8.173430966446643e-07,1.2080630324227414e-09,0.9999995437663272,-0.0009552313701114446,-4.086719388624862e-07,2.136553576022242e-10,-5.574986530457635e-07,0.003019041699593494,0.0,-0.00794142524355116,-1.0344971160896659e-05,5.162034544235698e-10,-8.018158419198756e-06,0.018741665133324887,0.0,-0.014148390531836712,-0.0001076762620367026,6.297899801298087e-09,0.12265739542442108,0.12265691015996034,0.12259305141484593,0.12259353813266811
0.47000000000000003,1.9999999597065115,0.00040146475035700865,1.25,-0.001990584746456588,-9.26170159763638e-07,1.425809460014771e-09,0.9999995046964795,-0.0009952922089039487,-4.6308556006270525e-07,2.5199940483694e-10,-6.452178169971157e-07,0.003214318325223601,0.0,-0.008081929161548897,-1.1465410512789209e-05,5.822779172946913e-10,-9.085757110009322e-06,0.019527662155057413,0.0,-0.01395065671010191,-0.00011666509166464442,6.94021688180794e-09,0.12265698860587688,0.12265646284492145,0.12259349648692475,0.12259402384946863
0.48,1.999999952554299,0.00043564066849866506,1.25,-0.0020721016140381027,-1.0466508280944766e-06,1.6767165900430664e-09,0.9999994632992737,-0.0010360506216687713,-5.233260017597891e-07,2.9616622451503994e-10,-7.444210741915756e-07,0.0034175917893896545,0.0,-0.008220438377753199,-1.2678272994189547e-05,6.550077920597286e-10,-1.0267678706808711e-05,0.02032734592624807,0.0,-0.013749474471014267,-0.00012616829052744034,7.629998286765336e-09,0.12265657630483688,0.12265600773128518,0.12259394931918018,0.12259451965350084
0.49,1.9999999443203642,0.0004719306386639057,1.25,-0.0021549935140585228,-1.1797350466435856e-06,1.9649278094177874e-09,0.9999994195002515,-0.0010774965485330166,-5.898682395053787e-07,3.468831139174781e-10,-8.563175519125835e-07,0.003628996986244865,0.0,-0.008356918650969183,-1.3988776323338016e-05,7.348778830299981e-10,-1.1573242347172826e-05,0.021140519098418954,0.0,-0.01354489280405392,-0.0001362005515628642,8.369274218412817e-09,0.1226561587014203,0.12265554493308917,0.12259440980430458,0.12259502550400662
0.5,1.9999999348685378,0.0005104173070638137,1.25,-0.0022392399871068672,-1.3264256715363001e-06,2.2949913744084312e-09,0.9999993732253806,-0.0011196197596360334,-6.632137048421201e-07,4.04948772212161e-10,-9.822132326544566e-07,0.003848666803138805,0.0,-0.008491336233834277,-1.540228402544683e-05,8.22393276427985e-10,-1.301228625181063e-05,0.02196698098910078,0.0,-0.013336961478117772,-0.00014677632984780198,9.16006799822608e-09,0.1226557359767603,0.12265507456645794,0.1225948778335593,0.1225955413577235
0.51,1.999999924048869,0.000551184628388232,1.25,-0.0023248202387871827,-1.4877799160752205e-06,2.671888548084404e-09,0.9999993244011566,-0.0011624098576180607,-7.438910083813455e-07,4.71238351272893e-10,-1.1235162437482925e-06,0.004076732087768312,0.0,-0.008623657880531538,-1.6924302920294055e-05,9.180792429945197e-10,-1.459518191320868e-05,0.022806527630660954,0.0,-0.013125731025085546,-0.0001579098158807413,1.0004390279146573e-08,0.12265530831285656,0.12265459674957524,0.12259535329682317,0.12259606716881019
0.52,1.999999911696565,0.0005943178450859576,1.25,-0.002411713144772158,-1.6649107703286355e-06,3.1010627795770245e-09,0.999999272954705,-0.0012058562801470463,-8.32456649649753e-07,5.467087083380332e-10,-1.2817422868953077e-06,0.004313321615824355,0.0,-0.008753850854335988,-1.8560480343061657e-05,1.0224810820109164e-09,-1.63328480248339e-05,0.023658951819877438,0.0,-0.012911252723068166,-0.0001696149089639218,1.0904233123306253e-08,0.12265487589242818,0.12265411160265582,0.12259583608264038,0.12259660288877423
0.53,1.9999998976308753,0.0006399034663264667,1.25,-0.0024998972559313482,-1.8589883915860225e-06,3.588449905546335e-09,0.9999992188138834,-0.0012499483024827913,-9.294957123737518e-07,6.324038589485779e-10,-1.4585202048232704e-06,0.00455856205914219,0.0,-0.008881882934992901,-2.031660109957249e-05,1.1361639054606447e-09,-1.8236764124780282e-05,0.024524043168241933,0.0,-0.012693578579365573,-0.0001819051907166598,1.1861563959255582e-08,0.122654438898765,0.12265361924791714,0.12259632607826867,0.12259714846640057
0.54,1.9999998816539215,0.0006880292466482785,1.25,-0.0025893508035323585,-2.0712414630307663e-06,4.140509350308934e-09,0.9999991619073828,-0.001294675040077587,-1.0356225438767187e-06,7.2946062800675e-10,-1.6555976820215779e-06,0.004812577954361941,0.0,-0.0090077224259233,-2.2198584157394853e-05,1.259712361196028e-09,-2.0318983927874134e-05,0.025401588152975763,0.0,-0.012472761313036141,-0.00019479389875131983,1.2878319433095679e-08,0.12265399751558011,0.12265311980954811,0.12259682316972917,0.12259770384768087
0.55,1.9999998635494665,0.0007387841642991302,1.25,-0.0026800517045131797,-2.302958517996485e-06,4.764256297098741e-09,0.999999102164829,-0.0013400254512124505,-1.1514814172725211e-06,8.39114496186199e-10,-1.8748470762518819e-06,0.0050754916721065715,0.0,-0.009131338161253624,-2.4212479074598888e-05,1.3937302941225583e-09,-2.2592148320411345e-05,0.02629137016874101,0.0,-0.012248854337215155,-0.0002082939005433596,1.3956399168448556e-08,0.12265355192686112,0.12265261341367936,0.12259732724185564,0.12259826897574486
0.56,1.9999998430816264,0.0007922583992732155,1.25,-0.002771977566823962,-2.555489227192816e-06,5.467294798902025e-09,0.9999990395168836,-0.0013859883396680967,-1.277747175148395e-06,9.627056383050731e-10,-2.1182713772744035e-06,0.005347423386684055,0.0,-0.009252699512667602,-2.6364462168262045e-05,1.5388403445649992e-09,-2.50694979918907e-05,0.027193169580029798,0.0,-0.012021911741082972,-0.0002224176675266152,1.5097659450495976e-08,0.12265310231672248,0.12265210018835015,0.12259783817834465,0.1225988437907922
0.5700000000000001,1.9999998199935218,0.0008485433110507906,1.25,-0.002865105694836391,-2.830245646309026e-06,6.257851793241345e-09,0.9999989738953439,-0.0014325523574297287,-1.4151258534415092e-06,1.1016851496450116e-09,-2.3880102889753918e-06,0.005628491046320359,0.0,-0.009371776396075284,-2.8660832425131192e-05,1.6956834831324778e-09,-2.776488567832777e-05,0.028106763774213814,0.0,-0.01179198827155805,-0.00023717724944495724,1.6303906849796996e-08,0.12265264886925706,0.12265158026347586,0.1225983558618057,0.12259942823002692
0.58,1.999999794005866,0.0009077314160455269,1.25,-0.002959413094818843,-3.128703421429504e-06,7.144811981191642e-09,0.999998905233243,-0.0014797060074247404,-1.5643552842263842e-06,1.2576214555640803e-09,-2.6863464308289387e-06,0.005918810343929665,0.0,-0.009488539278098763,-3.110800715716119e-05,1.864918481560939e-09,-3.069278799198499e-05,0.029031927215236026,0.0,-0.011559139314732455,-0.0002525842489912171,1.7576891801859622e-08,0.1226521917683886,0.12265105377081416,0.1225988801738124,0.12260002222759248
0.59,1.9999997648154921,0.0009699163647650495,1.25,-0.0030548764804754756,-3.4524029497239224e-06,8.13775352680632e-09,0.9999988334649481,-0.001527437646292402,-1.726205676144695e-06,1.4322068991114234e-09,-3.01571165437689e-06,0.006218494688428124,0.0,-0.009602959182369933,-3.3712517404955535e-05,2.0472213191696703e-09,-3.386831681263535e-05,0.02996843149792659,0.0,-0.011323420876973873,-0.00026864979676401326,1.8918302158616615e-08,0.12265173119772443,0.12265052084393,0.12259941099495286,0.12260062571450939
0.6,1.9999997320938157,0.0010351929186901594,1.25,-0.003151472278547339,-3.802950492906698e-06,9.24698452902335e-09,0.9999987585262587,-0.0015757354871845785,-1.9014801712248888e-06,1.6272645007075242e-09,-3.3786934701641043e-06,0.006527655176597175,0.0,-0.009715007695638241,-3.6481003092441456e-05,2.2432845247332714e-09,-3.730723021578811e-05,0.030916045402924024,0.0,-0.011084889565856747,-0.0002853845265728882,2.0329756728621856e-08,0.12265126734040936,0.12264998161815958,0.12259994820488158,0.1226012386186136
0.61,1.999999695485231,0.001103656926878297,1.25,-0.003249176634473622,-4.1820192409952665e-06,1.0483580214022473e-08,0.9999986803545038,-0.0016245876025965343,-2.091015376856476e-06,1.8447548833081212e-09,-3.7780415803231974e-06,0.006846400565502344,0.0,-0.009824656973687068,-3.94202079364133e-05,2.4538164537421074e-09,-4.1025942913646686e-05,0.03187453495218331,0.0,-0.010843602570797996,-0.00030279855112190556,2.1812798822350917e-08,0.12265080037897957,0.12264943623057431,0.12260049168237006,0.12260186086449823
0.62,1.9999996546054448,0.001175405302296868,1.25,-0.0033479654181110905,-4.591350323934499e-06,1.1859420791926091e-08,0.9999985988886371,-0.0016739819272268538,-2.2956818717027636e-06,2.086783355823673e-09,-4.21667451176342e-06,0.007174837245473208,0.0,-0.0099318797470542,-4.253697411487957e-05,2.6795405011802897e-09,-4.5041536184939314e-05,0.032843663465051604,0.0,-0.010599617643483692,-0.0003209014381014445,2.3368889819781406e-08,0.12265033049521809,0.12264888481994238,0.12260104130535895,0.12260249237345547
0.63,1.9999996090397385,0.0012505359978920937,1.25,-0.0034478142295097467,-5.032753768695583e-06,1.338722991769019e-08,0.9999985140693318,-0.0017239062608654895,-2.5163846843562533e-06,2.3556071469214536e-09,-4.697686344682721e-06,0.0075130692136500124,0.0,-0.010036649326556742,-4.583823669844219e-05,2.9211942501377355e-09,-4.937176727016321e-05,0.03382319161489244,0.0,-0.010352993078061729,-0.00033970218671754203,2.4999402777326437e-08,0.1226498578700109,0.12264832752669089,0.12260159695100933,0.12260313306342223
0.64,1.9999995583411665,0.0013291479823991188,1.25,-0.003548698404742767,-5.508109399501356e-06,1.5080613692029217e-08,0.9999984258390746,-0.0017743482713089725,-2.754063743562764e-06,2.653642780695692e-09,-5.224353530890722e-06,0.007861198048102305,0.0,-0.010138939608615435,-4.933101784923041e-05,3.1795285567268185e-09,-5.403507820921164e-05,0.03481287748623923,0.0,-0.010103787691137685,-0.00035920920468801706,2.6705616091009426e-08,0.12264938268320458,0.12264776449286623,0.12260215849575422,0.12260378284892703
0.65,1.9999995020286832,0.0014113412158991462,1.25,-0.003650593021788646,-6.019367678876904e-06,1.6954100134271768e-08,0.999998334142257,-0.001825295497301744,-3.0096942988637297e-06,2.983473585054187e-09,-5.80014179620345e-06,0.00821932288252462,0.0,-0.010238725080379495,-5.302242079220253e-05,3.455306571957924e-09,-5.905060409881049e-05,0.0358124766324579,0.0,-0.009852060801679788,-0.0003794302857338893,2.8488707233493215e-08,0.12264890511346524,0.12264719586209387,0.12260272581535032,0.12260444164103868
0.66,1.9999994395852019,0.0014972166251294267,1.25,-0.003753472906463636,-6.568550487273794e-06,1.9023179055165143e-08,0.9999982389252662,-0.0018767353515026523,-3.284287310530871e-06,3.3478573230394658e-09,-6.428713120948563e-06,0.008587540381514195,0.0,-0.010335980824649031,-5.691962356390819e-05,3.749302701396683e-09,-6.443818074767641e-05,0.03682174213389969,0.0,-0.009597872210625764,-0.0004003725875941432,3.034974658181021e-08,0.1226484253381392,0.12264662177953763,0.1226032987849294,0.12260510934731872
0.67,1.9999993704555825,0.0015868760785519736,1.25,-0.003857312638402338,-7.157751839068715e-06,2.130434225384584e-08,0.9999981401365735,-0.0019286551234755469,-3.5788898076936274e-06,3.749733936680324e-09,-7.113932792402876e-06,0.008965944716435421,0.0,-0.01043068252459201,-6.102987254408539e-05,4.062301503594128e-09,-7.021835170782119e-05,0.0378404246565234,0.0,-0.009341282180421948,-0.0004220426105916993,3.228969135327584e-08,0.12264794353311481,0.12264604239185736,0.12260387727904976,0.12260578587177444
0.68,1.999999294044549,0.0016804223611869222,1.25,-0.003962086557084484,-7.789138532792447e-06,2.3815123959484318e-08,0.9999980377268223,-0.0019810419827029848,-3.894585213587297e-06,4.1922333923573735e-09,-7.859876522772162e-06,0.009354627541875535,0.0,-0.01052280646825747,-6.536047577574218e-05,4.3950965284622e-09,-7.641237466096717e-05,0.03886827251096773,0.0,-0.009082351414451285,-0.00044444617677773224,3.4309379666661296e-08,0.12264745987268684,0.12264545784716711,0.12260446117174688,0.12260647111481575
0.6900000000000001,1.9999992097145352,0.0017779591492164946,1.25,-0.0040677687679057896,-8.464950733503045e-06,2.6574141434504938e-08,0.9999979316489125,-0.0020338829816219936,-4.232493636878776e-06,4.678683616065648e-09,-8.670837626117225e-06,0.00975367797269585,0.0,-0.010612329552881036,-6.991879607964004e-05,4.748489096927354e-09,-8.304222713960503e-05,0.039905031712052924,0.0,-0.008821141036288293,-0.0004675884096809025,3.6409524745435885e-08,0.12264697452942183,0.12264486829499115,0.12260505033658489,0.1226071649732137
0.7000000000000001,1.9999991167834579,0.0018795909843655695,1.25,-0.004174333148290859,-9.187502485277666e-06,2.9601135652789385e-08,0.9999978218580854,-0.002087165058680872,-4.5937721280570355e-06,5.2126185063701684e-09,-9.551334247429934e-06,0.010163182561682704,0.0,-0.010699229288983236,-7.471224396936023e-05,5.123287023370917e-09,-9.013061156281812e-05,0.040950446038691996,0.0,-0.008557712568932254,-0.0004914737146876377,3.8590709280284983e-08,0.12264648767402705,0.12264427388622043,0.12260564464670662,0.12260786734006171
0.71,1.9999990145224176,0.0019854232480649024,1.25,-0.0042817533538459995,-9.959182151860568e-06,3.2917011962903696e-08,0.9999977083120043,-0.0021408750414159713,-4.979614899907025e-06,5.797786012278189e-09,-1.050611663686881e-05,0.01058322527780194,0.0,-0.010783483804259681,-7.974827037339279e-05,5.520303282533054e-09,-9.770095956761561e-05,0.04200425709419077,0.0,-0.008292127913922531,-0.0005161057600788966,4.085337996722719e-08,0.12264599947522052,0.12264367477306778,0.12260624397488404,0.12260857810473987
0.72,1.9999989021533275,0.0020955621354030733,1.25,-0.004390002824549926,-1.0782452783570697e-05,3.6543880643158385e-08,0.9999975909708346,-0.0021949996495474328,-5.391253511118569e-06,6.438156262696614e-09,-1.1540174461975978e-05,0.011013887485060716,0.0,-0.010865071847261687,-8.503435917093816e-05,5.940354622715461e-09,-0.00010577743561715998,0.043066204366916626,0.0,-0.008024449330476437,-0.0005414874587482824,4.319784223831698e-08,0.1226455100996033,0.12264307110902269,0.1226068481935676,0.12260929715288105
0.73,1.9999987788464677,0.0022101146288732738,1.25,-0.004499054790980207,-1.1659852408640334e-05,4.0505097252226744e-08,0.9999974697973216,-0.0022495254980928127,-5.829957012115855e-06,7.137929733606004e-09,-1.2658744150516198e-05,0.011455247921980086,0.0,-0.01094397279086921,-9.057801954835844e-05,6.3842601272993934e-09,-0.00011438493986794205,0.0441360252913153,0.0,-0.007754739414520852,-0.0005676209506256688,4.562425520061095e-08,0.12264501971153582,0.12264246304880537,0.12260745717493578,0.12261002436634054
0.74,1.9999986437179662,0.002329188471921083,1.25,-0.004608882280573409,-1.2593994247226991e-05,4.482530267612135e-08,0.9999973447568645,-0.002304439100497579,-6.297032052228429e-06,7.901545438565826e-09,-1.38673162564043e-05,0.011907382681681648,0.0,-0.011020166635552104,-9.638677818345154e-05,6.85283972672768e-09,-0.00012354911027864806,0.045213455309255565,0.0,-0.007483061077713082,-0.0005945075858300143,4.813262679887647e-08,0.12264452847301519,0.12264185074832015,0.12260807079094356,0.12261075962316773
0.75,1.9999984958272063,0.002452892142299416,1.25,-0.00471945812391679,-1.3587566846413762e-05,4.953046276957161e-08,0.9999972158175914,-0.002359726871781386,-6.793822947361096e-06,8.733689127670329e-09,-1.517164284102032e-05,0.012370365192591397,0.0,-0.011093634012423472,-0.00010246817126495873,7.346912663276923e-09,-0.00013329632394417704,0.046298227931680785,0.0,-0.007209477526607701,-0.0006221479085739586,5.0722809218783573e-08,0.12264403654355635,0.12264123436460894,0.1226086889133702,0.12261150279758135
0.76,1.9999983341741614,0.002581334825236836,1.25,-0.004830754961069514,-1.464333413458855e-05,5.464790748726747e-08,0.9999970829504282,-0.0024153751316991342,-7.321711707357695e-06,9.63930147960229e-09,-1.657774486205144e-05,0.012844266199763612,0.0,-0.011164356186084258,-0.00010882973635493071,7.867295911103352e-09,-0.00014365369763900498,0.04739007480054776,0.0,-0.006934052241727544,-0.0006505416418423201,5.339449454463358e-08,0.12264354408007624,0.12264061405580318,0.12260931141386697,0.12261225375994647
0.77,1.999998157696653,0.002714626386425482,1.25,-0.0049427452479112195,-1.5764135393670064e-05,6.020636939804461e-08,0.9999969461291678,-0.002471370107915718,-7.882118022292446e-06,1.0623586270984787e-08,-1.8091919561847776e-05,0.013329153746827482,0.0,-0.011232315057258023,-0.00011547900410180513,8.414802554169594e-09,-0.0001546490875548481,0.04848872575103147,0.0,-0.006656848956741648,-0.0006796876728660543,5.614721068666322e-08,0.12264305123678039,0.12263998998107653,0.1226099381640033,0.12261301237675568
0.78,1.9999979652675386,0.0028528773448348627,1.25,-0.005055401262515954,-1.6952885147728276e-05,6.623602147289682e-08,0.9999968053305355,-0.0025276979391934675,-8.476499206962384e-06,1.1692018506809952e-08,-1.9720747847134233e-05,0.013825093158558982,0.0,-0.01129749316521909,-0.0001224234898122518,8.990240124836616e-09,-0.00016631108821836018,0.04959390887397639,0.0,-0.006377931637729581,-0.0007095840394121039,5.8980317591814933e-08,0.12264255816505316,0.12263936230059609,0.12261056903531253,0.1226137785106121
0.79,1.9999977556918236,0.0029961988453578005,1.25,-0.005168695111549303,-1.821257296662837e-05,7.276851403571627e-08,0.9999966605342522,-0.002584344678591202,-9.106350102895109e-06,1.2850352495330402e-08,-2.147110165178392e-05,0.014332147024080194,0.0,-0.011359873690012614,-0.0001296706848900472,9.594408906005893e-09,-0.00017866903057539438,0.05070535057857336,0.0,-0.006097364462552459,-0.000740227916908872,6.189300375136579e-08,0.12264206501335193,0.12263873117547404,0.1226112038993371,0.12261455202021584
0.8,1.9999975277036999,0.0031447026312948216,1.25,-0.005282598736686728,-1.9546263183411353e-05,7.983701076389718e-08,0.9999965117230947,-0.0026412962966738973,-9.773202937228048e-06,1.4104629850434652e-08,-2.335015127423022e-05,0.01485037518068823,0.0,-0.01141944045447014,-0.00013722804815042924,1.0228100199863932e-08,-0.00019175297922918342,0.05182277565524231,0.0,-0.0058152118004179895,-0.0007716156064261156,6.48842830202433e-08,0.1226415719271036,0.12263809676771853,0.12261184262767193,0.12261533276035311
0.81,1.9999972799635124,0.0032985010166833315,1.25,-0.005397083921051014,-2.095709452420952e-05,8.747622362439449e-08,0.9999963588829538,-0.0026985386847319212,-1.0478627137857947e-05,1.5461187404193914e-08,-2.5365372680974248e-05,0.015379834698315557,0.0,-0.011476177926020974,-0.00014510299701856952,1.0892094566410759e-08,-0.0002055937288206248,0.05294590733870076,0.0,-0.0055315381914755254,-0.0008037425235277374,6.795299175884778e-08,0.1226410790486057,0.12263745924018461,0.12261248509200769,0.12261612058188857
0.8200000000000001,1.999997011054653,0.00345770685847789,1.25,-0.005512122295666835,-2.2448279649582807e-05,9.572244662952097e-08,0.9999962020028886,-0.002756057658008835,-1.122422910430316e-05,1.6926665011965617e-08,-2.7524554767532696e-05,0.01592057986462347,0.0,-0.01153007121829965,-0.00015330289862098398,1.1587160035040887e-08,-0.00022022279953971634,0.05407446737119835,0.0,-0.005246408326605324,-0.0008366031880146114,7.109778630807622e-08,0.12264058651693088,0.12263681875652419,0.12261313116417256,0.12261691533176075
0.8300000000000001,1.9999967194803805,0.0036224335285879672,1.25,-0.005627685345930368,-2.402310460625081e-05,1.046135882956957e-07,0.9999960410751799,-0.0028138389589367264,-1.201165193376573e-05,1.8508013232169656e-08,-2.9835806568068128e-05,0.01647266217073013,0.0,-0.01158110609255308,-0.00016183506077886175,1.2314050292572283e-08,-0.00023567243175805843,0.055208176065897535,0.0,-0.004959887027615028,-0.0008701912145736597,7.431714081282742e-08,0.12264009446783523,0.12263617548113728,0.12261378071617268,0.12261771685298
0.84,1.9999964036605715,0.003792794885779519,1.25,-0.005743744418091998,-2.568492818828624e-05,1.141892026875348e-07,0.9999958760953781,-0.0028718682603781,-1.2842575101925568e-05,2.0212500862617827e-08,-3.2307564404849416e-05,0.017036130297574444,0.0,-0.01162926895885195,-0.00017070672291245718,1.3073502851297436e-08,-0.0002519755797732262,0.05634675237038113,0.0,-0.0046720392274123,-0.0009044993043485079,7.760934540155357e-08,0.12263960303367058,0.12263552957912163,0.12261443362023172,0.12261852498462963
0.85,1.9999960619283987,0.003968905247446782,1.25,-0.005860270725750162,-2.743718120692766e-05,1.244905189291078e-07,0.9999957070623501,-0.0029301311688733384,-1.3718714098045225e-05,2.2047722315077464e-08,-3.4948598968604903e-05,0.017611030102916942,0.0,-0.011674546877101327,-0.0001799250468658319,1.3866237200603355e-08,-0.00026916590465672163,0.05748991393026793,0.0,-0.004382929950448328,-0.0009395192374468677,8.0972504730057e-08,0.12263911234330142,0.12263488121622272,0.12261508974882959,0.1226193395618708
0.86,1.999995692526939,0.004150879361260659,1.25,-0.005977235356354279,-2.928336566826314e-05,1.3556046906387114e-07,0.9999955339783225,-0.0029886132278927184,-1.4641820014010463e-05,2.4021604809585857e-08,-3.7768022320754824e-05,0.018197404608978486,0.0,-0.011716927557860917,-0.00018949710766139453,1.4692952945898576e-08,-0.00028727776619812844,0.05863737715291625,0.0,-0.004092624293628236,-0.0009752418663978252,8.440453690374406e-08,0.12263862252202476,0.12263423055878456,0.12261574897473879,0.12262016041594911
0.87,1.9999952936057142,0.004338832376700107,1.25,-0.0060946092777150115,-3.122705385813181e-05,1.4744371414475134e-07,0.9999953568489222,-0.0030472999210920853,-1.5613679086979545e-05,2.6142415369905436e-08,-4.07752948084425e-05,0.018795293990717506,0.0,-0.011756399362973891,-0.0001994298841937884,1.5554327938678236e-08,-0.0003063462139390297,0.059788857271198335,0.0,-0.0038011874073542833,-0.0010116571105717115,8.790317278267952e-08,0.12263813369149643,0.12263357777369896,0.12261641117106037,0.12262098737420528
0.88,1.9999948632171594,0.00453287981647289,1.25,-0.006212363344519767,-3.327188733368598e-05,1.6018666843606973e-07,0.9999951756832125,-0.003106176675571166,-1.6636112195362025e-05,2.8418767601421192e-08,-4.3980231883226666e-05,0.019404735564746364,0.0,-0.011792951306008003,-0.00020973024987282877,1.6451016401552166e-08,-0.00032640697729118543,0.0609440684073256,0.0,-0.003508684476937439,-0.0010487539515745105,9.146595567716827e-08,0.12263764596965906,0.12263292302835657,0.12261707621125761,0.12262182026008836
0.89,1.9999943993130287,0.00473313754783216,1.25,-0.006330468304851794,-3.5421575821155235e-05,1.7383752160950938e-07,0.9999949904937283,-0.003165228865133665,-1.7710974307896953e-05,3.085962823273128e-08,-4.739301081424947e-05,0.020025763778887103,0.0,-0.01182657305251264,-0.00022040496322527862,1.73836470522216e-08,-0.000347496454734429,0.06210272363670808,0.0,-0.003215180704239755,-0.0010865204296270031,9.50902414421439e-08,0.12263715947067722,0.12263226649059637,0.12261774396918963,0.1226226588931723
0.9,1.9999938997407325,0.0049397217537951975,1.25,-0.006448894806710835,-3.767989601945075e-05,1.8844625881709438e-07,0.9999948012965061,-0.0032244418135481557,-1.8840153885649184e-05,3.347432340217188e-08,-5.1024177286655725e-05,0.020658410202366806,0.0,-0.011857254920092798,-0.00023146065846536883,1.8352821230395044e-08,-0.0003696517020906998,0.06326453505182912,0.0,-0.0029207412898747155,-0.0011249436409398012,9.877319897431615e-08,0.1226366743048751,0.12263160832865658,0.1226184143191416,0.1226235030891752
0.91,1.9999933622396078,0.005152748904270777,1.25,-0.006567613404533706,-4.0050690309349685e-05,2.040646785252194e-07,0.9999946081111115,-0.003283800797808916,-2.0025572236792763e-05,3.62725446705465e-08,-5.4884651876011746e-05,0.02130270351665248,0.0,-0.011884987878310134,-0.00024290383604407464,1.9359111031707924e-08,-0.0003929104198716123,0.06442921382611864,0.0,-0.002625431415792436,-0.0011640097360913592,1.0251181112079901e-07,0.12263619057868051,0.1226309487111256,0.12261908713585476,0.12262435265998148
0.92,1.9999927844371286,0.0053723357271015255,1.25,-0.006686594565712986,-4.253786536809839e-05,2.207464079951059e-07,0.9999944109606643,-0.003343291051395835,-2.1269182824100235e-05,3.926435474140038e-08,-5.8985736389452093e-05,0.0219586695069254,0.0,-0.011909763548408647,-0.000254740853187196,2.0403057452811024e-08,-0.0004173109396979416,0.06559647027780799,0.0,-0.0023293162279691172,-0.001203703919417096,1.063028759973852e-07,0.12263570839457223,0.12263028780689214,0.12261976229455436,0.12262520741366748
0.93,1.9999921638450517,0.005598599179027688,1.25,-0.0068058086771121094,-4.514539068937498e-05,2.3854691629669273e-07,0.9999942098718586,-0.0034028977675325048,-2.2572970525107295e-05,4.24601928702922e-08,-6.333912006427447e-05,0.022626331054194395,0.0,-0.011931574202869517,-0.00026697791443241656,2.148516855165563e-08,-0.00044289220979039476,0.06676601393374942,0.0,-0.0020324608198014037,-0.001244010449417721,1.101430087224676e-07,0.12263522785103328,0.122629625785097,0.1226204396709762,0.12262606715452984
0.9400000000000001,1.999991497855502,0.005831656416578675,1.25,-0.0069252260515751726,-4.787729700865392e-05,2.5752352474488275e-07,0.9999940048749812,-0.0034626061024416706,-2.393895084497341e-05,4.587087994466769e-08,-6.795688561470399e-05,0.023305708128047744,0.0,-0.011950412764804675,-0.00027962106217555043,2.2605917627260377e-08,-0.0004696937795320438,0.06793755359318401,0.0,-0.0017349302160139628,-0.0012849126401911098,1.1402864357314836e-07,0.12263474904250873,0.12262896281508477,0.12262111914139044,0.12262693168311663
0.9500000000000001,1.9999907837369986,0.0060716247668988034,1.25,-0.007044816934429885,-5.073767463411737e-05,2.7773541464927536e-07,0.9999937960039251,-0.003522401178597253,-2.536916908210991e-05,4.950762321613469e-08,-7.285151511755926e-05,0.023996817780042815,0.0,-0.011966272807189796,-0.00029267616723623876,2.3765741423118596e-08,-0.0004977557831037906,0.06911079739144285,0.0,-0.0014367893567678557,-0.0013263928638924042,1.179560365559892e-07,0.12263427205936797,0.1226282990663555,0.12262180058262517,0.12262780079626143
0.96,1.9999900186304236,0.0063186216985135985,1.25,-0.007164551509982074,-5.373067168336139e-05,2.9924363227100117e-07,0.9999935832962016,-0.0035822680879721218,-2.686569944669885e-05,5.3382020667175607e-08,-7.803589572757375e-05,0.02469967413773281,0.0,-0.011979148551940032,-0.0003061489194533985,2.496503835838016e-08,-0.0005271189221952507,0.07028545286356556,0.0,-0.0011381030823941034,-0.0013684325542263826,1.219212684005423e-07,0.1226337969878735,0.12262763470851715,0.12262248387208705,0.12262867428712074
0.97,1.9999891995449355,0.006572764792043011,1.25,-0.00728439990800015,-5.6860492226247576e-05,3.2211109088305556e-07,0.9999933667929468,-0.0036421918952808654,-2.8430644132277113e-05,5.750606499461115e-08,-8.352332521315758e-05,0.025414288399329497,0.0,-0.011989034868837678,-0.0003200448183207664,2.6204166791129442e-08,-0.0005578244477944505,0.0714612270078218,0.0,-0.0008389361187223499,-0.0014110122109758949,1.2592024797085498e-07,0.12263332391015316,0.12262696991123863,0.12262316888778058,0.12262955194521379
0.98,1.9999883233538274,0.006834171710867937,1.25,-0.0074043322101881625,-6.013139433435545e-05,3.464025698335934e-07,0.9999931465389268,-0.0037021576412168264,-3.006613234061249e-05,6.189214719245062e-08,-8.932751730342615e-05,0.026140668829000846,0.0,-0.011995927274314479,-0.0003343691636729164,2.748344331779726e-08,-0.0005899141410607474,0.07263782634912111,0.0,-0.000539353062789863,-0.0014541114055655622,1.2994871609191972e-07,0.12263285290417829,0.12262630484420342,0.12262385550832508,0.1226304335564653
0.99,1.9999873867903344,0.007102960171756353,1.25,-0.007524318456645939,-6.35476880375938e-05,3.721847105149939e-07,0.9999929225825375,-0.00376215034568268,-3.177431926015008e-05,6.655305971712504e-08,-9.546260683737367e-05,0.026878820752802353,0.0,-0.011999821930093475,-0.00034912704643207766,2.8803141112967836e-08,-0.0006234302932864062,0.07381495700229772,0.0,-0.00023941836916662254,-0.0014977087876621564,1.3400224979523107e-07,0.1226323840437477,0.12262563967706315,0.12262454361297052,0.12263131890325107
1.0,1.9999863864433907,0.007379247915455419,1.25,-0.007644328652314973,-6.711373318863266e-05,3.995260091451312e-07,0.9999926949758026,-0.0038221550110138706,-3.3557384998358915e-05,7.150199921850398e-08,-0.00010194315470613181,0.02762874655524055,0.0,-0.012000715641697812,-0.00036432333942615954,3.016348831370188e-08,-0.0006584156849532691,0.07499232473525672,0.0,6.080366317263303e-05,-0.0015417820928123919,1.3807626697488334e-07,0.1226319173984755,0.12262497457939306,0.12262523308161047,0.1226322077644468
1.01,1.9999853187533392,0.00766315267725586,1.25,-0.0077643327734087724,-7.083393723592262e-05,4.284968062712009e-07,0.9999924637743676,-0.00388215662519426,-3.54175334683613e-05,7.675256882054214e-08,-0.00010878415257932506,0.028390445676467323,0.0,-0.011998605856830023,-0.0003799626882883255,3.15646664524655e-08,-0.0006949135638919868,0.07616963503196922,0.0,0.0003612489034444076,-0.0015863081511154834,1.4216603144529434e-07,0.12263145303378553,0.12262430972064631,0.12262592379479373,0.1226330999154787
1.02,1.9999841800075944,0.007954792157534911,1.25,-0.007884300773826321,-7.471275290616984e-05,4.5916927291062226e-07,0.9999922290374897,-0.00394214016506333,-3.735699123027813e-05,8.231877993588766e-08,-0.0001160010274066173,0.029163914610103207,0.0,-0.011993490663628923,-0.0003960495024484692,3.300680894260777e-08,-0.0007329676225522857,0.07734659315530391,0.0,0.000661853400936354,-0.001631262896927715,1.4626665840389554e-07,0.12263099101091053,0.12262364527011094,0.12262661563373381,0.12263399512837761
1.03,1.999982966336264,0.008254283992284133,1.25,-0.00800420259154759,-7.875467579724028e-05,4.916173932480039e-07,0.9999919908280257,-0.00400209059951438,-3.937800628777625e-05,8.821505359931004e-08,-0.0001236096456856357,0.02994914690168809,0.0,-0.011985368788811296,-0.0004125879462268798,3.4489999620543414e-08,-0.0007726219743937628,0.078522904209684,0.0,0.0009625533964456937,-0.0016766213795941435,1.5037312029131896e-07,0.12263053138689632,0.12262298139686637,0.12262730848031625,0.12263489317183558
1.04,1.9999816737077278,0.008561745723628321,1.25,-0.00812400815500984,-8.296424188256805e-05,5.259169438118545e-07,0.9999917492124144,-0.004061992892683113,-4.1482846840354e-05,9.4456221305373e-08,-0.0001316263174875608,0.030746133147757246,0.0,-0.01197423959570001,-0.0004295819300403521,3.601427134843415e-08,-0.0008139211294077032,0.0796982732035583,0.0,0.0012632853330424819,-0.0017223577752061058,1.5448025303048832e-07,0.12263007421461214,0.1226223182697405,0.12262800221710417,0.12263579381126499
1.05,1.9999802979241792,0.008877294770341793,1.25,-0.008243687389463704,-8.734602492824572e-05,5.621454690597162e-07,0.9999915042606582,-0.0041218320071260885,-4.367379999195353e-05,1.0105752533638186e-07,-0.00014006780023178393,0.03155486099554089,0.0,-0.011960103082150446,-0.0004470351017310019,3.757960468115318e-08,-0.0008569099687814316,0.08087240511167584,0.0,0.0015639858660737582,-0.0017684453993763497,1.5858276265142254e-07,0.12262961954276601,0.12262165605726907,0.12262869672734122,0.12263669680886022
1.06,1.9999788346171308,0.00920104839836825,1.25,-0.008363210223308043,-9.190463382407693e-05,6.00382253305609e-07,0.9999912560462989,-0.004181592906988545,-4.595317041653864e-05,1.0803461856727913e-07,-0.00014895130220115592,0.03237531514328502,0.0,-0.011942959878378534,-0.0004649508380278791,3.91859266014626e-08,-0.0009016337187176936,0.08204500493715501,0.0,0.0018645918727655877,-0.0018148567210236708,1.62675232283408e-07,0.12262916741592486,0.12262099492765417,0.12262939189495317,0.12263760192366199
1.07,1.9999772792428863,0.009533123691350391,1.25,-0.008482546594402587,-9.66447098299713e-05,6.407082889291548e-07,0.9999910046463917,-0.004241260561161089,-4.8323278981327675e-05,1.1540356373484335e-07,-0.0001582944857894825,0.03320747734119152,0.0,-0.011922811244695134,-0.00048333223615147533,4.083310932682134e-08,-0.0009481379234225688,0.08321577777333711,0.0,0.002165040461107534,-0.0018615633771617744,1.6675212950154825e-07,0.12262871787454092,0.12262033504872431,0.122630087604547,0.12263850891162424
1.08,1.9999756270779832,0.009873637521175522,1.25,-0.008601666456357486,-0.00010157092373916306,6.832062408114526e-07,0.9999907501414743,-0.004300819946424831,-5.078646132842115e-05,1.2318083215926294e-07,-0.0001681154704730654,0.03405132639297507,0.0,-0.011899659069156384,-0.0005021821055711146,4.252096919149356e-08,-0.0009964684172763917,0.08438442886541667,0.0,0.0024652689778330815,-0.0019085361886834339,1.7080781403032748e-07,0.12262827095498341,0.12261967658789621,0.12263078374140808,0.12263941752568312
1.09,1.9999738732146066,0.010222706518543222,1.25,-0.008720539784798987,-0.00010668797295983433,7.279604069487246e-07,0.9999904926155347,-0.004360256050584539,-5.334506641561356e-05,1.3138330190691033e-07,-0.00017843283549823886,0.03490683815803471,0.0,-0.011873505865138472,-0.000521502959925144,4.424926560742789e-08,-0.001046671296203141,0.08555066367184004,0.0,0.002765215016063867,-0.001955745177128663,1.7483654577179938e-07,0.12262782668957488,0.12261901971213618,0.12263148019149488,0.12264032751582872
1.1,1.9999720125559792,0.010580447043561264,1.25,-0.008839136583610492,-0.00011200057851682154,7.750566752009058e-07,0.9999902321559737,-0.00441955387558948,-5.600145501722825e-05,1.4002825538392805e-07,-0.00018926562227701367,0.03577398555423757,0.0,-0.011844354768835106,-0.0005412970091136878,4.601770010692955e-08,-0.0010987928882547214,0.08671418792546597,0.0,0.003064816422304866,-0.002003159582424335,1.7883249316012725e-07,0.12262738510663311,0.12261836458792312,0.1226321768414325,0.12264123862917937
1.11,1.9999700398117288,0.010946975156375875,1.25,-0.008957426891148168,-0.0001175134819751816,8.245824761387157e-07,0.9999899688535646,-0.004478698440641504,-5.875799818586223e-05,1.4913337635105913e-07,-0.00020063333648311286,0.036652738561312105,0.0,-0.011812209536692375,-0.0005615661515736307,4.7825915470630435e-08,-0.0011528797234275166,0.08787470769447987,0.0,0.003364011302383653,-0.0020507478815874926,1.8278974183259667e-07,0.1226269462305192,0.12261771138121269,0.12263287357850303,0.12264215061005752
1.12,1.9999679494932376,0.011322406587842379,1.25,-0.009075380786430746,-0.00012323144228748998,8.766267319593407e-07,0.9999897028024107,-0.004537674785290191,-6.161707567597675e-05,1.587167463510041e-07,-0.00021255594984086169,0.03754306422484865,0.0,-0.011777074542787433,-0.0005823119667454377,4.9673494943581484e-08,-0.0012089785027295384,0.08903192944305817,0.0,0.0036627380270526887,-0.0020984778083780716,1.8670230358149388e-07,0.12262651008168948,0.12261706025740253,0.12263357029063444,0.12264306320006846
1.1300000000000001,1.9999657359089766,0.011706856710242313,1.25,-0.0091929683953027,-0.00012915923256683824,9.312798014475971e-07,0.9999894340998979,-0.004596467972514674,-6.458107433031637e-05,1.6879684054046983e-07,-0.00022505390159958719,0.038444926660904266,0.0,-0.011738954776151321,-0.0006035357077411921,5.155996154226031e-08,-0.0012671360665174277,0.0901855600917753,0.0,0.003960935236976566,-0.002146316373883699,1.9056412558869183e-07,0.1226260766767538,0.12261641138129724,0.1226342668663879,0.12264397613818108
1.1400000000000001,1.9999633931598264,0.01210044050805302,1.25,-0.009310159896570502,-0.00013530163678759176,9.886334209664079e-07,0.999989162846645,-0.004655063091791962,-6.765238643018619e-05,1.793925229199854e-07,-0.00023814809968638096,0.03935828706120967,0.0,-0.011697855838047902,-0.0006252382942231117,5.348477745535532e-08,-0.0013273993621234909,0.09133530707775046,0.0,0.004258541846724473,-0.002194229888026033,1.9436909992723175e-07,0.12262564602853825,0.12261576491707685,0.12263496319494196,0.12264488916081111
1.1500000000000001,1.9999609151343891,0.012503272548775715,1.25,-0.009426925528111432,-0.00014166344641605987,1.0487806414675224e-06,0.9999888891464509,-0.004713445262151509,-7.083340801066265e-05,1.9052304095549618e-07,-0.0002518599215302865,0.04028310369897507,0.0,-0.011653783939216832,-0.0006474203055017128,5.544734354080495e-08,-0.0013898154107938351,0.09248087841452875,0.0,0.0045554970482245515,-0.0022421839819716273,1.9811107330433014e-07,0.12262521814615394,0.12261512102826393,0.12263565916607533,0.1226458020019054
