t,x,y,z,roll,pitch,yaw,qw,qx,qy,qz,vx,vy,vz,wx,wy,wz,ax,ay,az,wx_dot,wy_dot,wz_dot,m1,m2,m3,m4
0.0,0.0,2.0,1.6500000000000001,0.0,0.0,0.0,1.0,0.0,0.0,0.0,-0.0,-0.0,0.0,9.69644787281226e-13,-0.0003143922485701939,0.0,0.0,-0.0,0.0,1.0907307657975264e-09,-0.031435346274607985,2.024655808752458e-14,0.1226959408906854,0.1225540591043917,0.1225540591093122,0.12269594089561073
0.01,-3.0841879584850343e-09,2.0,1.6500000000000001,9.696447872357062e-15,-3.1439224857032345e-06,1.4097564896455198e-19,0.9999999999987645,4.848223936283345e-15,-1.5719612428509697e-06,7.810904460652392e-20,-3.084187958485034e-07,-4.7561076816320415e-16,0.0,1.187695244525649e-11,-0.0006287457113162738,2.0246558087524583e-16,-3.084187958485034e-05,-9.512215363264084e-14,0.0,4.483446912514086e-09,-0.04714720200747056,8.799475234920555e-14,0.12273139820193021,0.12251860177904603,0.12251860179927163,0.1227313982221762
0.02,-1.850436677368114e-08,2.0,1.6500000000000001,2.3753904888601867e-13,-1.2574914226361722e-05,2.8682312133820525e-18,0.9999999999802339,1.1876952444967865e-13,-6.287457113139435e-06,2.1808738979460666e-18,-1.5420178815196106e-06,-1.4267032225606832e-14,0.0,9.063858303756296e-11,-0.001257336288719605,1.7598950469841112e-15,-0.00012335990856711073,-2.3302580701099077e-12,0.0,1.9407748319246436e-08,-0.06284354622565523,4.355740089770316e-13,0.12276682049041468,0.12248317944138003,0.1224831795289256,0.1227668205780608
0.03,-6.167767153962791e-08,1.9999999999999991,1.6500000000000001,1.8224681083447524e-12,-2.8290648260292013e-05,1.7985776332578964e-17,0.9999999998999549,9.112340542084192e-13,-1.4145324129674284e-05,2.1882589219655227e-17,-4.317330476594677e-06,-1.331414455317159e-13,0.0,4.0003191883018524e-10,-0.0018856166358293784,8.913945760415878e-15,-0.0002775312595075064,-1.787841215500823e-11,0.0,5.934367507535926e-08,-0.06280477213015516,1.535846837416362e-12,0.12276673293718077,0.12248326689311895,0.12248326716078631,0.12276673320520252
0.04,-1.541827655987855e-07,1.999999999999994,1.6500000000000001,8.238177424190655e-12,-5.028724694355448e-05,5.430989302290286e-17,0.9999999996838991,4.1190887114760534e-12,-2.5143623469127935e-05,1.3072376211572775e-16,-9.250509405915746e-06,-7.131345617008361e-13,0.0,1.2775120845447483e-09,-0.002513431731322708,3.247683179531135e-14,-0.0004933178929321047,-8.081652066028707e-11,0.0,1.4510381793465408e-07,-0.06275050153082816,4.295767165546658e-12,0.12276661037570843,0.12248338927946811,0.12248338993389093,0.12276661103112256
0.05,-3.2375451632974256e-07,1.9999999999999738,1.6500000000000001,2.7372709800166117e-11,-7.855928288813122e-05,5.347627933459649e-17,0.9999999992285549,1.3686354890575052e-11,-3.927964143396492e-05,5.643332526599226e-16,-1.6957175073095612e-05,-2.7449810070544544e-12,0.0,3.302108277523267e-09,-0.0031406266664459415,9.482928907134903e-14,-0.0007706665667179726,-2.6852628400945514e-10,0.0,3.041969367188123e-07,-0.06268074755912385,1.0194294569062007e-11,0.12276645282423929,0.1224835465595715,0.12248354793137213,0.12276645419839242
0.06,-6.042771519836928e-07,1.9999999999999087,1.6500000000000001,7.428034301826407e-11,-0.00011309978027513192,-3.080739715483805e-16,0.999999998401055,3.714017144103617e-11,-5.654989010742591e-05,1.9462356318844734e-15,-2.805226356539452e-05,-8.475670966996644e-12,0.0,7.361450818920995e-09,-0.003767046682505185,2.363627231765515e-13,-0.0011095088492298272,-7.286901693279018e-10,0.0,5.708118141282404e-07,-0.06259552709413341,2.142604515038628e-11,0.12276626030875482,0.12248373868348106,0.122483741257338,0.12276626288755624
0.07,-1.0357759012581217e-06,1.9999999999997318,1.6500000000000001,1.7460172647393026e-10,-0.00015390021654278194,-2.0520912837625785e-15,0.9999999970393405,8.730086289954266e-11,-7.695010819544994e-05,5.691765232797126e-15,-4.31498749274408e-05,-2.234680029607561e-11,0.0,1.4718344560088076e-08,-0.00439253720832861,5.233501920790747e-13,-0.0015097611362043938,-1.7128429538956674e-09,0.0,9.857669391675382e-07,-0.062494860759401326,4.10427571566038e-11,0.12276603286299462,0.12248396559220516,0.12248397003667677,0.12276603731693769
0.08,-1.664407117670496e-06,1.9999999999993074,1.6500000000000001,3.686472355292096e-10,-0.00020095052444887398,-7.698334206043129e-15,0.9999999949523609,1.843236164474596e-10,-0.0001004752620553827,1.46707967143025e-14,-6.286312164123025e-05,-5.2314913549343024e-11,0.0,2.707678960227176e-08,-0.005016943897693212,1.0572178663086275e-12,-0.001971324671378215,-3.616429438383353e-09,0.0,1.5964503169686655e-06,-0.0623787729189858,7.309166465758842e-11,0.12276577052847659,0.12248422721776278,0.12248423441482381,0.12276577774240502
0.09,-2.542446891168584e-06,1.999999999998384,1.6500000000000001,7.161375230877005e-10,-0.00025423909450729106,-2.259106419746626e-14,0.9999999919203103,3.5806875721488287e-10,-0.00012711954691128338,3.422200672306988e-14,-8.780397734978715e-05,-1.1161847462269174e-10,0.0,4.664735089946139e-08,-0.005640112666708326,1.985183485230843e-12,-0.002494085570853692,-7.0253092721955705e-09,0.0,2.4567494716579397e-06,-0.06224729167274242,1.2275027130557385e-10,0.1227654733545213,0.12248452348324464,0.12248453455749095,0.12276548445709463
0.1,-3.7282781497872466e-06,1.999999999996525,1.6500000000000001,1.3015942670452536e-09,-0.0003137527777981285,-5.693930592586276e-14,0.9999999876948994,6.50797121048286e-10,-0.00015687638825560434,7.362505118152052e-14,-0.00011858312586180772,-2.2105543854240844e-10,0.0,7.621177903543055e-08,-0.00626188973114806,3.5122232924201046e-12,-0.003077914851197114,-1.2768640212937215e-08,0.0,3.6269717198334353e-06,-0.06210044885081285,1.9645702570021691e-10,0.12276514139827825,0.12248485430287955,0.12248487065035792,0.12276515779109291
0.11,-5.286376254534041e-06,1.9999999999930136,1.6500000000000001,2.2403731392197012e-09,-0.0003794768891508646,-1.2878425949067596e-13,0.9999999819996613,1.1201865372284506e-09,-0.00018973844343698023,1.4815032749052575e-13,-0.0001558098104745347,-4.118346411594534e-10,0.0,1.191867852961301e-07,-0.006882121643724583,5.9143239992351815e-12,-0.003722668461261432,-2.1978061598774396e-08,0.0,5.173754803067198e-06,-0.06193828000728299,3.0203741071186684e-10,0.12276477472475558,0.12248521958210705,0.12248524289872727,0.1227647981110768
0.12,-7.287293091057644e-06,1.9999999999867237,1.6500000000000001,3.685330057201766e-09,-0.00045139521069994864,-2.681324862658313e-13,0.9999999745302955,1.8426649514103196e-09,-0.0002256976034338239,2.8181884116824985e-13,-0.00020009168365202906,-7.290633719326012e-10,0.0,1.796868750967745e-07,-0.00750065533129372,9.552971506657442e-12,-0.0044281873177254944,-3.615309035704263e-08,0.0,7.169967978611451e-06,-0.06176082441297138,4.4882497124506044e-10,0.12276437340685217,0.1224856192176561,0.12248565152714266,0.12276440581991366
0.13,-9.80763966202389e-06,1.9999999999759526,1.6500000000000001,5.834110826379056e-09,-0.0005294899958120835,-5.225175308739149e-13,0.9999999649550433,2.917055241794497e-09,-0.0002647449948133827,5.110170639540563e-13,-0.00025203465709591245,-1.2359325495840914e-09,0.0,2.6258614486835913e-07,-0.00811733813198401,1.489082342413639e-11,-0.005194297344340352,-5.72326325155279e-08,0.0,9.6946036781595e-06,-0.06156812504732236,6.477768183260486e-10,0.12276393752539223,0.12248605309762997,0.12248609677897104,0.12276398135622031
0.14,-1.2930067184493869e-05,1.9999999999582034,1.6500000000000001,8.937053336237393e-09,-0.000613741973384393,-9.642753612380562e-13,0.9999999529150991,4.468526309764498e-09,-0.00030687098187586647,8.891235082664555e-13,-0.000312242752245549,-2.018659882245298e-09,0.0,3.735789486599645e-07,-0.008732017832240167,2.2508507873178413e-11,-0.006020809514872171,-8.76725039349759e-08,0.0,1.2832659855079795e-05,-0.0613602285893672,9.115831620411435e-10,0.12276346716916282,0.12248652110159637,0.12248657891594987,0.12276352519388167
0.15,-1.6743246696967195e-05,1.9999999999299158,1.6500000000000001,1.3305690543999205e-08,-0.0007041303525125756,-1.6998402839669078e-12,0.9999999380250565,6.652844560462614e-09,-0.0003520651689832146,1.4923150055960192e-12,-0.00038131795124452065,-3.1922502639464224e-09,0.0,5.19239341969955e-07,-0.009344542703771355,3.312248666495926e-11,-0.0069075198997301645,-1.3052884485302468e-07,0.0,1.6675013150995354e-05,-0.06113718540768729,1.2547704417027264e-09,0.12276296243495273,0.12248702310068438,0.1224870982176988,0.12276303784152967
0.16,-2.1341847181120792e-05,1.9999999998861313,1.6500000000000001,1.9321841560766074e-08,-0.0008006328275280358,-2.881387705326854e-12,0.9999999198733854,9.660919429552783e-09,-0.0004003164030720182,2.4267313199411476e-12,-0.0004598600484101233,-4.9071314392152145e-09,0.0,7.070792116798716e-07,-0.009954761540393913,4.760391670723294e-11,-0.007854209716266752,-1.8954730383123172e-07,0.0,2.131828302291045e-05,-0.06089904954935839,1.6937976386399886e-09,0.12276242342759432,0.12248755895768673,0.12248765498119847,0.12276251984198235
0.17,-2.68265122036395e-05,1.9999999998200846,1.6500000000000001,2.7447277251627227e-08,-0.000903225583402892,-4.721168145503368e-12,0.9999998980229448,1.3723636160247436e-08,-0.000451612776350065,3.837186709402406e-12,-0.0005484665022424711,-7.356721658509355e-09,0.0,9.456050024281641e-07,-0.010562523694758522,6.699843943775904e-11,-0.008860645382735937,-2.692578578383716e-07,0.0,2.6864686982280706e-05,-0.06064587872783482,2.2471453751622165e-09,0.12276185026000648,0.12248812852716821,0.12248824952023438,0.12276197177164465
0.18,-3.330383508389932e-05,1.9999999997227136,1.6500000000000001,3.823394587269933e-08,-0.0010118833015216515,-7.508893167822413e-12,0.9999998720115255,1.9116968590066648e-08,-0.0005059416291759255,5.917626328943512e-12,-0.0006477322880096485,-1.0785984650690458e-08,0.0,1.2443729513254857e-06,-0.01116767911495061,9.254682421047728e-11,-0.009926578575894764,-3.7507512649476115e-07,0.0,3.3421887107472716e-05,-0.06037773430969395,2.9353974224813124e-09,0.12276124305324028,0.12248873165557997,0.12248888216480973,0.1227613942398694
0.19,-4.088633259362682e-05,1.999999999582077,1.6500000000000001,5.233474339578134e-08,-0.0011265791658182252,-1.1632548252831173e-11,0.9999998413524267,2.6167364270254205e-08,-0.0005632895531209372,8.923533906376484e-12,-0.000758249750945182,-1.5501025756328823e-08,0.0,1.6140427445776184e-06,-0.011770078380952401,1.2570638788738529e-10,-0.01105174629223125,-5.134040299539123e-07,0.0,4.110282800095427e-05,-0.06009468130020769,3.781314260661881e-09,0.12276060193652494,0.12248936818137965,0.1224895532605254,0.12276078788828164
0.2,-4.9692417195019326e-05,1.9999999993826658,1.6500000000000001,7.051481231623153e-08,-0.0012472848692768454,-1.760302003337141e-11,0.9999998055350625,3.525739381279172e-08,-0.0006236423942128932,1.3186504885083112e-11,-0.0008806084600939281,-2.187978149897907e-08,0.0,2.066429511344571e-06,-0.012369572740954763,1.681731094237149e-10,-0.012235870912801036,-6.917506315190383e-07,0.0,5.0025566372284544e-05,-0.05979678832769208,4.809898354944397e-09,0.12275992704731606,0.12249003793515742,0.12249026316792919,0.12276015339006441
0.21,-5.984636782416989e-05,1.9999999991046031,1.6500000000000001,9.366335190277449e-08,-0.001373970620795315,-2.608293562109214e-11,0.9999997640255998,4.683165594101454e-08,-0.0006869852563606746,1.9131206176170285e-11,-0.001015395062842289,-3.0383853222455666e-08,0.0,2.6145540720233093e-06,-0.012966014147506243,2.2190435498627324e-10,-0.013478660271653488,-9.188379978923996e-07,0.0,6.03130924375274e-05,-0.05948412762659576,6.048450835012397e-09,0.12275921853134444,0.12249074073976766,0.12249101226183519,0.12275949144920821
0.22,-7.147829922699771e-05,1.9999999987227133,1.6500000000000001,1.2280592203017836e-07,-0.0015066051524089078,-3.792011991395242e-11,0.999999716267626,6.140292931042068e-08,-0.0007533025049590099,2.7294949767173697e-11,-0.0011631931401684503,-4.157153369242517e-08,0.0,3.2726913600951193e-06,-0.013559255293486679,2.8914212612396283e-10,-0.01477980772782674,-1.2047269019445035e-06,0.0,7.209314333507667e-05,-0.059156775019220294,7.52661928689044e-09,0.12275847654266565,0.12249147641046712,0.12249180093061374,0.1227588027997244
0.23,-8.472412985524037e-05,1.9999999982054555,1.6500000000000001,1.5911722193804049e-07,-0.0016451557268730868,-5.418608270179031e-11,0.9999996616828452,7.955856176684395e-08,-0.0008225777706724743,3.835011266384081e-11,-0.001324583062648136,-5.6112073752274134e-08,0.0,4.056416938724843e-06,-0.014149149647890649,3.72436740724082e-10,-0.016138992240889546,-1.5609411850769508e-06,0.0,8.549800876705766e-05,-0.05881480989604554,9.276436391113605e-09,0.12275770124371062,0.12249224475505778,0.12249262957545329,0.1227580882048221
0.24,-9.972554833041623e-05,1.9999999975137037,1.6500000000000001,2.0393432448220044e-07,-0.0017895881456030766,-7.621995101380466e-11,0.9999995996718051,1.0196708732019495e-07,-0.0008947939533977707,5.312963996806127e-11,-0.0015001418472511204,-7.480123423824976e-08,0.0,4.982651535436273e-06,-0.01473555149140759,4.746708539462349e-10,-0.017555878450006356,-2.0005975886461643e-06,0.0,0.0001006643290844288,-0.05845831519465331,1.1332349165558236e-08,0.12275689280533589,0.12249304557403665,0.1224934986095948,0.12275734845605149
0.25,-0.00011662997848401607,1.999999996599362,1.6500000000000001,2.587703456904509e-07,-0.0019398667569681847,-1.0567826341607829e-10,0.9999995296146491,1.2938506073390672e-07,-0.0009699332264032714,7.26558712932286e-11,-0.0016904430149635098,-9.857816639943904e-08,0.0,6.069703520413419e-06,-0.015318315951783715,5.990837240352468e-10,-0.019030116756500653,-2.538539856524108e-06,0.0,0.00011773288604265892,-0.05808737737709622,1.3731238596781371e-08,0.12275605140687493,0.12249387866075057,0.12249440845754034,0.12275658437241199
0.26,-0.00013559054298253043,1.9999999954038012,1.6500000000000001,3.2532852870211357e-07,-0.0020959544649386055,-1.4459104181498356e-10,0.9999994508718972,1.6266409926349326e-07,-0.0010479770406447149,9.81729331652801e-11,-0.0018960564492705233,-1.2854366203646557e-07,0.0,7.337309256289451e-06,-0.015897299038949514,7.492956258818624e-10,-0.020561343409889684,-3.191476903704848e-06,0.0,0.00013684838646338247,-0.057702086405713324,1.651242946984523e-08,0.12275517723618792,0.122494743801557,0.1224953595542361,0.12275579679942764
0.27,-0.00015676602554626394,1.9999999938561033,1.6500000000000001,4.055167204625389e-07,-0.0022578127380822963,-1.9542455270726675e-10,0.9999993627852521,2.0275812072266716e-07,-0.0011289061292558797,1.3118294153302099e-10,-0.0021175482555342373,-1.6597981247114486e-07,0.0,8.806671249681068e-06,-0.01647235767989798,9.293323134321513e-10,-0.02214918059736242,-3.978124838930754e-06,0.0,0.00015815923904571533,-0.05730253571735629,1.9717690233353086e-08,0.12275427048971224,0.1224956407759904,0.12249635234423148,0.12275498660818962
0.28,-0.00018032083177122984,1.9999999918710993,1.6500000000000001,5.014622188594856e-07,-0.0024254016189093485,-2.6115116370165746e-10,0.9999992646784321,2.5073076671268055e-07,-0.0012127005122129799,1.734862589973888e-10,-0.002355480621300453,-2.1237111329012732e-07,0.0,1.0500494037203758e-05,-0.01704334975329664,1.1436494305489241e-09,-0.023793236536670665,-4.919352622617229e-06,0.0,0.00018181732457895974,-0.05688882219588732,2.3391222763672996e-08,0.12275333137251183,0.12249656935693458,0.12249738728081556,0.12275415469436735
0.29,-0.00020642494856375684,1.9999999893471851,1.6500000000000001,6.155269673294524e-07,-0.0025986797335610986,-3.4532669249005707e-10,0.9999991558580268,3.0776299952035523e-07,-0.001299339501171434,2.2722605085105357e-10,-0.002610411677568532,-2.6942704957123546e-07,0.0,1.2443017741260263e-05,-0.017610134123815728,1.3971567687056113e-09,-0.02549310557240166,-6.038331134907875e-06,0.0,0.00020797775981620638,-0.056461046142964634,2.7579641920098364e-08,0.12275236009832491,0.1224975293108003,0.1224984648251312,0.12275330197718852
0.3,-0.00023525390219777587,1.9999999861639004,1.6500000000000001,7.503230733291286e-07,-0.0027776043018410616,-4.521756342471668e-10,0.9999990356143774,3.751608608730441e-07,-0.0013888017044735796,2.949373824849238e-10,-0.002882895361057715,-3.3910619400430026e-07,0.0,1.4660049233527886e-05,-0.018172570676155932,1.6952422689508914e-09,-0.027248368275598615,-7.360685422500467e-06,0.0,0.00023679865527588429,-0.05601931124707502,3.2331944810855876e-08,0.12275135688961152,0.12249852039770852,0.12249958544526843,0.12275242939838957
0.31,-0.00026698871500508564,1.9999999821792565,1.6500000000000001,9.087286264609546e-07,-0.002962131147584606,-5.866846396726976e-10,0.9999989032224803,4.543633804348917e-07,-0.0014810650323258193,3.7960109815729446e-10,-0.0031734812775030975,-4.2364184796143113e-07,0.0,1.717899084677795e-05,-0.01873052034875723,2.043795664922729e-09,-0.029058591546694035,-8.91464988695514e-06,0.0,0.0002684408672455359,-0.05556372455067047,3.769946971834093e-08,0.12275032197759872,0.1224995423716793,0.12250074961533952,0.12275153792113651
0.32,-0.00030181586070922626,1.9999999772267965,1.6500000000000001,1.0939037914630391e-06,-0.003152214709364053,-7.547045995554983e-10,0.9999987579429108,5.469506216386058e-07,-0.001576106702143584,4.847027175279096e-10,-0.003482714566014052,-5.25569253157493e-07,0.0,2.0028866578438604e-05,-0.01928384516716934,2.44923166331771e-09,-0.0309233287217186,-1.0731226171536861e-05,0.0,0.00030306774426905943,-0.05509439641544628,4.373584466078698e-08,0.12274925560232375,0.12250059498082617,0.1225019578145341,0.12275062852891883
0.33,-0.00033992721841391197,1.9999999711123713,1.6500000000000001,1.3093071507230847e-06,-0.003347808051525762,-9.630616728381065e-10,0.9999985990227691,6.546518521708534e-07,-0.0016739032440624083,6.142965817293746e-10,-0.0038111357645275196,-6.47754399072853e-07,0.0,2.3240345732159137e-05,-0.019832408277066154,2.9185125581384684e-09,-0.03284211968174669,-1.2844343498261045e-05,0.0,0.0003408448684053377,-0.05461144048567856,5.049692559656211e-08,0.1227481580126756,0.12250167796755562,0.12250321052615872,0.12274970222441535
0.34,-0.0003815200252572975,1.9999999636106172,1.6500000000000001,1.5587122704541412e-06,-0.003548862875555523,-1.219677573706091e-09,0.9999984256966457,7.79353826167703e-07,-0.0017744305066133249,7.730754750812859e-10,-0.00415928067638817,-7.934244487900149e-07,0.0,2.6845763946545358e-05,-0.020376073976882913,3.4591701752489522e-09,-0.03481449096553762,-1.529102120171054e-05,0.0,0.0003819397915525815,-0.054114973649540925,5.804072430633635e-08,0.1227470294664339,0.12250279106877211,0.12250450823665977,0.12274876002833483
0.35000000000000003,-0.00042679682774366637,1.9999999544611164,1.6500000000000001,1.846224464177595e-06,-0.003755329531768381,-1.5336994092403802e-09,0.9999982371876053,9.231091649295505e-07,-0.0018776636625606616,9.664459418502124e-10,-0.004527680238087015,-9.66199803326443e-07,0.0,3.0879141563210766e-05,-0.020914707750056973,4.079327044265195e-09,-0.03683995588532972,-1.811153320138004e-05,0.0,0.00042652176713872057,-0.05360511599843236,6.642732601763635e-08,0.12274587023030492,0.12250393401608865,0.12250585143463252,0.1227478029782317
0.36,-0.00047596543176444377,1.9999999433642262,1.6500000000000001,2.1762977266964227e-06,-0.003967157031318847,-1.915639332682809e-09,0.9999980327081891,1.088144822733027e-06,-0.001983577214900256,1.200609509726224e-09,-0.004916860388189631,-1.1701278219306313e-06,0.0,3.537619928931977e-05,-0.02144817629685156,4.787716695601679e-09,-0.03891801464574254,-2.1349574149786425e-05,0.0,0.00047476147748394044,-0.05308199078420568,7.571879686546344e-08,0.12274468057995436,0.12250510653604177,0.12250724060981641,0.12274683212729758
0.37,-0.0005292388513207417,1.9999999299765583,1.6500000000000001,2.5537518113098635e-06,-0.004184293058527189,-2.3775242484135805e-09,0.9999978114614331,1.2768706241007232e-06,-0.002092145003015964,1.4826500229319282e-09,-0.00532734193748464,-1.4097182131502532e-06,0.0,4.0374371112889575e-05,-0.021976347565741086,5.593702981574464e-09,-0.04104815446574012,-2.5052426989364934e-05,0.0,0.0005268307571469163,-0.052545724374294424,8.597908131179449e-08,0.12274346080003776,0.1225063083503122,0.1225086762520787,0.12274584854313075
0.38,-0.0005868352559599492,1.9999999139060938,1.6500000000000001,2.9837894226199914e-06,-0.0044066839835173515,-2.933055773371918e-09,0.9999975726419028,1.4918878586885343e-06,-0.002203340208992266,1.8206272781137778e-09,-0.005759640440382669,-1.6899801087831133e-06,0.0,4.5912814432258094e-05,-0.02249909078433745,6.507298321837569e-09,-0.04322984970360684,-2.927113164725827e-05,0.0,0.0005829023125713297,-0.051996446204682044,9.727388967567466e-08,0.12274221118422597,0.1225075391759503,0.12251015885038759,0.12274485330648395
0.39,-0.0006489779169391753,1.999999894706913,1.6500000000000001,3.472013496911462e-06,-0.004634274875161775,-3.5977806259228314e-09,0.9999973154367419,1.7359979197651822e-06,-0.002317135364080636,2.2236771454014555e-09,-0.006214266067595447,-2.0164608300866397e-06,0.0,5.203241736431617e-05,-0.023016276489834727,7.539180775087957e-09,-0.04546256198488455,-3.406065459350122e-05,0.0,0.0006431494383540989,-0.051434288730717315,1.0967057595445769e-07,0.12274093203522791,0.12250879872560638,0.12251168889177602,0.12274384750999204
0.4,-0.0007158951521286471,1.9999998718735288,1.6500000000000001,4.024444541748718e-06,-0.004867009514328207,-4.389271577148243e-09,0.9999970390267352,2.0122109720893675e-06,-0.0024335023553172523,2.70211834527608e-09,-0.006691723480124239,-2.395286352852985e-06,0.0,5.877580319934007e-05,-0.023527776558951795,8.700709840926723e-09,-0.04774574033321834,-3.9480058984813813e-05,0.0,0.0007077457304609972,-0.050859387375696424,1.2323800614512703e-07,0.12273962366480853,0.12251008670776549,0.12251326686029732,0.12274283225688032
0.41000000000000003,-0.0007878202696684518,1.9999998448347998,1.6500000000000001,4.6475380061302525e-06,-0.005104830407423359,-5.327319061291201e-09,0.9999967425873825,2.3237546348371367e-06,-0.0025524124322895097,3.2675660391812838e-09,-0.0071925117045861945,-2.833203475157588e-06,0.0,6.618733197353611e-05,-0.024033464237348656,1.0003940897990498e-08,-0.05007882130405575,-4.5592675113243656e-05,0.0,0.0007768647967195166,-0.050271880477253776,1.380464173028554e-07,0.12273828639380291,0.12251140282698718,0.12251489323597449,0.12274180865965581
0.42,-0.0008649915103922908,1.999999812947413,1.6500000000000001,5.348201652267904e-06,-0.005347678800228055,-6.4341335016879475e-09,0.9999964252899856,2.674082665095742e-06,-0.0026738362140486705,3.933052378165224e-09,-0.007717124009906699,-3.337623688762476e-06,0.0,7.43130991337304e-05,-0.02453321416849687,1.146163818698383e-08,-0.052461229121142275,-5.246627087624746e-05,0.0,0.0008506799649224938,-0.04967190923153789,1.541672676018487e-07,0.12273692055212507,0.12251274678414936,0.12251656849374395,0.12274077783878139
0.43,-0.0009476519890321935,1.9999997754889143,1.6500000000000001,6.133812899820625e-06,-0.0055954946920182954,-7.734558366072373e-09,0.9999960863027438,3.066883627320615e-06,-0.0027977436961659136,4.713154139281427e-09,-0.008266047785405161,-3.916668752304957e-06,0.0,8.320093127198599e-05,-0.025026902421979413,1.3087286250027472e-08,-0.05489237581575425,-6.017322198247664e-05,0.0,0.0009293639888792825,-0.04905961763501457,1.7167307768985544e-07,0.12273552647877264,0.12251411827669674,0.12251829310239533,0.12273974092133526
0.44,-0.0010360496342184037,1.999999731650271,1.6500000000000001,7.012236113207236e-06,-0.005848216849966387,-9.256293920725281e-09,0.9999957247918594,3.5060895340492936e-06,-0.0029241042579288695,5.62412756402997e-09,-0.00883976442030112,-4.579217961530867e-06,0.0,9.290037891131606e-05,-0.02551440652119716,1.489509974078094e-08,-0.05737166136860732,-6.879068160553362e-05,0.0,0.0010130887527542202,-0.04843515242411653,1.9063726365557056e-07,0.12273410452182576,0.12251551699889349,0.12252006752350926,0.12273869903965626
0.45,-0.0011304371272889185,1.9999996805279499,1.6500000000000001,7.99183980245164e-06,-0.0061057828238161365,-1.1030131606671757e-08,0.9999953399226494,3.995884443080387e-06,-0.003052886669675676,6.684050496818276e-09,-0.009438749184666879,-5.334957108942567e-06,0.0,0.00010346270632707039,-0.025995605470461744,1.6900031523138883e-08,-0.05989847385437754,-7.840074919629903e-05,0.0,0.0011020249740348227,-0.04779866301266745,2.111339619534956e-07,0.12273265503844147,0.12251694264207913,0.12252189221039278,0.12273765332997703
0.46,-0.0012310718399234123,1.9999996211154953,1.6500000000000001,9.081513707876854e-06,-0.00636812896082583,-1.3090198913110927e-08,0.9999949308606658,4.5407129962569726e-06,-0.003184059100263433,7.91297190429626e-09,-0.010063471111852252,-6.194429122328635e-06,0.0,0.00011494087839201251,-0.02647037978145051,1.911777897985085e-08,-0.0624721895887695,-8.909063816309499e-05,0.0,0.0011963419054740866,-0.04715030142694258,2.332378466560589e-07,0.12273117839484135,0.12251839489492915,0.12252376760701547,0.12273660493104621
0.47000000000000003,-0.0013382157706165367,1.9999995522945877,1.6500000000000001,1.0290685738861673e-05,-0.006635190420972531,-1.5474214573613543e-08,0.9999944967728202,5.145288884942524e-06,-0.003317589124667854,9.333068838509185e-09,-0.010714392882406344,-7.169086368728255e-06,0.0,0.00012738954443655213,-0.026938611499000596,2.156478845626006e-08,-0.06509217327806399,-0.00010095284212795124,0.0,0.0012962070363533103,-0.04649022223851898,2.5702393942774746e-07,0.12272967496629524,0.12251987344371854,0.12252569414694703,0.12273555498274058
0.48,-0.001452135480005815,1.9999994728255674,1.6500000000000001,1.1629338736805176e-05,-0.0069069011924109145,-1.8223753859462903e-08,0.9999940368285113,5.8146032272432595e-06,-0.0034534437317107454,1.0968810888151903e-08,-0.011391970709520555,-8.271344607461608e-06,0.0,0.00014086501911907872,-0.02740018422622089,2.42582577684058e-08,-0.06775777817107567,-0.0001140852994665757,0.0,0.0014017857934132995,-0.045818582494924244,2.8256741263925725e-07,0.12272814513709684,0.12252137797258904,0.12252767225229702,0.1227345046246692
0.49,-0.001573102025069608,1.999999381337409,1.6500000000000001,1.3108027032411076e-05,-0.007183194107179803,-2.138452369197915e-08,0.9999935502007583,6.553932842014393e-06,-0.0035915893319119147,1.2847132142840842e-08,-0.012096654226016341,-9.514638572932043e-06,0.0,0.00015542526030481812,-0.02785498314889908,2.7216136709045206e-08,-0.07046834621344915,-0.00012859155583930717,0.0,0.0015132412418023306,-0.04513554164801269,3.099433860631455e-07,0.122726589300535,0.12252290816381961,0.12252970233265899,0.1227334549947712
0.5,-0.0017013908922108344,1.999999276317127,1.6500000000000001,1.4737892767404349e-05,-0.007464000857149137,-2.5006647241882683e-08,0.999993036067333,7.368848404688316e-06,-0.0037319917654618983,1.4997610675288058e-08,-0.012828886372900496,-1.0913479164979274e-05,0.0,0.00017112984395512533,-0.028302895059181144,3.045712548966871e-08,-0.07322320820421996,-0.0001445809244203379,0.0,0.0016307337863907848,-0.04444126148028336,3.392267176139996e-07,0.12272500785885825,0.12252446369809915,0.12253178478405984,0.12273240722790768
0.51,-0.0018372819292423706,1.9999991560986001,1.6500000000000001,1.6530681950828777e-05,-0.007749252010200076,-2.9144957628869312e-08,0.999992493611894,8.265222469981315e-06,-0.0038746163103118778,1.7452655525610417e-08,-0.013589103289510001,-1.248351222163911e-05,0.0,0.00018803993603263381,-0.028743808378504748,3.40006710613252e-08,-0.07602168395456504,-0.0001621686435328456,0.0,0.0017544208738016827,-0.04373590602896778,3.7049178861752223e-07,0.12272340122323278,0.12252604425480262,0.12253391998791519,0.12273136245445031
0.52,-0.0019810592762902505,1.9999990188507952,1.6500000000000001,1.849876022014418e-05,-0.00803887702663062,-3.385930027872482e-08,0.9999919220251196,9.249237346571104e-06,-0.0040194276903769985,2.0247701150784012e-08,-0.014377734205267643,-1.4241578846247428e-05,0.0,0.00020621826143115898,-0.0291776131797605,3.7866961262019155e-08,-0.07886308244866543,-0.0001814760313983633,0.0,0.0018844566955066753,-0.04301964150794507,4.038122841114773e-07,0.12272176981369351,0.12252764951226969,0.12253610830999344,0.12273032179886749
0.53,-0.0021330112956310077,1.9999988625653797,1.6500000000000001,2.0655128277447425e-05,-0.008332804275778951,-3.921484343865478e-08,0.99999132050584,1.0327392808890827e-05,-0.004166390083849191,2.342140928050842e-08,-0.015195201333068967,-1.6205777257917775e-05,0.0,0.00022572906994276732,-0.02960420120866365,4.2076916743554744e-08,-0.0817467020066016,-0.00020263063770974154,0.0,0.0020209918923366336,-0.04229263622776182,4.392609687012849e-07,0.12272011405909014,0.1225292791480846,0.12253835009938825,0.12272928637830975
0.54,-0.0022934305004796915,1.9999986850437026,1.6500000000000001,2.301343697128102e-05,-0.008630961052856422,-4.528239629420098e-08,0.9999906882621635,1.1506513631256023e-05,-0.00431546713161552,2.7015878098529135e-08,-0.016041919764320137,-1.839552613152636e-05,0.0,0.00024663809927789166,-0.030023465904315736,4.665218063604485e-08,-0.08467183044920097,-0.0002257663917384239,0.0,0.002164173260753904,-0.04155506051348942,4.76909458512073e-07,0.12271843439702435,0.12253093283935897,0.12254064568750148,0.12272825730119581
0.55,-0.0024626134827452754,1.999998483883134,1.6500000000000001,2.5588001994667685e-05,-0.008933273595982122,-5.213873407331438e-08,0.999990024512601,1.2793756929629243e-05,-0.004466621945777968,3.107685864583262e-08,-0.01691829736564561,-2.083162939045871e-05,0.0,0.0002690125351578454,-0.030435302418933437,5.16151059137962e-08,-0.0876377452647544,-0.0002510237466884553,0.0,0.0023141434612340595,-0.04080708662077947,5.168279897925165e-07,0.12271673127378187,0.12253261026301573,0.1225429953870378,0.12272723566580154
0.56,-0.0026408608397703753,1.9999982564627463,1.6500000000000001,2.8393818170217642e-05,-0.009239667103410452,-5.98669294650177e-08,0.9999893284871836,1.4196619296432569e-05,-0.004619817118270458,3.565397831913217e-08,-0.017824734677283578,-2.3536342412512525e-05,0.0,0.00029292096850257285,-0.030839607636731325,5.698874043189518e-08,-0.0906437137775177,-0.0002785498200116795,0.0,0.0024710407291011786,-0.04004888865006984,5.590851847412579e-07,0.12271500514425723,0.12253431109607402,0.12254539949101136,0.12272622255885257
0.5700000000000001,-0.002828477100072342,1.9999979999283235,1.6500000000000001,3.144657329339904e-05,-0.009550065750943278,-6.855668962178961e-08,0.9999885994285734,1.5722943713941336e-05,-0.0047750147295688525,4.0800971314759895e-08,-0.018761624813186373,-2.6533439606513865e-05,0.0,0.000318433349739869,-0.031236280191934834,6.279680960862136e-08,-0.09368899331791178,-0.0003084985294009515,0.0,0.0026349985881584485,-0.03928064245881761,6.037478151450579e-07,0.12271325647187185,0.12253603501593573,0.12254785827176731,0.12272521905412226
0.58,-0.00302577064810298,1.9999977111766867,1.6500000000000001,3.4762661505337964e-05,-0.009864392709517732,-7.830469795648759e-08,0.9999878365931657,1.738092623193205e-05,-0.004932176357489515,4.657591584452973e-08,-0.019729353362842088,-2.9848283314393057e-05,0.0,0.00034562094026574183,-0.03162522048590768,6.906369673479634e-08,-0.09677283139433449,-0.0003410307241808865,0.0,0.0028061455674558296,-0.03850252557210283,6.50880564422449e-07,0.1227114857284842,0.12253778170067257,0.12255037198001786,0.12272422621103662
0.59,-0.003233053648044279,1.9999973868393202,1.6500000000000001,3.835919616682642e-05,-0.010182570162960902,-8.921495988649e-08,0.999987039252183,1.9179122395414923e-05,-0.0050912630860720206,5.3041477926397375e-08,-0.020728298294832765,-3.350789399068506e-05,0.0,0.00037455626108898557,-0.03200633070337689,7.581442089707034e-08,-0.09989446586649484,-0.0003763143118186977,0.0,0.0029846049215312013,-0.037714717091740305,7.005457886842218e-07,0.12270969339429512,0.12253955082931307,0.12255294084389405,0.12272324507328884
0.6,-0.0034506419666577278,1.9999970232652893,1.6500000000000001,4.22540222055596e-05,-0.010504519325902073,-1.0139915161992405e-07,0.9999862066927568,2.1126453408455133e-05,-0.005252235514541399,6.026516152887512e-08,-0.021758829862143742,-3.7541021608670343e-05,0.0,0.00040531303869636585,-0.032379514827742484,8.307461250848078e-08,-0.10305312512017932,-0.0004145243792810252,0.0,0.0031704943544577286,-0.03691739760376539,7.528032774314292e-07,0.12270787995774415,0.12254134208212981,0.12255556506801543,0.12272227666746312
0.61,-0.0036788550952048574,1.999996616503435,1.6500000000000001,4.646572790900234e-05,-0.010830160461833577,-1.1497697102155255e-07,0.9999853382189998,2.323221202027782e-05,-0.005415053766345396,6.831956482422602e-08,-0.022821310509237636,-4.197821823965912e-05,0.0,0.00043796614817814014,-0.0327446786554522,9.087048644569892e-08,-0.10624802824335977,-0.0004558433089663352,0.0,0.0033639257480285703,-0.0361107490844368,8.07710014516082e-07,0.12270604591540105,0.12254315514092655,0.12255824483257774,0.122721322001671
0.62,-0.003918016070456855,1.9999961622838358,1.6500000000000001,5.10136561356932e-05,-0.01115941290131046,-1.3007648953925837e-07,0.9999844331530616,2.5506068120058666e-05,-0.005579677498261911,7.728264228152304e-08,-0.02391609478090566,-4.6851911749248355e-05,0.0,0.00047259155365693726,-0.03310172980943122,9.922881279880242e-08,-0.10947838520354884,-0.0005004608889464554,0.0,0.003565004894405288,-0.035294954805122764,8.653199399984282e-07,0.12270419177184885,0.12254498968932417,0.12256098029245954,0.12272038206420122
0.63,-0.004168451394811156,1.9999956559985246,1.6500000000000001,5.5917914918238894e-05,-0.011492195060279885,-1.468345041163066e-07,0.9999834908361744,2.7958074027026038e-05,-0.005746065909572003,8.723797230678106e-08,-0.025043529232908035,-5.2196480551748994e-05,0.0,0.0005092662460662459,-0.033450577751554654,1.0817688524566749e-07,-0.11274339702631116,-0.000548574417255127,0.0,0.0037738312335494893,-0.034470199235724086,9.256837135382314e-07,0.1227023180395617,0.12254684541304614,0.12256377157635012,0.12271945782218419
0.64,-0.004430490955533078,1.9999950926814527,1.6500000000000001,6.119938743172412e-05,-0.011828424458530195,-1.6539688795979886e-07,0.9999825106296799,3.0598669462739694e-05,-0.005914177751293509,9.82750301136117e-08,-0.026203952344414222,-5.8048329361395156e-05,0.0,0.000548068178327927,-0.0337911337941457,1.1774248706956704e-07,-0.11604225597483434,-0.0006003887999660623,0.0,0.003990497595756059,-0.03363666794730796,9.88848479970588e-07,0.12270042523877511,0.12254872200020209,0.12256661878589796,0.12271855022027416
0.65,-0.004704467943140593,1.9999944669876895,1.6500000000000001,6.687974130176869e-05,-0.012168017738250166,-1.8591893898218044e-07,0.9999814919160409,3.343868619266688e-05,-0.0060839713354704636,1.104894654842834e-07,-0.027397694432252807,-6.444596587640869e-05,0.0,0.0005890761979813671,-0.03412331111050081,1.2795385484507925e-07,-0.11937414573046518,-0.0006561166428079215,0.0,0.0042150899495988405,-0.03279454751370196,1.0548576377042709e-06,0.12269851389735087,0.1225506191415691,0.1225695219948814,0.12271766017934874
0.66,-0.004990718768950532,1.999993773171849,1.6500000000000001,7.298143722700074e-05,-0.012510890682688552,-2.0856572468046587e-07,0.999980434099836,3.648935232444795e-05,-0.006255404544513402,1.2398338505775184e-07,-0.028625077566979972,-7.143007832950717e-05,0.0,0.0006323699773199039,-0.03444702474441974,1.3883963982365246e-07,-0.12273824157411613,-0.0007159783360688474,0.0,0.004447687155594097,-0.03194402541209958,1.1237506105834536e-06,0.12269658455063419,0.12255253653087232,0.12257248124840314,0.12271678859522898
0.67,-0.0052895829818044625,1.9999930050657373,1.6500000000000001,7.952773689127979e-05,-0.012856958234903806,-2.3351242216715714e-07,0.9999793366087325,3.976229625052938e-05,-0.006428434840585486,1.3886563875822472e-07,-0.029886415490774403,-7.90436138360101e-05,0.0,0.000678029941093249,-0.034762191618742805,1.5042886705674832e-07,-0.12613371056844364,-0.0007802021325487032,0.0,0.004688360725881664,-0.031085289923429155,1.1955626238794282e-06,0.1226946377413072,0.12255447386506121,0.1225754965621082,0.12271593633742131
0.68,-0.00560140318399267,1.9999921560552107,1.6500000000000001,8.654271014160347e-05,-0.013206134516594312,-2.6094465201787975e-07,0.9999781988944436,4.326955022314455e-05,-0.006603019275029577,1.5525210995520537e-07,-0.031182013537165612,-8.733185746832515e-05,0.0,0.0007261371918375371,-0.035068730542888324,1.6275089230124103e-07,-0.12955971174070421,-0.0008490242183229773,0.0,0.0049371745902180774,-0.030218530031830143,1.2703244850294464e-06,0.12269267401923374,0.12255643084458337,0.1225785679214271,0.12271510424788179
0.6900000000000001,-0.00592652494639467,1.9999912190562388,1.6500000000000001,9.405124140825318e-05,-0.01355833284699875,-2.9105880455359894e-07,0.9999770204336601,4.702355354993742e-05,-0.006779114497831109,1.732660089237872e-07,-0.03251216855260159,-9.634251198328058e-05,0.0,0.0007767734328976106,-0.03536656221937941,1.7583535675733725e-07,-0.13301539626618908,-0.0009226887760883925,0.0,0.0051941848685689174,-0.029343935323966272,1.3480623697666809e-06,0.12269069394130079,0.12255840717365549,0.12258169528084437,0.12271429313980575
0.7000000000000001,-0.006265296722854745,1.9999901864901675,1.6500000000000001,0.00010207903534439336,-0.01391346576185673,-3.240623571302052e-07,0.9999758007289624,5.1037155398856624e-05,-0.006956676767111763,1.9303816915230557e-07,-0.033877168819860956,-0.00010612577812651947,0.0,0.0008300208892089155,-0.03565560924936765,1.8971213969657464e-07,-0.13649990765214196,-0.0010014480408666393,0.0,0.005459439650577514,-0.028461695888132993,1.4287976142994852e-06,0.12268869807125311,0.12256040256052962,0.12258487856319397,0.12271350379644388
0.71,-0.00661806976381104,1.999989050258176,1.6500000000000001,0.00011065262166301602,-0.014271445032419538,-3.6017418096528817e-07,0.9999745393097081,5.532361720128986e-05,-0.0071356619586488935,2.1470734602336377e-07,-0.03527729398331337,-0.00011673443543598467,0.0,0.0008859622259091609,-0.03593579613714207,2.0441130904332695e-07,-0.14001238192206278,-0.0010855623478492722,0.0,0.005732978782187459,-0.027572002213094998,1.5125465141189822e-06,0.12268668697952312,0.122562416717756,0.1225881176589823,0.12271273696994492
0.72,-0.0069851980291968,1.9999878017149237,1.6500000000000001,0.00011979935914983616,-0.014632181684500816,-3.996248359913082e-07,0.9999732357328963,5.989661464276884e-05,-0.0073160255754155705,2.384205173737989e-07,-0.03671281497603156,-0.0001282239234644072,0.0,0.0009446804648526646,-0.03620704929362955,2.1996306997895429e-07,-0.14355194780029995,-0.0011753001721737215,0.0,0.0060148336596825055,-0.026675045087712346,1.5993201300917498e-06,0.12268466124305641,0.12256444936243982,0.12259141242573734,0.1227119933802302
0.73,-0.007367038100632324,1.999986431641381,1.6500000000000001,0.00012954743883147575,-0.014995586017557173,-4.426568521862326e-07,0.999971889584004,6.4770239230945e-05,-0.007497722757136239,2.6433318541939227e-07,-0.03818399394875687,-0.00014065242333866323,0.0,0.001006258899102811,-0.036469297038896314,2.3639771164516195e-07,-0.14711772689683592,-0.0012709381604275234,0.0,0.006305027031397567,-0.025771015500192576,1.6891241024329e-06,0.12268262144513212,0.12256650021649382,0.1225947626873886,0.1227112737138966
0.74,-0.007763949092926262,1.999984930216846,1.6500000000000001,0.0001399258862790385,-0.015361567623788737,-4.895249957971597e-07,0.9999705004777986,6.995899943092165e-05,-0.007680708289852973,2.926096795111416e-07,-0.039691084200719574,-0.00015408093957189207,0.0,0.001070781005480616,-0.0367224696036334,2.537455520276123e-07,-0.15070883389217096,-0.0013727611536852769,0.0,0.006603572807357125,-0.02486010453790731,1.78195847312795e-06,0.12268056817517778,0.12256856900688642,0.12259816823367561,0.122710578623153
0.75,-0.008176292564904838,1.9999832869901422,1.6500000000000001,0.00015096456302795964,-0.015730035407249342,-5.404965188396355e-07,0.9999690680591216,7.547782135842416e-05,-0.00786493661549714,3.2342345917173315e-07,-0.04123433011231405,-0.00016857338204237044,0.0,0.0011383303552499535,-0.03696649912965446,2.7203688110772095e-07,-0.15432437672220756,-0.0014810622018904805,0.0,0.006910475877079322,-0.023942503288665665,1.8778175174278998e-06,0.12267850202858373,0.1225706554658806,0.12260162881958439,0.12270990872479141
0.76,-0.008604432429587635,1.999981490849994,1.6500000000000001,0.00016269416709583113,-0.01610089760295685,-5.958513902255357e-07,0.9999675920036435,8.134204902170032e-05,-0.008050361841461726,3.5695741684355597e-07,-0.042813967079628194,-0.00018419664805131982,0.0,0.0012089905230222024,-0.037201319669406714,2.913019023761703e-07,-0.15796345676304563,-0.0015961425694023012,0.0,0.007225731935773204,-0.023018402741858263,1.9766895849523738e-06,0.12267642360650968,0.12257275933126947,0.12260514416481709,0.12270926459919233
0.77,-0.009048734863728489,1.9999795299945862,1.6500000000000001,0.00017514623258072938,-0.016474061795993374,-6.558825068454011e-07,0.99996607201859,8.756744410346167e-05,-0.008236937750169149,3.9340417976324305e-07,-0.044430221450825334,-0.00020102070437008369,0.0,0.0012828449939654176,-0.037426867184491626,3.115706728067684e-07,-0.16162516901559212,-0.0017183117315354053,0.0,0.007549327319162117,-0.022087993691043487,2.0785569509426297e-06,0.12267433351569061,0.12257488034660394,0.12260871395329113,0.12270864678936666
0.78,-0.009509568216740108,1.9999773919003012,1.6500000000000001,0.0001883531283234334,-0.01684943494058581,-7.20895882907407e-07,0.9999645078434372,9.417018527461005e-05,-0.008424617808629778,4.3296641036235666e-07,-0.0460833104643759,-0.00021911866918545734,0.0,0.0013599770694054448,-0.037643079543227584,3.328730413950229e-07,-0.1653086022898954,-0.001847887361929337,0.0,0.007881238847143443,-0.0211514666382185,2.183395678213824e-06,0.12267223236823951,0.12257701826141205,0.12261233783266907,0.12270805580003774
0.79,-0.009987302919020885,1.9999750632896411,1.6500000000000001,0.0002023480556177967,-0.017226923379157127,-7.912108158146283e-07,0.9999628992505754,0.00010116686703193583,-0.0086133551779863,4.758571045795099e-07,-0.0477734421891356,-0.00023856689385038133,0.0,0.0014404697709082864,-0.037849896517255996,3.552385863710449e-07,-0.1690128393891139,-0.001985195310592447,0.0,0.008221433676485812,-0.020209011698942014,2.2911754903321987e-06,0.12267012078144683,0.12257917283141191,0.12261601541392073,0.12270749209676116
0.8,-0.010482311389702452,1.9999725300983335,1.6500000000000001,0.00021716504495443342,-0.017606432861338835,-8.67160026845074e-07,0.999961246045942,0.00010857449805242646,-0.008803102723039158,5.22299887455996e-07,-0.0495008154662655,-0.00025944504434572514,0.0,0.001524405742935161,-0.038047259777206424,3.7869655120166685e-07,-0.1727369572930306,-0.002130569572474118,0.0,0.008569869162767758,-0.019260818509249378,2.4018596564673047e-06,0.12266799937757807,0.12258134381871617,0.12261974627091846,0.12270695610508583
0.81,-0.010994967943836356,1.9999697774416278,1.6500000000000001,0.00023283895178379706,-0.017987868562935293,-9.490897748852743e-07,0.9999595480696196,0.00011641049905728739,-0.008993813021748355,5.725293053749245e-07,-0.05126561985298882,-0.0002818361823574927,0.0,0.0016118671541636416,-0.03823511288744098,4.03275779500391e-07,-0.17648002734102702,-0.0022843522464279565,0.0,0.008926492731741429,-0.018307076134694428,2.515404888390043e-06,0.12266586878367043,0.12258353099202675,0.12262352994006334,0.12270644820975811
0.8200000000000001,-0.011525648699038287,1.9999667895797837,1.6500000000000001,0.00024940545128566705,-0.0183711351048308,-1.0373599414580753e-06,0.9999578051964004,0.00012469270017924933,-0.00918543837470705,6.267911142929743e-07,-0.05306803556817822,-0.00030582684587247784,0.0,0.0017029355975699896,-0.03841340129990031,4.290046489694677e-07,-0.18024111541443147,-0.00244689348443774,0.0,0.009291241760291644,-0.017347972981058418,2.6317612500976796e-06,0.12266372963132662,0.12258573412682243,0.1226273659199451,0.12270596875396858
0.8300000000000001,-0.012074731481608115,1.999963549882759,1.6500000000000001,0.00026690103213301196,-0.018756136571830662,-1.1323440852787898e-06,0.9999560173363177,0.0001334393378272165,-0.009377930814582488,6.85342563304245e-07,-0.054908233439766835,-0.0003315071291941827,0.0,0.0017976919893694745,-0.03858207234706215,4.559110045023446e-07,-0.18401928211816074,-0.002618551430987189,0.0,0.009664043467167966,-0.01638369670758956,2.7508720804680905e-06,0.12266158255651008,0.1225879530055354,0.12263125367103529,0.12270551803864405
0.84,-0.012642595732144003,1.9999600407941038,1.6500000000000001,0.0002853629892391663,-0.019142776531427194,-1.2344294645710263e-06,0.999954184435141,0.000142669051042799,-0.009571242115519744,7.484526728673291e-07,-0.056786374853975,-0.0003589707622796973,0.0,0.001896216466913349,-0.038741075234052104,4.840220905788295e-07,-0.18781358296157302,-0.00279969215246408,0.0,0.01004481481364063,-0.015414434142733274,2.8726739293164822e-06,0.12265942819933803,0.12259018741771796,0.12263519261541267,0.12270509632178575
0.85,-0.013229622410668728,1.9999562437940663,1.6500000000000001,0.0003048294154782495,-0.019530958052482606,-1.3440170253746848e-06,0.999952306474833,0.0001524008773437713,-0.009765323802504229,8.164025070196999e-07,-0.05870261170634434,-0.0003883151892972138,0.0,0.001998588285642287,-0.03889036102991682,5.133644830886742e-07,-0.19162306853845792,-0.0029906895564988426,0.0,0.010433462414221543,-0.01444037120203398,2.9970965071983563e-06,0.12265726720387479,0.12259243716020063,0.12263918213652403,0.12270470381785374
0.86,-0.013836193901286256,1.9999521393619213,1.6500000000000001,0.00032533919236975165,-0.019920583723820277,-1.4615213540833168e-06,0.9999503834739738,0.00016265424805000044,-0.009960127160678595,8.894854388978454e-07,-0.06065708635456983,-0.00041964164630292465,0.0,0.00210488571519778,-0.039029882658092784,5.439640207227966e-07,-0.195446784706085,-0.003191925301147503,0.0,0.01082988245759693,-0.013461692809537545,3.1240626493922277e-06,0.12265510021792647,0.1225947020372373,0.12264322157897696,0.12270434069720053
0.87,-0.014462693916386545,1.999947706937529,1.6500000000000001,0.0003469319797192298,-0.02031155567271677,-1.5873705924571234e-06,0.9999484154881448,0.00017344898308790179,-0.010155603244610257,9.68007408877304e-07,-0.06264993157311978,-0.00045305523793522643,0.0,0.0022151859347942257,-0.03915959488610757,5.758457360765188e-07,-0.19928377276324366,-0.003403788693838769,0.0,0.011233960637891163,-0.012478582821942238,3.253488294281312e-06,0.12265292789283637,0.1225969818606405,0.12264731024836713,0.12270400708555396
0.88,-0.01510950740041642,1.999942924882137,1.6500000000000001,0.00036964820420808114,-0.020703775583286697,-1.7220063133704508e-06,0.999946402610274,0.00018480528526999316,-0.010351702887505514,1.0522871746439286e-06,-0.06468127050963306,-0.0004886650130234254,0.0,0.002329564927955603,-0.03927945431453163,6.090337866084229e-07,-0.2031330696272019,-0.0036266765800150235,0.0,0.011645572096378119,-0.01149122395582465,3.3852824763780384e-06,0.12265075088328156,0.12259927644990531,0.12265144741114013,0.12270370306354939
0.89,-0.01577702043323423,1.9999377704384327,1.6500000000000001,0.00039352904692640964,-0.021097144714753557,-1.8658833555697538e-06,0.9999443449709456,0.00019674373404664748,-0.010548376710366764,1.1426565525063163e-06,-0.06675121664308217,-0.000526584039007514,0.0,0.002448097376721788,-0.03938941936522406,6.435513856040796e-07,-0.20699370800952252,-0.003860993221407183,0.0,0.012064581373742136,-0.010499797718581741,3.519347334375269e-06,0.12264856984707133,0.12260158563232101,0.12265563229448677,0.1227034286663143
0.9,-0.016465620133065923,1.9999322196898657,1.6500000000000001,0.00041861642984403837,-0.021491563919599214,-2.0194696157387422e-06,0.9999422427386683,0.00020928527872766486,-0.010745575131089135,1.2394606492594522e-06,-0.06885987374369007,-0.0005669294750650625,0.0,0.002570856555430446,-0.03948945026890326,6.794207332959283e-07,-0.21086471659067166,-0.004107150163893557,0.0,0.012490842372989119,-0.009504484342980415,3.6555781343025685e-06,0.12264638544494877,0.12260390924307026,0.12265986408627216,0.12270318388310471
0.91,-0.01717569455908007,1.9999262475192463,1.6500000000000001,0.0004449530012157932,-0.021886933661585752,-2.1832457961926486e-06,0.9999400961201035,0.00022245123117182466,-0.01094324837349335,1.343058083911218e-06,-0.07100733583458822,-0.0006098226438408556,0.0,0.0026979142241815705,-0.03957950905208367,7.166629482901309e-07,-0.2147451201933646,-0.00436556609490325,0.0,0.012924198333092406,-0.0085054627256307,3.793863307991835e-06,0.12264419834039517,0.12260624712531573,0.12266414193499889,0.1227029686569954
0.92,-0.01790763261359906,1.9999198275666392,1.6500000000000001,0.0004725821199182461,-0.022283154033643403,-2.3577051065526864e-06,0.9999379053602551,0.00023626325794311105,-0.01114134647629161,1.453821198586563e-06,-0.07319368715520266,-0.0006553891016745767,0.0,0.002829340522092294,-0.03965955952341588,7.55297999455765e-07,-0.2186339399545935,-0.004636666690335028,0.0,0.013364481813428886,-0.0075029103690862214,3.934084507073363e-06,0.12264200919943666,0.12260859913027489,0.1226684649498051,0.12270278288462247
0.93,-0.018661823943963905,1.99991293218657,1.6500000000000001,0.0005015478387161857,-0.022680124775618888,-2.5433529177852024e-06,0.9999356707426175,0.000250743371932849,-0.011339819301983628,1.5721362579288107e-06,-0.0754190021263545,-0.0007037587072216435,0.0,0.0029652038604501482,-0.039729567259465394,7.953446384315982e-07,-0.22253019349628728,-0.004920884450973138,0.0,0.013811514689088776,-0.006497003328345685,4.0761166725143685e-06,0.12263981869045604,0.1226109651172798,0.1226728322004963,0.12270262641598151
0.9400000000000001,-0.019438658844069468,1.9999055324045543,1.6500000000000001,0.0005318948864581593,-0.02307774529187854,-2.740706367027459e-06,0.9999333925892826,0.00026591392344752683,-0.011538616545679968,1.6984036363237984e-06,-0.07768334531706038,-0.0007550656883621807,0.0,0.0031055708158740695,-0.03978949958998279,8.368203329060523e-07,-0.22643289509455752,-0.005218658528392046,0.0,0.014265108157113475,-0.005487916162154674,4.2198281198086495e-06,0.12263762748400835,0.12261334495382437,0.12267724271760931,0.12270249905428246
0.9500000000000001,-0.020238528155587295,1.999897597872975,1.6500000000000001,0.0005636686492015355,-0.0234759146687618,-2.9502939116639645e-06,0.9999310712610074,0.0002817975907626367,-0.011737687743850374,1.8330379922803707e-06,-0.07998677141301884,-0.0008094487072931257,0.0,0.0032505060235924177,-0.03983932558270849,8.797412008277712e-07,-0.2303410558474899,-0.005530434540352852,0.0,0.014725062753675544,-0.004475821888245621,4.365080639899207e-06,0.12263543625264191,0.12261573851559719,0.12268169549251225,0.12270240055585832
0.96,-0.02106182316889269,1.999889096826322,1.6500000000000001,0.000596915150268609,-0.02387453169188004,-3.1726548311629576e-06,0.9999287071572364,0.00029841737014340105,-0.011936982282994616,1.9764684293100714e-06,-0.08232932518676711,-0.0008670509236985653,0.0,0.0034000720709475804,-0.0398790160277477,9.241219457040365e-07,-0.23425368384144318,-0.005856664375704668,0.0,0.015191168382256108,-0.003460891943457209,4.5117296157574235e-06,0.12263324567072269,0.12261814568650094,0.12268618947753691,0.12270233063013163
0.97,-0.021908935523712657,1.9998799960358167,1.6500000000000001,0.0006316810292363867,-0.02427349486325728,-3.408338675232931e-06,0.9999263007160867,0.00031579656533381424,-0.012136449408233968,2.1291386426598673e-06,-0.08471104146949329,-0.0009280200558936133,0.0,0.00355432939123754,-0.03990854342157763,9.699757931429197e-07,-0.23816978431582395,-0.006197805988815095,0.0,0.01566320435284229,-0.002443296149107557,4.65962415460575e-06,0.12263105641426768,0.12262056635865556,0.12269072358614448,0.12270228893963844
0.98,-0.022780257109511304,1.9998702607634387,1.6500000000000001,0.0006680135198637781,-0.024672702418308833,-3.657904656913357e-06,0.9999238524142865,0.0003339587765159705,-0.012336038231821394,2.2915070512641793e-06,-0.08713194512448823,-0.0009925084398374685,0.0,0.003713336158004426,-0.039927881950729854,1.0173144287961515e-06,-0.24208835982630983,-0.006554323183564607,0.0,0.016140939432134592,-0.001423202680921401,4.808607235803563e-06,0.12262886916078071,0.1226230004323886,0.12269529669312447,0.12270227510010945
0.99,-0.023676179965628874,1.9998598547153836,1.6500000000000001,0.0007059604269610294,-0.025072052342655336,-3.921920989272269e-06,0.9999213627670758,0.0003529278887422082,-0.012535697741569032,2.4640469142966265e-06,-0.08959205102222141,-0.0010606730859117142,0.0,0.0038771481798802318,-0.03993700747519606,1.066147937858991e-06,-0.24600841040649868,-0.006926685386950527,0.0,0.016624131904782628,-0.00040077804425581176,4.9585158741098846e-06,0.12262668458909712,0.12262544781620958,0.12269990763482738,0.12270228868060895
1.0,-0.02459709618119063,1.999848739994966,1.6500000000000001,0.0007455701022073278,-0.025471442388769312,-4.200964164445837e-06,0.9999188323280612,0.0003727280598431445,-0.012735376809191538,2.647246431717461e-06,-0.09209136401702445,-0.001132675733360459,0.0,0.004045818796100079,-0.03993589751161497,1.1164847462783492e-06,-0.24992893372796562,-0.007315367412356928,0.0,0.017112529645630897,0.0006238129451555802,5.109181298329236e-06,0.12262450337923511,0.12262790842676896,0.12270455520942858,0.12270232920373292
1.01,-0.0255433977948016,1.9998368770550004,1.6500000000000001,0.0007868914189236184,-0.02587077009245261,-4.495618173822065e-06,0.9999162616890308,0.00039338370781523234,-0.0129350241985644,2.841608828229844e-06,-0.09462987892536655,-0.0012086829022895712,0.0,0.00421939877279285,-0.03992453121629295,1.1683315638255756e-06,-0.2538489252587167,-0.007720849212557765,0.0,0.01760587020295792,0.0016504071751466398,5.260429145133953e-06,0.12262232621225382,0.12263038218880158,0.12270923817722583,0.12270239614586545
1.02,-0.026515476694042958,1.9998242246496785,1.6500000000000001,0.000829973745808764,-0.02626993278914312,-4.80647366824126e-06,0.999913651479725,0.00041491949769201393,-0.013134588573896395,3.047652420076807e-06,-0.09720758050570505,-0.0012888659431229985,0.0,0.004397936200159237,-0.03990288936811204,1.2216933291810282e-06,-0.25776737842003145,-0.00814361562253115,0.0,0.01810388089268219,0.0026788432455890354,5.412079667678238e-06,0.12262015377011917,0.12263286903505514,0.12271395526096804,0.12270248893749387
1.03,-0.02751372451478573,1.999810739785974,1.6500000000000001,0.0008748669196482916,-0.026668827630050188,-5.134127057161109e-06,0.9999110023675659,0.0004373603279038021,-0.013334018507815756,3.2659106641309107e-06,-0.09982444343989534,-0.0013734010834150405,0.0,0.004581476390646494,-0.03987095435138117,1.2765731571791404e-06,-0.2616832847416933,-0.008584156092173605,0.0,0.018606278903482647,0.003708961471105693,5.563947958990562e-06,0.12261798673557811,0.12263536890620186,0.12271870514621623,0.122702606963583
1.04,-0.028538532540337308,1.9997963776745982,1.6500000000000001,0.0009216212170060483,-0.02706735159811821,-5.479179545812781e-06,0.9999083150573455,0.00046073131613105707,-0.013533262489369863,3.496932188750281e-06,-0.10248043231614351,-0.0014624694719183988,0.0,0.00477006177822889,-0.039828710138689924,1.3329722883608395e-06,-0.2655956340156119,-0.009042964409013756,0.0,0.019112771412803202,0.004740603877707514,5.7158441897771465e-06,0.12261582579204156,0.12263788175073431,0.12272348648173534,0.12270274956400935
1.05,-0.029590291600436094,1.9997810916805372,1.6500000000000001,0.0009702873249101874,-0.027465401523818864,-5.842236109457587e-06,0.999905590290868,0.00048505778465727736,-0.013732268931938527,3.7412808058978056e-06,-0.10517550161348543,-0.0015562572198089056,0.0,0.004963731818902558,-0.03977614227382702,1.3908900409746833e-06,-0.26950341444784653,-0.009520538411035694,0.0,0.019623055713666918,0.005773614194085064,5.867573860081555e-06,0.1226136716234751,0.12264040752484555,0.12272829787991753,0.12270291603405319
1.06,-0.030669391970109473,1.9997648332731985,1.6500000000000001,0.0010209163105460008,-0.027862874100773018,-6.223904403940427e-06,0.999902828846555,0.0005103652452277616,-0.013930986181061374,3.999535504044824e-06,-0.10790959568777678,-0.0016549554389690226,0.0,0.0051625228925022285,-0.03971323785480822,1.4503237655624706e-06,-0.2734056128090464,-0.010017379689732906,0.0,0.020136819352242416,0.006807837836705563,6.01893806465774e-06,0.12261152491429923,0.1226429461922925,0.1227331379172361,0.12270310562495006
1.07,-0.031776223268410106,1.9997475519761978,1.6500000000000001,0.001073559589969174,-0.028259665901203452,-6.624793611826731e-06,0.9999000315390053,0.0005366793834211336,-0.014129362522179851,4.272290421406517e-06,-0.11068264875917734,-0.0017587602772334817,0.0,0.005366468205947406,-0.039639985517092906,1.5112688022678381e-06,-0.2773012145833284,-0.010533993283524255,0.0,0.02065374027607554,0.007843121888709975,6.169733771807192e-06,0.12260938634929888,0.12264549772424282,0.12273800513472914,0.12270331754450184
1.08,-0.03291117435704537,1.999729195316816,1.6500000000000001,0.0011282688958541278,-0.028655673391221038,-7.0455132235044834e-06,0.9998971992185142,0.0005640260425410588,-0.014327346188295079,4.560154799083485e-06,-0.11349458490111462,-0.0018678729505018303,0.0,0.005575597698023739,-0.03955637541703402,1.5737184409986144e-06,-0.28118920411562015,-0.011070887361674036,0.0,0.021173486992912428,0.008879315073040406,6.319754114767761e-06,0.12260725661354181,0.12264806209910557,0.12274289803851342,0.12270355095774546
1.09,-0.03407463323891462,1.9997097087751596,1.6500000000000001,0.0011850962442931745,-0.029050792945946535,-7.48667175273048e-06,0.9998943327705525,0.0005924312070361068,-0.014524885367542623,4.863752913712566e-06,-0.11634531803071096,-0.0019824997716241534,0.0,0.0057899379458056545,-0.0394623992156321,1.6376638845631933e-06,-0.28506856475749875,-0.011628572898868638,0.0,0.021695718740029953,0.009916267718867652,6.468788695555554e-06,0.12260513639230848,0.12265063930234435,0.12274781510032659,0.12270380498768199
1.1,-0.03526698695656894,1.9996890357330575,1.6500000000000001,0.0012440939006632648,-0.0294449208644719,-7.948875386202757e-06,0.9998914331152039,0.0006219209854562433,-0.014721928210686047,5.183723989259685e-06,-0.11923475190065962,-0.0021028521759678424,0.0,0.006009512072824338,-0.03935805006265667,1.7030942149097255e-06,-0.2889382790115676,-0.012207563340612813,0.0,0.022220085663930602,0.010953831722474577,6.616623900693077e-06,0.1226030263710292,0.12265322932627476,0.12275275475809948,0.12270407871606166
1.11,-0.036488621490607595,1.9996671174227263,1.6500000000000001,0.0013053143445781589,-0.02983795338466463,-8.432726566845669e-06,0.999888501206561,0.0006525215929549454,-0.014918422838530968,5.5207220876186565e-06,-0.12216278009253484,-0.0022291467435749794,0.0,0.0062343396590842665,-0.039243322581182606,1.7699963625770549e-06,-0.29279732867441177,-0.01280837425961864,0.0,0.022746229010322215,0.011991860501867069,6.763043228065024e-06,0.12260092723523264,0.12265583216984566,0.12275771541655674,0.12270437118422721
1.12,-0.037739921658025526,1.9996438928752405,1.6500000000000001,0.001368810233944888,-0.03022978669782009,-8.938822510604005e-06,0.9998855380320839,0.0006842593333464592,-0.015114317349261995,5.875415977711899e-06,-0.12512928601152223,-0.0023616052178217274,0.0,0.006464436653030783,-0.03911821285261933,1.838355079471026e-06,-0.2966446949781855,-0.013431523003370823,0.0,0.0232737813242667,0.013030208944733376,6.907827624799375e-06,0.12259883967050507,0.12265844783840181,0.12276269544784453,0.12270468139401498
