t,x,y,z,roll,pitch,yaw,qw,qx,qy,qz,vx,vy,vz,wx,wy,wz,ax,ay,az,wx_dot,wy_dot,wz_dot,m1,m2,m3,m4
0.0,2.0,0.0,1.6500000000000001,0.0,0.0,0.0,1.0,0.0,0.0,0.0,-0.0,0.0,0.0,-0.0001257568994284691,-1.5514316596547915e-13,0.0,-0.0,0.0,0.0,-0.012574138510978465,-1.745169225515715e-10,1.295779718005421e-15,0.12265337635765554,0.12265337635686804,0.12259662364234429,0.12259662364313217
0.01,2.0,1.2336751833940135e-09,1.6500000000000001,-1.257568994284774e-06,-1.5514316596419115e-15,1.0973473886135397e-20,0.9999999999998024,-6.287844971423456e-07,-7.757158298242524e-16,4.998978855087286e-21,-7.609772290611265e-17,1.2336751833940136e-07,0.0,-0.00025149828453825375,-1.9003123914811942e-12,1.295779718005421e-17,-1.521954458122253e-14,1.2336751833940137e-05,0.0,-0.018858880809465132,-7.173515063243837e-10,5.63166415644969e-15,0.12266755928630901,0.12266755928307191,0.12258244071388429,0.12258244071712265
0.02,2.0,7.401746709472458e-09,1.6500000000000001,-5.029965690767396e-06,-3.800624782865385e-14,3.747369203285854e-19,0.9999999999968374,-2.5149828453810462e-06,-1.9003123914738055e-14,1.395759295105176e-19,-2.282725156097094e-15,6.168071526078444e-07,0.0,-0.0005029345156177717,-1.4502173292453154e-11,1.126332831289938e-16,-3.7284129121758534e-13,4.9343963426844296e-05,0.0,-0.025137418525233338,-3.1052397350300648e-09,2.787673665601628e-14,0.12268172821845322,0.12268172820444105,0.12256827178464606,0.12256827179866456
0.03,1.9999999999999998,2.467106861585117e-08,1.6500000000000001,-1.1316259306652795e-05,-2.9159489748289684e-13,4.4508531591507276e-18,0.9999999999839928,-5.6581296532962065e-06,-1.4579744875170636e-13,1.400485711440818e-18,-2.1302631285074554e-14,1.7269321906378709e-06,0.0,-0.0007542466550429206,-6.400510709208249e-11,5.704925303003798e-16,-2.8605459448013185e-12,0.00011101250380300259,0.0,-0.02512190897614363,-9.494988041422854e-09,9.829419825060992e-14,0.12268169323840125,0.12268169319555744,0.12256830677729051,0.12256830682015696
0.04,1.9999999999999991,6.167310623951422e-08,1.6500000000000001,-2.011489879166454e-05,-1.3181083893708689e-12,2.9989450017752374e-17,0.9999999999494239,-1.0057449395662714e-05,-6.590541948029107e-13,8.366320796069811e-18,-1.1410152987213388e-13,3.700203762366303e-06,0.0,-0.0010053726951406443,-2.0440193412091024e-10,2.0785172481411923e-15,-1.2930643305645954e-11,0.0001973271571728426,0.0,-0.0251002009484877,-2.321661102373741e-08,2.749291023223497e-13,0.12268164429729105,0.12268164419253577,0.12256835575229245,0.12256835585711112
0.05,1.9999999999999958,1.2950180653189728e-07,1.6500000000000001,-3.142371320955432e-05,-4.379633577781154e-12,1.4104683148811828e-16,0.9999999998765688,-1.5711856604130716e-05,-2.1898167897283388e-12,3.611732835898761e-17,-4.3919696112871443e-13,6.782870029238276e-06,0.0,-0.0012562506740126747,-5.283373275668307e-10,6.069074576747374e-15,-4.296420544151315e-11,0.00030826662668719386,0.0,-0.025072299781808898,-4.8671510503419073e-08,6.524348688438682e-13,0.12268158142522327,0.12268158120562227,0.12256841869578745,0.12256841891553907
0.06,1.9999999999999853,2.417108607934785e-07,1.6500000000000001,-4.5239912272088185e-05,-1.1884854929928441e-11,5.179530606449315e-16,0.9999999997441689,-2.2619956134115128e-05,-5.942427469301999e-12,1.2455908166855982e-16,-1.3561073547194807e-12,1.1220905426157993e-05,0.0,-0.0015068186907768223,-1.1778321441892917e-09,1.5127214625018557e-14,-1.165904270924674e-10,0.0004438035396919552,0.0,-0.025038212339047714,-9.13298923754843e-08,1.3712669492765331e-12,0.12268150466044984,0.12268150424839541,0.12256849559036238,0.12256849600273323
0.07,1.9999999999999571,4.1431036050325535e-07,1.6500000000000001,-6.156008702538177e-05,-2.7936276418355857e-11,1.5884257666064727e-15,0.9999999995262945,-3.078004350783066e-05,-1.396813822700705e-11,3.642729811251248e-16,-3.575488047372232e-12,1.7259949970977155e-05,0.0,-0.001757014920793629,-2.3549351750765165e-09,3.349441356227804e-14,-2.7405487262332833e-10,0.0006039044544818562,0.0,-0.024997947004893672,-1.5772271640193727e-07,2.6267366442692473e-12,0.12268141404933844,0.12268141333776825,0.12256858641506371,0.12256858712723998
0.08,1.9999999999998892,6.657628470682261e-07,1.6500000000000001,-8.038021068841962e-05,-5.89835582865902e-11,4.24841745549303e-15,0.9999999991923777,-4.019010533339034e-05,-2.9491779204849055e-11,9.389310157928426e-16,-8.370386167895696e-12,2.5145248656495236e-05,0.0,-0.0020067776308746958,-4.332286472228037e-09,6.76619475104035e-14,-5.786287101414538e-10,0.0007885298685516213,0.0,-0.024951513683762645,-2.554320665294955e-07,4.677867053231991e-12,0.12268130964632981,0.12268130849399021,0.12256869114540803,0.12256869229882697
0.09,1.9999999999997415,1.0169787564675323e-06,1.6500000000000001,-0.00010169563964355696,-1.1458200544029652e-10,1.0206662226477788e-14,0.9999999987072496,-5.08478197998673e-05,-5.7291002905578555e-11,2.190208524173755e-15,-1.785895593963472e-11,3.512159093992508e-05,0.0,-0.002256045194468882,-7.463576505666428e-09,1.2705175462691786e-13,-1.1240494835518244e-09,0.0009976342283424726,0.0,-0.024898923797390796,-3.930799525088161e-07,7.856018654140792e-12,0.1226811915138883,0.12268118974064905,0.12256880975339335,0.12256881152844554
0.1,1.999999999999444,1.4913112599152099e-06,1.6500000000000001,-0.0001255011145787629,-2.0825508729668696e-10,2.2492129971324447e-14,0.9999999980311838,-6.275055724820001e-05,-1.0412754414903234e-10,4.712003574700964e-15,-3.536887016680257e-11,4.7433250344752766e-05,0.0,-0.0025047561068225117,-1.2193885522404359e-08,2.2478232059321933e-13,-2.0429824340720437e-09,0.0012311659404815028,0.0,-0.024840190282043786,-5.803155553565626e-07,1.2573252622930991e-11,0.12268105972244533,0.12268105710467232,0.12256894220751262,0.12256894482818718
0.11,1.9999999999988822,2.1145505018145035e-06,1.6500000000000001,-0.0001517907617813264,-3.5845971325819234e-10,4.616868021887147e-14,0.9999999971199456,-7.589538081780225e-05,-1.7922985786489922e-10,9.481621820166227e-15,-6.589354258557701e-11,6.232392418989226e-05,0.0,-0.0027528490001097576,-1.906988761279768e-08,3.785168070855377e-13,-3.5164898558111432e-09,0.0014890673845110657,0.0,-0.024775327585334937,-8.278009309530541e-07,1.933040069799137e-11,0.12268091435033454,0.12268091061632891,0.1225690884727684,0.12256909221123494
0.12,1.999999999997876,2.91491723642538e-06,1.6500000000000001,-0.00018055809458270708,-5.896528337373904e-10,8.930611257332502e-14,0.9999999959248468,-9.027904716871989e-05,-2.948264196984678e-10,1.8036408109620854e-14,-1.16650139509433e-10,8.003667346100288e-05,0.0,-0.0030002626585292104,-2.874990414146544e-08,6.113903345530468e-13,-5.784494457149478e-09,0.0017712749271049343,0.0,-0.024704351662640914,-1.1471951878050862e-06,2.8724811174926457e-11,0.12268075548372126,0.12268075030923047,0.12256924851068962,0.12256925369180934
0.13,1.9999999999961524,3.9230558648152164e-06,1.6500000000000001,-0.00021179601495417263,-9.334577840224513e-10,1.642615154954226e-13,0.9999999943928061,-0.0001058980072791561,-4.667288980916698e-10,3.270509768359097e-14,-1.9774920793412036e-10,0.00010081386283880136,0.0,-0.003246936033362576,-4.20137913688994e-08,9.530130305840668e-13,-9.157221202549508e-09,0.002077718937767562,0.0,-0.024627279973109716,-1.5511371567240996e-06,4.145774147804803e-11,0.12268058321652449,0.12268057622033188,0.12256942227934942,0.12256942928510912
0.14,1.9999999999933125,5.172026873810518e-06,1.6500000000000001,-0.00024549681525282347,-1.4299286374078351e-09,2.893292998665397e-13,0.9999999924664141,-0.00012274840731816652,-7.14964331075028e-10,5.690391743320241e-14,-3.2298558116113767e-10,0.00012489710089915926,0.0,-0.0034928082579914047,-5.977264727594743e-08,1.4405451641140075e-12,-1.4027600629769506e-08,0.0024083238060123692,0.0,-0.02454413147525479,-2.053226571872349e-06,5.834136869594318e-11,0.12268039765033116,0.12268038838993253,0.12256960973338493,0.12256961900724705
0.15,1.9999999999887865,6.697298678815043e-06,1.6500000000000001,-0.00028165218011756476,-2.1289106850938344e-09,4.908225488634351e-13,0.9999999900840061,-0.00014082608959330552,-1.0644553665520948e-09,9.550818856063602e-14,-5.107600422364392e-10,0.00015252718049973241,0.0,-0.0037378186628676717,-8.307832280634638e-08,2.1198404045029303e-12,-2.088461517691713e-08,0.0027630079600145644,0.0,-0.024454926622118782,-2.668003784312368e-06,8.030539048668937e-11,0.1226801988943051,0.12268018686167607,0.12256981082401912,0.12256982287518017
0.16,1.999999999981781,8.536738872506641e-06,1.6500000000000001,-0.00032025318851454284,-3.0914950135489384e-09,8.056523023458212e-13,0.999999987179737,-0.00016012659357298305,-1.5457475514607588e-09,1.5531086322484606e-13,-7.851410302869509e-10,0.0001839440193678195,0.0,-0.00398190679043378,-1.1313272296219479e-07,3.046652973847795e-12,-3.032756861401994e-08,0.0031416838867335695,0.0,-0.024359687356008016,-3.410928030856218e-06,1.084031898514632e-10,0.12267998706508751,0.12267997168255085,0.12257002549908311,0.12257004090663585
0.17,1.9999999999712135,1.0730604881571638e-05,1.6500000000000001,-0.0003612903159315165,-4.391565005496998e-09,1.2844751041499671e-12,0.9999999836836635,-0.0001806451569832692,-2.1957825829384764e-09,2.4558006668590123e-13,-1.1770754653911454e-09,0.0002193866009040932,0.0,-0.004225012409987832,-1.5129688342347074e-07,4.2879042015321945e-12,-4.3081257256436915e-08,0.0035442581534996685,0.0,-0.024258437102783574,-4.298354282648889e-06,1.4381753844075441e-10,0.12267976228669128,0.12267974290288916,0.12257025370304145,0.12257027312003224
0.18,1.9999999999556342,1.3321534033781364e-05,1.6500000000000001,-0.0004047534367205999,-6.117432448600577e-09,1.995482557111325e-12,0.999999979521832,-0.00020237671697886513,-3.058716363582988e-09,3.7872831047986675e-13,-1.725757544177468e-09,0.0002590929152167911,0.0,-0.004467075532489452,-1.9909980861517257e-07,5.923003742662883e-12,-6.001202024409743e-08,0.003970631431059108,0.0,-0.0241512007656854,-5.347508699533022e-06,1.8786581429239417e-10,0.12267952469038941,0.12267950057636641,0.12257049537701796,0.12257051953439468
0.19,1.9999999999331324,1.635453303786083e-05,1.6500000000000001,-0.00045063182658875014,-8.373560796423824e-09,3.0289097368734286e-12,0.9999999746163697,-0.00022531591138792977,-4.186780633167005e-09,5.711065887901151e-13,-2.4801641211577245e-09,0.00030329990040088887,0.0,-0.00470803642530154,-2.582470574141312e-07,8.045220487380078e-12,-8.21446448028145e-08,0.004420698518071316,0.0,-0.02403800471870209,-6.576462717828614e-06,2.420047112023223e-10,0.12267927441459556,0.1226792447599998,0.12257075045882442,0.12257078016926728
0.2,1.9999999999012266,1.987696687874398e-05,1.6500000000000001,-0.000498914165235344,-1.1282372989531559e-08,4.502342096037595e-12,0.9999999688855821,-0.0002494570800304347,-5.641186880814102e-09,8.439370670835261e-13,-3.5007650401392115e-09,0.00035224338407671257,0.0,-0.004947835626863494,-3.3062906297174487e-07,1.076309796670933e-11,-1.1068010106333528e-07,0.0048943483670515365,0.0,-0.023918876799462318,-8.004105800719466e-06,3.0783441829405125e-10,0.1226790116047386,0.12267897551414653,0.12257101888298934,0.12257105504462007
0.21,1.9999999998567366,2.3938547130954028e-05,1.6500000000000001,-0.0005495885391361317,-1.498614111077173e-08,6.566902930366039e-12,0.9999999622440549,-0.0002747942661096934,-7.49307117475154e-09,1.2243985170377948e-12,-4.861416516202311e-09,0.00040615802520237664,0.0,-0.0051864139612907865,-4.183291734285205e-07,1.4201908853261103e-11,-1.4701407970189215e-07,0.005391464111751662,0.0,-0.023793846301633493,-9.6501168819661e-06,3.8710224977826786e-10,0.12267873641313125,0.12267869290250086,0.12257130058079017,0.12257134418075177
0.22,1.9999999997956341,2.8591319692990245e-05,1.6500000000000001,-0.000602642444472804,-1.964895501804883e-08,9.414405564951254e-12,0.9999999546027608,-0.00030132121767668474,-9.824478481400336e-09,1.746879042725176e-12,-6.651445391977441e-09,0.0004652772561743527,0.0,-0.0054237125528961636,-5.236314006110669e-07,1.8505142962274687e-11,-1.9275630438430078e-07,0.005911923095971528,0.0,-0.02366294396682388,-1.1534934535161831e-05,4.817057063762949e-10,0.12267844899883143,0.12267839699209145,0.12257159548028584,0.1225716475981888
0.23,1.9999999997128728,3.388965194574514e-05,1.6500000000000001,-0.0006580627902073699,-2.5458766970376265e-08,1.328555613791441e-11,0.999999945869171,-0.0003290313891667707,-1.2729384981818547e-08,2.454410978010119e-12,-8.977931802619444e-09,0.0005298332252303999,0.0,-0.005659672840627264,-6.490278641317572e-07,2.3836022980787002e-11,-2.4975058974558634e-07,0.006455596903792498,0.0,-0.02352620197596496,-1.3679725902212165e-05,5.936949514165799e-10,0.12267814952749827,0.12267808785327698,0.12257190350635179,0.12257196531757966
0.24,1.9999999996021927,3.989021933811722e-05,1.6500000000000001,-0.0007158359013004765,-3.2629509138842114e-08,1.8479294200766713e-11,0.9999999359473708,-0.00035791794300837616,-1.6314756831453618e-08,3.400303112385974e-12,-1.1968197482285868e-08,0.0006000567391689936,0.0,-0.005894236592415463,-7.972259186553102e-07,3.0379041990606284e-11,-3.2009561442013865e-07,0.007022351391224577,0.0,-0.023383653940185028,-1.6106354416147436e-05,7.25274686198917e-10,0.1226778381712416,0.12267776555974226,0.12257222458071615,0.12257229735958657
0.25,1.999999999455898,4.665199140312521e-05,1.6500000000000001,-0.0007759475220727645,-4.1403280773478876e-08,2.5363359307633944e-11,0.9999999247381811,-0.0003879737513031782,-2.070164374885516e-08,4.64998562039801e-12,-1.577250663141936e-08,0.0006761772063993019,0.0,-0.006127345919430965,-9.71154952454706e-07,3.834151670476534e-11,-4.0616637745490405e-07,0.007612046719257843,0.0,-0.02323533489113935,-1.8837346354770374e-05,8.788054108523541e-10,0.12267751510846511,0.12267743018849228,0.12257255862199803,0.12257264374477214
0.26,1.9999999992646083,5.423621720796899e-05,1.6500000000000001,-0.0008383828197082877,-5.2052601680032525e-08,3.43861723208146e-11,0.9999999121392819,-0.0004191913975773239,-2.6026305760520604e-08,6.283083226916095e-12,-2.056698593906868e-08,0.0007584225803356642,0.0,-0.00635894329023825,-1.1739728457507176e-06,4.7955150207653366e-11,-5.106363052914794e-07,0.008224537388308438,0.0,-0.02308128127078688,-2.189585626299753e-05,1.0568040585852866e-09,0.12267718052370455,0.12267708181984627,0.12257290554574751,0.1225730044934836
0.27,1.9999999990169766,6.270641024162126e-05,1.6500000000000001,-0.0009031263878989792,-6.488272854741543e-08,4.609012030949061e-11,0.9999998980453421,-0.00045156317860316496,-3.244137137246015e-08,8.395732235535441e-12,-2.6556770018225856e-08,0.0008470193031504147,0.0,-0.006588971544846702,-1.4090720777146565e-06,5.947759787647108e-11,-6.364999753935075e-07,0.008859672274048751,0.0,-0.02292153092062648,-2.530563128306908e-05,1.2619439929385236e-09,0.12267683460745935,0.12267672053743077,0.12257326526448682,0.12257337962573325
0.28,1.999999998699376,7.212833274367137e-05,1.6500000000000001,-0.0009701622506290835,-8.023403055733445e-08,6.112633365490627e-11,0.9999998823481524,-0.00048508110629097656,-4.0117025384441056e-08,1.1103157079172125e-11,-3.3979378165090464e-08,0.0009421922498987989,0.0,-0.0068173739086507795,-1.6800854714120993e-06,7.319403006642384e-11,-7.870964215247819e-07,0.009517294664610987,0.0,-0.022756123070349257,-2.909097443307611e-05,1.4970543593972973e-09,0.12267647755601892,0.12267634642817127,0.12257363768775402,0.1225737691610758
0.29,1.9999999982955496,8.25699794782789e-05,1.6500000000000001,-0.001039473866098424,-9.84844206023344e-08,8.027104329326232e-11,0.9999998649367621,-0.0005197369096500916,-4.9242224510266865e-08,1.4542522019528984e-11,-4.310832799568917e-08,0.0010441646730296053,0.0,-0.0070440940062536875,-1.9908915663761787e-06,8.941868506441702e-11,-9.661329846521819e-07,0.01019724229915266,0.0,-0.022585098325909013,-3.3276706875493494e-05,1.765118784491188e-09,0.1226761095712838,0.12267595958228343,0.12257402272214772,0.12257417311848318
0.3,1.999999997786224,9.410156095723024e-05,1.6500000000000001,-0.001111044130783311,-1.200518383374174e-07,1.0444360492246832e-10,0.9999998456976197,-0.0005555220368188591,-6.002593891692862e-08,1.887607352476025e-11,-5.425699114578673e-08,0.0011531581472950237,0.0,-0.00726907587516896,-2.345619608921969e-06,1.084964057562476e-10,-1.177709672457205e-06,0.010899347407772002,0.0,-0.022408498657013443,-3.788812921859222e-05,2.0692734173151233e-09,0.12267573086058092,0.12267556009326316,0.12257442027137375,0.12257459151621605
0.31,1.999999997148681,0.00010679548611622476,1.6500000000000001,-0.00118485538363384,-1.453967811936028e-07,1.347262754675417e-10,0.9999998245147175,-0.0005924276571628002,-7.269841774708978e-08,2.4294588691761963e-11,-6.77826958429403e-08,0.0012693925150731118,0.0,-0.0074922639793939564,-2.7486541507480232e-06,1.308041534107195e-10,-1.4263439894915957e-06,0.011623436752760712,0.0,-0.022226367384015195,-4.295098189475668e-05,2.4128043102240338e-09,0.12267534163647384,0.12267514805787523,0.12257483023629356,0.12257502437169318
0.32,1.9999999963562873,0.00012072634444865002,1.6500000000000001,-0.0012608894104062707,-1.750248793894026e-07,1.7238582513990258e-10,0.9999998012697395,-0.0006304446634403122,-8.751247664319335e-08,3.102114485064395e-11,-8.409108077330211e-08,0.0013930858321161252,0.0,-0.007713603222849264,-3.2046392468171027e-06,1.5675249196072827e-10,-1.7169961991075038e-06,0.012369331671180874,0.0,-0.022038749164176055,-4.849140466083112e-05,2.799144137291553e-09,0.12267494211656846,0.12267472357614106,0.12257525251497443,0.12257547170135819
0.33,1.9999999953779795,0.00013597088760123737,1.6500000000000001,-0.0013391274481291103,-2.0948951088830812e-07,2.1889706603743206e-10,0.9999997758422126,-0.0006695636740352329,-1.0474480524756372e-07,3.931522519386381e-11,-1.0364070427080725e-07,0.0015244543137378245,0.0,-0.007933038962677478,-3.7184822439646457e-06,1.8678703615655055e-10,-2.0550949774318436e-06,0.013136848118752271,0.0,-0.021845689977328463,-5.453589526667435e-05,3.231868250978743e-09,0.12267453252331315,0.12267428675132545,0.12257568700274088,0.12257593352054445
0.34,1.9999999941776987,0.00015260801043611764,1.6500000000000001,-0.0014195501897014706,-2.4939445216712435e-07,2.759683754155841e-10,0.9999997481096602,-0.00070977503525555,-1.2469729261126786e-07,4.947717491117588e-11,-1.269479124531402e-07,0.0016637122814527308,0.0,-0.008150517022395833,-4.29535715215059e-06,2.2138985698030314e-10,-2.4465634188390366e-06,0.013925796715035656,0.0,-0.021647237110904854,-6.11112673391099e-05,3.714690079314292e-09,0.12267411308379458,0.1226738376899216,0.12257613359222859,0.12257640984333773
0.35000000000000003,1.9999999927137786,0.0001707187315639269,1.6500000000000001,-0.0015021377886222033,-2.9539656058145003e-07,3.455692885170126e-10,0.9999997179477603,-0.0007510688236975148,-1.4769836840525488e-07,6.185302188410516e-11,-1.545919695178232e-07,0.001811072110080162,0.0,-0.008365983704895575,-4.940707590746844e-06,2.610808377428364e-10,-2.897845351607198e-06,0.014735982789897085,0.0,-0.021443439144306492,-6.824460752941423e-05,4.251455867750647e-09,0.1226736840295289,0.12267337650163543,0.12257659217343879,0.12257690068243747
0.36,1.9999999909382762,0.00019038617335273754,1.6500000000000001,-0.0015868698638482465,-3.482084840408778e-07,4.299602321813301e-10,0.9999996852305058,-0.000793434848674372,-1.7410435779045232e-07,7.683967550042158e-11,-1.8722045299337346e-07,0.0019667441753257065,0.0,-0.008579385805281963,-5.660249302738874e-06,3.0641897433531607e-10,-3.415931921720841e-06,0.015567206431237548,0.0,-0.021234345932675484,-7.596323197339921e-05,4.846138771724377e-09,0.12267324559624859,0.12267290329936793,0.12257706263379553,0.12257740604901599
0.37,1.9999999887962492,0.00021169554141771567,1.6500000000000001,-0.0016737255047805575,-4.086013936376719e-07,5.317244663723119e-10,0.9999996498303665,-0.0008368626547089026,-2.0430084776911285e-07,9.489051659057203e-11,-2.2555491631521886e-07,0.002130936801852651,0.0,-0.008790670623549084,-6.459972230214828e-06,3.5800361317732394e-10,-4.008388402109392e-06,0.01641926253397174,0.0,-0.021020008590006117,-8.429464211398944e-05,5.502832307813296e-09,0.12267279802368539,0.1226724181991968,0.12257754485820394,0.12257792595257702
0.38,1.9999999862249749,0.0002347341035965302,1.6500000000000001,-0.001762683276375954,-4.774077348088632e-07,6.53802296262929e-10,0.999999611618455,-0.0008813415240889369,-2.3870406280781543e-07,1.165213908649237e-10,-2.703968206644307e-07,0.0023038562118557044,0.0,-0.008999785977082085,-7.346142145018663e-06,4.16475620491582e-10,-4.6833811839859395e-06,0.017291940850239114,0.0,-0.02080047947155784,-9.32664799370096e-05,6.225743173210139e-09,0.1226723415553485,0.12267192132035605,0.12257803872910997,0.12257846040081244
0.39,1.999999983153106,0.00025959116841565934,1.6500000000000001,-0.0018537212243830983,-5.555239925529474e-07,7.995276126161632e-10,0.9999995704646949,-0.0009268604794849585,-2.7776224749317023e-07,1.4231701754386405e-10,-3.2263373756981646e-07,0.002485706474149167,0.0,-0.009206680212980241,-8.32530182895502e-06,4.825184766415267e-10,-5.449704906375431e-06,0.01818502604082959,0.0,-0.020575812155652906,-0.00010290648267164977,7.019183445082833e-09,0.12267187643829994,0.12267141278521472,0.12257854412656202,0.12257900939945876
0.4,1.9999999794997645,0.0002863580630528617,1.6500000000000001,-0.0019468168807007943,-6.439134661687786e-07,9.72666812900029e-10,0.9999995262379896,-0.000973408286628889,-3.219570539544993e-07,1.7293782412335097e-10,-3.832458233310284e-07,0.002676689453781557,0.0,-0.009411302220195143,-9.404271798451659e-06,5.568592893932386e-10,-6.316809679396975e-06,0.01909829772780577,0.0,-0.02034606142482121,-0.00011324243700776285,7.88756217320864e-09,0.1226714029229253,0.12267089271925365,0.12257906092827413,0.1225795729521525
0.41000000000000003,1.9999999751735678,0.00031512811080119566,1.6500000000000001,-0.0020419472688567373,-7.436090489358732e-07,1.177460149888273e-09,0.9999994788063951,-0.00102097345705312,-3.718049317635932e-07,2.0912721740766691e-10,-4.5331256587258096e-07,0.0028770047621884645,0.0,-0.009613601441476665,-1.0590150569110277e-05,6.402697201056995e-10,-7.294828356391222e-06,0.020031530548302985,0.0,-0.020111283246272357,-0.00012430213288280935,8.835376381042094e-09,0.12267092126270229,0.12267036125104076,0.12257958900969039,0.1225801510602849
0.42,1.9999999700715856,0.0003459966080400899,1.6500000000000001,-0.0021390889096047287,-8.557160081122417e-07,1.4186655484347196e-09,0.9999994280372925,-0.0010695442508888073,-4.2785851800011524e-07,2.517193000703239e-10,-5.340198041865661e-07,0.003086849707895264,0.0,-0.00981352788512059,-1.1890314456107845e-05,7.335668170140805e-10,-8.394603809562128e-06,0.02098449420948752,0.0,-0.019871534751665556,-0.0001361133168918169,9.867201492148072e-09,0.12267043171396477,0.12266981851220526,0.12258012824405122,0.12258074372285714
0.43,1.9999999640782258,0.00037906080071907857,1.6500000000000001,-0.0022382178266383843,-9.814147605881306e-07,1.7016049246813424e-09,0.999999373797565,-0.0011191086797224328,-4.907080251523685e-07,3.016470410749035e-10,-6.266670200659102e-07,0.0033064192477810722,0.0,-0.010011032136509977,-1.3312416906946615e-05,8.37613749948661e-10,-9.627716163432933e-06,0.021956953544653157,0.0,-0.01962687421625548,-0.0001487036453742976,1.098768120068751e-08,0.12266993453566477,0.1226692646374096,0.12258067850246104,0.12258135093633482
0.44,1.9999999570640425,0.000414419860359929,1.6500000000000001,-0.00233930955241917,-1.1219636395016772e-06,2.032213035181088e-09,0.9999993159537728,-0.001169654509509568,-5.609826245069707e-07,3.599509073018736e-10,-7.326749013707746e-07,0.0035359059389151524,0.0,-0.0102060653694457,-1.4864387363593798e-05,9.533204410278307e-10,-1.1006509940099483e-05,0.02294866857043496,0.0,-0.01937736103741648,-0.00016210063723253598,1.2201516806296526e-08,0.12266942998913129,0.12266869976432027,0.12258123965395677,0.12258197269450244
0.45,1.9999999488844709,0.00045217485958300125,1.6500000000000001,-0.0024423391341167233,-1.2787016470956231e-06,2.417088876300956e-09,0.9999992543723324,-0.0012211692635448025,-6.393518226675569e-07,4.277879626870631e-10,-8.535931756086935e-07,0.003775499890976775,0.0,-0.010398579357258306,-1.6554429651597335e-05,1.0816440860745915e-09,-1.2544121070000939e-05,0.02395939454511939,0.0,-0.019123055712411477,-0.0001763316265360159,1.3513456035356075e-08,0.12266891833782687,0.12266812403357663,0.12258181156557894,0.12258260898831903
0.46,1.9999999393784778,0.0004924287471637826,1.6500000000000001,-0.0025472811396591334,-1.453051189072759e-06,2.863549646834097e-09,0.9999991889196952,-0.0012736402254866898,-7.265268288319155e-07,5.06441440084604e-10,-9.911087121447852e-07,0.0040253887192692635,0.0,-0.01058852648369393,-1.8391019894314116e-05,1.2235895617349522e-09,-1.4254503721718104e-05,0.024988882028028233,0.0,-0.018864019815584016,-0.00019142371496718794,1.492828137236214e-08,0.1226683998471011,0.12266753758875829,0.12258239410244269,0.12258325980577349
0.47000000000000003,1.9999999283671317,0.0005352863226256502,1.6500000000000001,-0.0026541096638909656,-1.6465207856919274e-06,3.3796872790088786e-09,0.9999991194625267,-0.0013270544424365998,-8.232619104490326e-07,5.973307899240625e-10,-1.1470538908924354e-06,0.004285757498338809,0.0,-0.010775859753569986,-2.0382903950941094e-05,1.3802097135218342e-09,-1.6152456904154187e-05,0.02603687693995412,0.0,-0.018600315974889522,-0.00020740372416407007,1.645079792648672e-08,0.12266787478394318,0.12266694057635083,0.12258298712781113,0.1225839251317415
0.48,1.9999999156520878,0.0005808542103750165,1.6500000000000001,-0.0027627983348366743,-1.8607077548360533e-06,3.974427535055422e-09,0.9999990458678891,-0.0013813987280702938,-9.30355734872357e-07,7.02022208540625e-10,-1.3234152348677549e-06,0.004556788716208336,0.0,-0.01096053280319172,-2.2539094377595517e-05,1.5526055202646866e-09,-1.8253650794351646e-05,0.027103120624624107,0.0,-0.01833200784777285,-0.0002242981480153701,1.8085820860095905e-08,0.12266734341673154,0.12266633314570959,0.12258359050316955,0.12258460494784247
0.49,1.999999901013981,0.0006292408333851105,1.6500000000000001,-0.002873320320066947,-2.0973008622789023e-06,4.657591658194904e-09,0.9999989680034199,-0.0014366596658210136,-1.0486526946232146e-06,8.222396478211419e-10,-1.5223423035234042e-06,0.004838662229236503,0.0,-0.011142499910525443,-2.4868866911248496e-05,1.7419261307237524e-09,-2.0574652744152014e-05,0.028187349911167524,0.0,-0.018059160096403886,-0.00024213310496403132,1.9838162407349732e-08,0.1226668060149824,0.12266571544902197,0.12258420408830059,0.12258529923229862
0.5,1.9999998842107345,0.0006805563864347562,1.6500000000000001,-0.002985648333165585,-2.3580829343781444e-06,5.439960558374001e-09,0.9999988857375157,-0.0014928236121128646,-1.1790442138787294e-06,9.59876306530378e-10,-1.746156843309623e-06,0.005131555217611681,0.0,-0.011321716005119798,-2.7381756476876143e-05,1.9493687684116812e-09,-2.3132952918913904e-05,0.029289297177563674,0.0,-0.017781838362322753,-0.00026093429037524744,2.1712618512446537e-08,0.12266626284909674,0.12266508764126764,0.12258482774136126,0.12258600795979464
0.51,1.999999864975768,0.0007349128089085883,1.6500000000000001,-0.0030997546402942813,-2.644933428428706e-06,6.333341504296273e-09,0.9999987989395123,-0.0015498766996431964,-1.322470033801821e-06,1.117006602363762e-09,-1.997362191443013e-06,0.00543564214149047,0.0,-0.011498136677771898,-3.0087552718753445e-05,2.176178500972683e-09,-2.5946989521567202e-05,0.030408690415044026,0.0,-0.01750010924051193,-0.000280726929025025,2.3713955118474735e-08,0.12266571419010637,0.12266444988017784,0.1225854613189596,0.12258673110133933
0.52,1.9999998430161166,0.0007924237571652614,1.6500000000000001,-0.0032156110668528108,-2.9598309559225033e-06,7.350637284326632e-09,0.9999987074798666,-0.0016078048407127256,-1.4799194743368853e-06,1.2958986224184012e-09,-2.2786529283973955e-06,0.005751094697790082,0.0,-0.011671718189930036,-3.2996295057376644e-05,2.423647870781176e-09,-2.9036173555399552e-05,0.031545253293423725,0.0,-0.017214040252770766,-0.00030153572776541024,2.5846894138804512e-08,0.12266516030941879,0.12266380232619185,0.12258610467623407,0.12258746862412886
0.53,1.9999998180104464,0.0008532045764802757,1.6500000000000001,-0.003333189004231879,-3.304855753978324e-06,8.505917789685518e-09,0.999998611230339,-0.0016665937306020295,-1.6524326701035942e-06,1.499027048386198e-09,-2.592924774166406e-06,0.00607808177764368,0.0,-0.011842417482827314,-3.611826727406165e-05,2.6931163837487733e-09,-3.2420913079143894e-05,0.03269870522733562,0.0,-0.01692369982058484,-0.0003233848284223634,2.8116099144576732e-08,0.12266460147856159,0.12266314514241276,0.12258675766693268,0.12258822049141223
0.54,1.999999789606973,0.0009173722725701536,1.6500000000000001,-0.003452459416655975,-3.6821921002289206e-06,9.814493964030403e-09,0.9999985100641723,-0.0017262288509930872,-1.8411017780328923e-06,1.7290865513548867e-09,-2.943284722884964e-06,0.006416769424527435,0.0,-0.012010192186341733,-3.946399162582391e-05,2.9859698536727106e-09,-3.612263690816372e-05,0.033868761443340445,0.0,-0.01662915723744775,-0.00034629776098227196,3.052616080270028e-08,0.12266403796892641,0.12266247849456043,0.1225874201434934,0.12258898666235811
0.55,1.9999997574212758,0.000985045482704769,1.6500000000000001,-0.003573392848113426,-4.094130666481281e-06,1.129299405406669e-08,0.9999984038562735,-0.0017866954734344614,-2.04707215440369e-06,1.989005649658109e-09,-3.333061409936936e-06,0.006767320793067846,0.0,-0.012175000627576269,-4.304422249370709e-05,3.303639599802779e-09,-4.0163817715814855e-05,0.03505513304788564,0.0,-0.016330482640608893,-0.0003702973971228636,3.308158209973535e-08,0.12266347005151276,0.122661802550924,0.12258809195712479,0.12258976709192484
0.56,1.9999997210340053,0.0010563444464147245,1.6500000000000001,-0.003695959429370863,-4.543070806500599e-06,1.2959442086263436e-08,0.999998292483393,-0.0018479786628487305,-2.271543498956011e-06,2.2819610217477332e-09,-3.7658157052196845e-06,0.0071298961085375775,0.0,-0.012336801839153911,-4.6869939568281184e-05,3.6476014956674175e-09,-4.456799448940009e-05,0.036257527096085033,0.0,-0.016027746982299942,-0.0003954059041439428,3.5786763388260476e-08,0.12266289799667193,0.12266111748231186,0.12258877295788836,0.12259056173073232
0.5700000000000001,1.999999679988487,0.001131390975800749,1.6500000000000001,-0.0038201288850691667,-5.031522773308383e-06,1.4833338485095654e-08,0.9999981758243027,-0.0019100632810807087,-2.5157709637763056e-06,2.611392264574105e-09,-4.245351525783371e-06,0.0075046526270477615,0.0,-0.012495555567222268,-5.0952340576585945e-05,4.0193748675679884e-09,-4.9359794295523654e-05,0.03747564666129095,0.0,-0.015721022000501992,-0.00042164469935328876,3.8645987293199045e-08,0.12266232207385175,0.12266042346199997,0.12258946299478028,0.12259137052493681
0.58,1.999999633788211,0.0012103084254521611,1.6500000000000001,-0.00394587054089803,-5.562109861430906e-06,1.693574273852166e-08,0.9999980537599735,-0.0019729339904850153,-2.7810662246734524e-06,2.981017086456528e-09,-4.7757268606143686e-06,0.007891744596444443,0.0,-0.01265122227916395,-5.530283355534696e-05,4.4205212415313984e-09,-5.456495331009867e-05,0.03870919090543017,0.0,-0.015410380189152632,-0.00044903440496254924,4.1663403515778214e-08,0.12266174255134106,0.12265972066567905,0.12259016191581487,0.12259219341610847
0.59,1.9999995818942147,0.0012932216619815284,1.6500000000000001,-0.004073153330846118,-6.137570469585125e-06,1.9289358006655098e-08,0.9999979261737509,-0.0020365752575514915,-3.0687985127894494e-06,3.394846921910744e-09,-5.361264999888441e-06,0.008291323217916593,0.0,-0.01280376317100532,-5.993302867583693e-05,4.852642937883553e-09,-6.0210337068759305e-05,0.039957855150074294,0.0,-0.015095894767980667,-0.0004775948035475604,4.484301357446695e-08,0.12266115969601596,0.12265900927139932,0.12259086956810719,0.1225930303411116
0.6,1.9999995237223471,0.0013802570331827118,1.6500000000000001,-0.004201945804523808,-6.760760079345879e-06,2.1918617559835597e-08,0.9999977929515304,-0.002100971356566951,-3.380395604217057e-06,3.857202954376344e-09,-6.006565960581117e-06,0.008703536608322716,0.0,-0.012953140174523564,-6.485472962629817e-05,5.3173815130207375e-09,-6.632395989398195e-05,0.0412213309482147,0.0,-0.01477763965197533,-0.0005073447941271631,4.81886555224572e-08,0.12266057377308717,0.12265828945951474,0.12259158579795704,0.1225938812319884
0.61,1.9999994586404215,0.001471542336819559,1.6500000000000001,-0.0043322161345554925,-7.434653145399991e-06,2.4849772922565023e-08,0.9999976539819285,-0.0021661063733117597,-3.7173447654275526e-06,4.372732531258934e-09,-6.716518099890248e-06,0.009128529763242908,0.0,-0.013099315964044827,-7.007992455838019e-05,5.816416048332697e-09,-7.293500345582508e-05,0.04249930615671251,0.0,-0.014455689420296135,-0.0005383023489139594,5.1703988680907823e-08,0.12265998504584827,0.12265756141262482,0.12259231045093251,0.12259474601584566
0.62,1.9999993859652487,0.001567206789052581,1.6500000000000001,-0.004463932124038287,-8.162344893060386e-06,2.8110983590085937e-08,0.9999975091564551,-0.0022319642087896613,-4.081193652345431e-06,4.946425954173351e-09,-7.4963099074998995e-06,0.009566444520762805,0.0,-0.013242253962929487,-7.562077660457736e-05,6.351461286638894e-09,-8.007383442385493e-05,0.04379146500939259,0.0,-0.014130119284946115,-0.0005704844707898401,5.539247842924907e-08,0.12265939377542665,0.12265682531551506,0.12259304337195379,0.12259562461474494
0.63,1.9999993049595526,0.0016673809925109961,1.6500000000000001,-0.004597061214064042,-8.947053018785777e-06,3.173240817476225e-08,0.9999973583696812,-0.0022985285829893063,-4.473551160943069e-06,5.583633625749317e-09,-8.35144196729566e-06,0.010017419525995623,0.0,-0.01338191834974375,-8.148961397417699e-05,6.924265616917678e-09,-8.777202116853344e-05,0.04509748819075114,0.0,-0.013801005059075385,-0.0006039071515585196,5.925738109313015e-08,0.12265880022053526,0.12265608135509629,0.1225937844053773,0.12259651694559648
0.64,1.9999992148287626,0.0017721969040175919,1.6500000000000001,-0.0047315704913014865,-9.792119289529439e-06,3.574629682990738e-08,0.9999972015194053,-0.0023657830386758856,-4.8960882272673035e-06,6.290083532843832e-09,-9.287739078730048e-06,0.01048159019634816,0.0,-0.013518274064110995,-8.769891963574775e-05,7.536608908501497e-09,-9.606234947110543e-05,0.04641705291024565,0.0,-0.013468423125005506,-0.0006385853310268528,6.330172897068924e-08,0.12265820463722796,0.12265532972034239,0.12259453339507942,0.1225974229200563
0.65,1.9999991147176874,0.0018817878019739154,1.6500000000000001,-0.004867426695635279,-1.0701011036823548e-05,4.01870847893191e-08,0.9999970385068182,-0.002433710945211268,-5.350538574851274e-06,7.071899044499228e-09,-1.0311362527633105e-05,0.0109590886875363,0.0,-0.01365128681224386,-9.426132059471405e-05,8.190300196331463e-09,-0.00010497883720183265,0.04774983297713586,0.0,-0.01313245040198089,-0.0006745328569654547,6.752831553833422e-08,0.12265760727865652,0.12265457060222625,0.12259529018453981,0.1225983424444274
0.66,1.9999990037070616,0.001996288253413348,1.6500000000000001,-0.005004596227858788,-1.1677322541593735e-05,4.509148685155226e-08,0.9999968692366632,-0.002502295502401047,-5.838699407508946e-06,7.935617001496425e-09,-1.1428822495868288e-05,0.011450043860355278,0.0,-0.013780923072150612,-0.00010118957677505684,8.887175219268181e-09,-0.0001145567479272836,0.04909549887584433,0.0,-0.012793164313699285,-0.0007117624459985924,7.193968087807824e-08,0.12265700839483054,0.12265380419365521,0.12259605461692476,0.12259927541956503
0.67,1.99999888080997,0.0021158340807296743,1.6500000000000001,-0.005143045157417289,-1.2724776305791504e-05,5.049859262891511e-08,0.9999966936173958,-0.0025715197443668346,-6.362432045556097e-06,8.888206072883537e-09,-1.2646990598847624e-05,0.011954581248209634,0.0,-0.013907150098517845,-0.0001084965695146859,9.629093813893028e-09,-0.00012483260340829622,0.05045371784180431,0.0,-0.012450642755716841,-0.0007502856454729107,7.65380973667479e-08,0.12265640823238173,0.12265303068940456,0.12259682653517015,0.12260022174078507
0.68,1.9999987449681447,0.0022405623280887933,1.6500000000000001,-0.005282739230198391,-1.384722420703033e-05,5.64499623723446e-08,0.9999965115613385,-0.0026413665434422274,-6.923662503550651e-06,9.937085353414864e-09,-1.3973112539543541e-05,0.01247282302540741,0.0,-0.01402993592726495,-0.00011619528968451506,1.041793716660314e-08,-0.00013584419495118983,0.05182415393776388,0.0,-0.012104964062529915,-0.000790112796352563,8.132555566764526e-08,0.12265580703432921,0.12265225028605034,0.12259760578206327,0.12260118129777815
0.6900000000000001,1.9999985950481347,0.002370611227531285,1.6500000000000001,-0.0054236438763663386,-1.504864853251408e-05,6.298972317472145e-08,0.9999963229848337,-0.002711818614090735,-7.524382007696497e-06,1.1090143174418389e-08,-1.541482086726806e-05,0.013004887976222956,0.0,-0.014149249379768443,-0.00012429882544173716,1.1255604927245933e-08,-0.00014763059357580607,0.05320646813051315,0.0,-0.01175620697477335,-0.0008312529971884498,8.630375106737959e-08,0.12265520503985117,0.12265146318190026,0.12259839220032476,0.12260215397452601
0.7000000000000001,1.999998429837348,0.002506120164773555,1.6500000000000001,-0.0055657242182369495,-1.633316288865392e-05,7.016466534686097e-08,0.9999961278083934,-0.0027828585168440784,-8.166647451108664e-06,1.235575609922529e-08,-1.6980147829133693e-05,0.013550891464732215,0.0,-0.014265060066760416,-0.00013282034962828405,1.2144012187950731e-08,-0.00016023215896500967,0.0546003183680032,0.0,-0.01140445060624053,-0.0008737140692078831,9.147407019592074e-08,0.12265460248405843,0.12265066957692483,0.1225991856326892,0.12260313964922358
0.71,1.9999982480399654,0.0026472296447153437,1.6500000000000001,-0.0057089450781898695,-1.7705012982882294e-05,7.802433875238183e-08,0.9999959259568449,-0.002854468662259191,-8.852581785193854e-06,1.3742808072947137e-08,-1.8677538301764977e-05,0.014110945405424189,0.0,-0.014377338391893254,-0.00014177310682589482,1.3085086331164348e-08,-0.000173690547161378,0.05600535965682437,0.0,-0.01104977441082752,-0.0009175025225692242,9.683757817083068e-08,0.1226539995977732,0.12264986967268605,0.12259998592198447,0.12260413819420508
0.72,1.9999980482727213,0.002794081256661397,1.6500000000000001,-0.005853270986614822,-1.9168577274289077e-05,8.662114887994076e-08,0.9999957173594727,-0.002926631314892246,-9.584374345458488e-06,1.5260709695078562e-08,-2.0515862790495386e-05,0.014685158234591883,0.0,-0.014486055554976967,-0.00015117040007966854,1.4080763751367345e-08,-0.0001880487169779453,0.05742124414001114,0.0,-0.010692258149746971,-0.0009626235238262699,1.023950062066869e-07,0.12265339660731259,0.12264906367226662,0.12260079291121102,0.12260514947587386
0.73,1.9999978290605591,0.002946817639265157,1.6500000000000001,-0.005998666189888622,-2.0728367489826457e-05,9.601045242395375e-08,0.9999955019501572,-0.002999328597288115,-1.0364281110117063e-05,1.691941758214019e-08,-2.2504430482961943e-05,0.01527363488250571,0.0,-0.014591183554888193,-0.00016102557730242022,1.5132986455298086e-08,-0.00020335093509105508,0.058847621175142424,0.0,-0.010331981858505233,-0.0010090808646448868,1.0814673972480313e-07,0.12265279373427614,0.12264825178019698,0.12260160644361875,0.12260617335463775
0.74,1.999997588832152,0.003105582445202317,1.6500000000000001,-0.0061450946583796314,-2.2389029002954408e-05,1.062506521379257e-07,0.9999952796675106,-0.0030725424939835717,-1.1194624889936183e-05,1.872945378636185e-08,-2.4653002343699405e-05,0.015876476746372017,0.0,-0.014692695192147071,-0.00017135201737256627,1.6243698545863407e-08,-0.00021964277978459663,0.060284137412704435,0.0,-0.009969025814122838,-0.001056876931813357,1.1409280700425311e-07,0.12265219119533839,0.12264743420238285,0.12260242636278382,0.12260720968484866
0.75,1.9999973259152943,0.003270520305582142,1.6500000000000001,-0.006292520094476309,-2.4155341071728133e-05,1.1740329071790605e-07,0.9999950504550063,-0.0031462548555225896,-1.2077795447814337e-05,2.0701925235243176e-08,-2.6971804236038324e-05,0.016493781664079155,0.0,-0.01479056407117065,-0.00018216311593868736,1.7414842595383148e-08,-0.00023697114331616912,0.061730436874684144,0.0,-0.009603470502663174,-0.0011060126785875425,1.2023286841116243e-07,0.12265158920204804,0.12264661114603108,0.12260325251268267,0.12260825831474624
0.76,1.999997038532162,0.003441776794104473,1.6500000000000001,-0.00644090594063674,-2.603221693346295e-05,1.295331434674073e-07,0.9999948142611064,-0.003220447402482157,-1.3016249546664336e-05,2.2848543155722277e-08,-2.9471540057326485e-05,0.017125643888732996,0.0,-0.014884764602200335,-0.00019347227094431712,1.8648355914086656e-08,-0.0002553842328770234,0.06318616103336243,0.0,-0.00923539658676531,-0.0011564875974094543,1.2656620623933975e-07,0.12265098796063074,0.12264578281957568,0.12260408473776556,0.12260931908640679
0.77,1.9999967247944408,0.0036194983909703235,1.6500000000000001,-0.006590215387455768,-2.8024703753249308e-05,1.4270830948937886e-07,0.9999945710393837,-0.003295101729506924,-1.4012510924233992e-05,2.5181642445635986e-08,-3.2163404873221555e-05,0.017772154063983768,0.0,-0.014975272002905956,-0.00020529286788687645,1.9946166720169943e-08,-0.0002749315701189748,0.06465094889027416,0.0,-0.008864884873579625,-0.0012082996940367455,1.330917152020223e-07,0.12265038767179963,0.12264494943260311,0.1226049228830278,0.12261039183569702
0.78,1.9999963826983236,0.003803832446554033,1.6500000000000001,-0.006740411381746621,-3.0137982423732263e-05,1.5700030114555345e-07,0.9999943207486405,-0.0033701993093511254,-1.5069170193571168e-05,2.7714200954170965e-08,-3.505909803654534e-05,0.01843339920014545,0.0,-0.015062062299671927,-0.00021763826482505203,2.1310190218127102e-08,-0.00029566398922286176,0.06612443705530498,0.0,-0.008492016282971287,-0.0012614454631203083,1.3980789360637486e-07,0.12264978853057044,0.12264411119577749,0.12260576679407889,0.12261147639223188
0.79,1.9999960101193779,0.003994927144844918,1.6500000000000001,-0.006891456634633766,-3.237736721371453e-05,1.7248413151869259e-07,0.9999940633530204,-0.003445721496926153,-1.6188884667911798e-05,3.045985863208821e-08,-3.8170836275946166e-05,0.019109462651108966,0.0,-0.015145112328565382,-0.00023052177714928261,2.274232459229744e-08,-0.0003176336334845426,0.0676062598258934,0.0,-0.008116871816007953,-0.0013159198652647473,1.467128352400577e-07,0.12264919072608396,0.12264326832076455,0.12260661631721048,0.12261257257933804
0.8,1.9999956048072818,0.004192931466666387,1.6500000000000001,-0.0070433136296539365,-3.474830526329127e-05,1.892383996089767e-07,0.9999937988221198,-0.0035216495333522256,-1.737437810884372e-05,3.3432936511655816e-08,-4.151136673938676e-05,0.01980042409204988,0.0,-0.015224399735992086,-0.00024395666213034698,2.4244446922928256e-08,-0.0003408939503958742,0.0690960492663077,0.0,-0.007739532523979523,-0.0013717163056042034,1.538042220071538e-07,0.12264859444143397,0.12264242102015654,0.12260747129946167,0.12261368021402115
0.81,1.9999951643804303,0.004397995152680486,1.6500000000000001,-0.007195944630862117,-3.7256375923375955e-05,2.0734537299202445e-07,0.9999935271310894,-0.0035979645500125754,-1.8628440396674852e-05,3.664845547545046e-08,-4.5093979977260544e-05,0.02050635949793104,0.0,-0.015299902979044972,-0.0002579561032613667,2.5818409032440516e-08,-0.0003654996851995987,0.07059343528696725,0.0,-0.007360079477985743,-0.001428826613927217,1.6107931734307277e-07,0.12264799985350412,0.12264156950739706,0.1226083315886816,0.12261479910693877
0.8200000000000001,1.9999946863204126,0.004610268666185847,1.6500000000000001,-0.007349311690939557,-3.990728993763235e-05,2.2689106766282083e-07,0.9999932482607352,-0.003674647572608656,-1.995392712201172e-05,4.01221547724906e-08,-4.8932522849739766e-05,0.021227341122800458,0.0,-0.015371601325551801,-0.0002725331944088913,2.746603326978971e-08,-0.0003915068728985824,0.07209804572377922,0.0,-0.006978593738761474,-0.0014872410263799905,1.6853496043003834e-07,0.12264740713280904,0.12264071399670515,0.12260919703359041,0.12261592906237764
0.8300000000000001,1.9999941679663609,0.004829903155717005,1.6500000000000001,-0.007503376659300742,-4.27068884649857e-05,2.479653247871849e-07,0.9999929621976121,-0.003751679525214859,-2.1353759097633632e-05,4.387051023954562e-08,-5.304141134277492e-05,0.02196343747988423,0.0,-0.015439474853820202,-0.0002877009237889665,2.9189108241041283e-08,-0.0004189728287013964,0.07360950641746115,0.0,-0.0065951563271620176,-0.0015469481687768554,1.7616756124611206e-07,0.122646816443345,0.12263985470299929,0.12261006748383776,0.12261706987823606
0.84,1.999993606509173,0.005057050417453057,1.6500000000000001,-0.007658101190196328,-4.566114194104665e-05,2.706618840803348e-07,0.999992668934114,-0.0038290412343312164,-2.2830921789827496e-05,4.7910752184927686e-08,-5.7435643276996525e-05,0.022714713322474114,0.0,-0.015503504452095042,-0.0003034721577844284,3.098938449471195e-08,-0.0004479561368877969,0.07512744129282031,0.0,-0.006209848195522661,-0.0016079350415468133,1.8397309647366409e-07,0.12264622794244703,0.12263899184182359,0.12261094279005742,0.12261822134601094
0.85,1.999992998985607,0.005291862857443602,1.6500000000000001,-0.007813446750809281,-4.877614877694636e-05,2.950784535306476e-07,0.9999923684685563,-0.00390671343293273,-2.438846466843104e-05,5.226088289162169e-08,-6.213081089361804e-05,0.02348122962560914,0.0,-0.015563671817730655,-0.00031985962461990276,3.2868570170514565e-08,-0.0004785166380792763,0.0766514724379632,0.0,-0.0058227501993841566,-0.0016701870063393607,1.9194710628755139e-07,0.12264564178065411,0.12263812562927186,0.12261182280392091,0.12261938325078929
0.86,1.999992342272252,0.005534493453659941,1.6500000000000001,-0.007969374629341285,-5.2058133894246393e-05,3.213167751858348e-07,0.9999920608052567,-0.003984676764513831,-2.6029500474914313e-05,5.693969369624263e-08,-6.714311330130191e-05,0.02426304356855015,0.0,-0.015619959456082725,-0.00033687589791121564,3.482832662046298e-08,-0.0005107154149014649,0.07818122018340638,0.0,-0.005433943069965176,-0.0017336877743156056,2.0008469204260655e-07,0.12264505810158213,0.1226372562819135,0.1226127073781865,0.12262055537124553
0.87,1.9999916330793774,0.005785095717879437,1.6500000000000001,-0.008125845943086752,-5.551344709475652e-05,3.4948268671852516e-07,0.9999917459546073,-0.004062911787126666,-2.7757204407914276e-05,6.196678160003408e-08,-7.248936876783181e-05,0.025060208518046263,0.0,-0.01567235067912996,-0.00035453338010621487,3.6870264011366696e-08,-0.0005446147760268311,0.07971630318106344,0.0,-0.005043507387687916,-0.0017984193961473533,2.0838051488611317e-07,0.12264447704180506,0.12263638401672013,0.12261359636674629,0.1226217374796422
0.88,1.999990867944657,0.006043823657411003,1.6500000000000001,-0.008282821646491691,-5.914856126426416e-05,3.796861784886319e-07,0.9999914239331434,-0.004141398977411792,-2.9574813225722377e-05,6.736256536793623e-08,-7.818702684033038e-05,0.025872774012391565,0.0,-0.015720829603836483,-0.0003728442858341627,3.8995936918185243e-08,-0.0005802782385877851,0.08125633848308107,0.0,-0.004651523556322389,-0.0018643622537422753,2.1682879531365348e-07,0.12264389873074513,0.12263550905099244,0.12261448962466945,0.12262292934183652
0.89,1.9999900432267768,0.006310831736669581,1.6500000000000001,-0.008440262539194993,-6.297007040935267e-05,4.1204144582092896e-07,0.9999910947636063,-0.004220118734620112,-3.148562426531161e-05,7.314830107166062e-08,-8.425418027767534e-05,0.026700785746270418,0.0,-0.015765381150256406,-0.0003918206251810604,4.1206839917639765e-08,-0.0006177705089519916,0.0828009416205008,0.0,-0.004258071777771787,-0.0019314950537167028,2.254233136693184e-07,0.12264332329057,0.1226346316022868,0.12261538700824318,0.1226241307172912
0.9,1.9999891550989233,0.006586274838607515,1.6500000000000001,-0.008598129274049428,-6.698468752665957e-05,4.466669362179372e-07,0.9999907584749999,-0.004299051384624632,-3.349299437757656e-05,7.934609703271216e-08,-9.070957677869824e-05,0.02754428555638936,0.0,-0.01580599103939192,-0.00041147418690849676,4.350440319157161e-08,-0.0006571574618534044,0.08434972668172051,0.0,-0.0038632320282854307,-0.001999794822632578,2.3415741162643762e-07,0.12264275083610036,0.12263375188834513,0.12261628837500893,0.12262534135908991
0.91,1.9999881995421571,0.0068703082260107,1.6500000000000001,-0.008756382365120122,-7.119924230410414e-05,4.836853912305923e-07,0.9999904151026422,-0.004378177183920983,-3.5600338778548845e-05,8.597892812139725e-08,-9.757263048969795e-05,0.028403311407893383,0.0,-0.015842645790822115,-0.00043181652163371193,4.588998815016852e-08,-0.000698506117874267,0.085902306390734,0.0,-0.0034670840354186078,-0.0020692369040131078,2.430239946463044e-07,0.12264218147472558,0.12263287012702404,0.12261719358379557,0.12262656101395741
0.92,1.9999871723386722,0.007163087502667302,1.6500000000000001,-0.008914982195658169,-7.56206786537901e-05,5.232238827121721e-07,0.9999900646882119,-0.0044574763236154774,-3.78111298164385e-05,9.307064936805582e-08,-0.00010486343327476538,0.0292778973815641,0.0,-0.01587533272010029,-0.0004528589249887589,4.83648830844977e-08,-0.0007418846192750603,0.08745829218512569,0.0,-0.003069707255758808,-0.0021397949571515776,2.5201553541939524e-07,0.12264161530632818,0.12263198653622484,0.12261810249474994,0.12262778942228443
0.93,1.9999860690649454,0.0074647685744169134,1.6500000000000001,-0.009073889026047095,-8.02560520764703e-05,5.654138431846601e-07,0.9999897072797874,-0.004536928933399601,-4.012889565444246e-05,1.006460088430486e-07,-0.00011260276573240109,0.030168073661797273,0.0,-0.01590403993593729,-0.0004746124207767435,5.093029885855642e-08,-0.0007873622041711438,0.0890172942937994,0.0,-0.002671180854070705,-0.00221144095772498,2.611240783121128e-07,0.12264105242321817,0.12263110133382597,0.12261901496936223,0.12262902631815704
0.9400000000000001,1.9999848850847772,0.007775507610087873,1.6500000000000001,-0.009233063001720167,-8.511252685763942e-05,6.103910900510851e-07,0.9999893429318817,-0.004616515085509896,-4.2557218869350574e-05,1.0873065976242798e-07,-0.0001208121079419051,0.031073866525356635,0.0,-0.015928756337181705,-0.0004970877441432585,5.3587364650739956e-08,-0.0008350091790565953,0.09057892181442093,0.0,-0.002271583683523433,-0.002284145200223331,2.7034124481109025e-07,0.12264049291007686,0.12263021473761626,0.12261993087048828,0.12263027142939006
0.9500000000000001,1.999983615542229,0.00809546100233057,1.6500000000000001,-0.009392464161046511,-9.019737309550432e-05,6.582958433924315e-07,0.9999889717054709,-0.004696214798672248,-4.509973496607154e-05,1.1735117177671391e-07,-0.00012951364992303948,0.0319952983309012,0.0,-0.01594947160960776,-0.0005202953247812101,5.633712375477823e-08,-0.0008848968896775469,0.09214278279055572,0.0,-0.0018709942668200877,-0.002357876302199667,2.7965823997742337e-07,0.12263993684390935,0.1226293269652287,0.122620850062368,0.12263152447756547
0.96,1.999982255354455,0.008424785328354374,1.6500000000000001,-0.0095520524431842,-9.551796356126206e-05,7.09272737093425e-07,0.9999885936680161,-0.0047760080420296246,-4.7760130808290994e-05,1.2653504140079336e-07,-0.00013873030179249805,0.032932387509282554,0.0,-0.015966176222518107,-0.0005442452701872519,5.9180529450288423e-08,-0.0009370976902590811,0.0937084842884833,0.0,-0.0014694907786348688,-0.0024326012103519598,2.890658598939961e-07,0.12263938429400678,0.12262843823407713,0.12262177241063958,0.12263278517807534
0.97,1.9999807992044376,0.008763637310575959,1.6500000000000001,-0.009711787695898486,-0.00010108177039229999,7.634708230479122e-07,0.9999882088934807,-0.004855874739052368,-5.054214296556659e-05,1.3631070154365704e-07,-0.00014848570360077322,0.03388514855460883,0.0,-0.015978861425180457,-0.0005689473489882493,6.211844095265815e-08,-0.0009916849110915673,0.09527563247367152,0.0,-0.0010671510294893438,-0.0025082852084393928,2.985545001194093e-07,0.12263883532191988,0.12262754876129364,0.12262269778234969,0.12263405324016821
0.98,1.9999792415336257,0.009112173777186587,1.6500000000000001,-0.009871629683343684,-0.00010689636161911699,8.210435682016254e-07,0.9999878174623418,-0.004935794771430281,-5.3449555977256424e-05,1.4670753009748262e-07,-0.0001588042348330814,0.034853592016071945,0.0,-0.015987519243107894,-0.0005944109743560397,6.515161945267661e-08,-0.0010487328244841005,0.09684383268689598,0.0,-0.0006640524506471707,-0.002584891927031842,3.081141651488941e-07,0.12263828998144008,0.12262665876366788,0.12262362604595918,0.12263532836700027
0.99,1.9999775765344816,0.009470551622646062,1.6500000000000001,-0.01003153809380701,-0.00011296939752694467,8.821488441978609e-07,0.999987419461593,-0.005015747982945674,-5.648620053376815e-05,1.5775585754647102e-07,-0.00016971102355809839,0.035837724490534045,0.0,-0.0159921424741934,-0.0006206451875288862,6.828072425563603e-08,-0.0011083166090945138,0.09841268951998934,0.0,-0.0002602720803664138,-0.0026623833550998006,3.177344788530082e-07,0.12263774831859227,0.12262576845758817,0.1226245570713455,0.12263661025569092
1.0,1.9999757981429382,0.009838927768110822,1.6500000000000001,-0.010191472547413219,-0.00011930862685323695,9.469489094000311e-07,0.9999870149847451,-0.00509571418332676,-5.965595157570941e-05,1.6948697355683755e-07,-0.00018123195520836446,0.03683754861586959,0.0,-0.015992724684715222,-0.0006476586414580357,7.150630902973677e-08,-0.00117051231264723,0.09998180689120806,0.0,0.00014411344844665608,-0.0027407198534407733,3.2740469590065883e-07,0.12263721037163688,0.1226248780589843,0.12262549072979967,0.12263789859738206
1.01,1.999973900030772,0.010217459121803786,1.6500000000000001,-0.010351392603788619,-0.00012592188282237518,1.0156103830741039e-06,0.9999866041318178,-0.005175673152080719,-6.296272631161091e-05,1.8193313251045392e-07,-0.00019339368097634498,0.03785306306505895,0.0,-0.015989260205224468,-0.0006754595845977016,7.482881817364921e-08,-0.0012353968130520325,0.1015507881202046,0.0,0.0005490279192421274,-0.00281986016993852,3.371137141499029e-07,0.12263667617108213,0.12262398778327277,0.12262642689401966,0.12263919307730142
1.02,1.9999718755978946,0.010606302539333418,1.6500000000000001,-0.010511257769683487,-0.0001328170790191225,1.0883042115236804e-06,0.9999861870093275,-0.005255604642305906,-6.641048215498592e-05,1.9512755794582916e-07,-0.0002062236258102764,0.0388842625410295,0.0,-0.01598174412633038,-0.0007040558448568061,7.824858331273483e-08,-0.0013030477779386184,0.10311923600259493,0.0,0.0009543955413544164,-0.0028997614566513897,3.468500879948147e-07,0.12263614573970685,0.12262309784530352,0.12262736543809868,0.12264049337483003
1.03,1.9999697179645686,0.011005614783969445,1.6500000000000001,-0.010671027506551833,-0.00014000220510254277,1.165205625980812e-06,0.999985763730267,-0.005335488384482712,-7.000321458158097e-05,2.0910444587140438e-07,-0.00021974999599408914,0.03993113777223996,0.0,-0.01597017229439738,-0.0007334548137307294,8.17658199335455e-08,-0.0013735436226236073,0.10468675288411225,0.0,0.0013601409581797536,-0.0029803792887224748,3.56602042652221e-07,0.12263561909259332,0.1226222084593092,0.12262830623750995,0.12264179916357325
1.04,1.9999674199635487,0.011415552486882663,1.6500000000000001,-0.01083066123808781,-0.00014748532236228196,1.2464940920666626e-06,0.9999853344140811,-0.005415304090242683,-7.374495490776388e-05,2.238989669175203e-07,-0.00023400178629587957,0.04099367550900376,0.0,-0.015954541307166784,-0.0007636634306312556,8.538062416577925e-08,-0.0014469634665284518,0.10625294073433958,0.0,0.00176618925392686,-0.0030616676851047287,3.663574893607122e-07,0.12263509623716988,0.12262131983885607,0.12262924916908617,0.122643110111436
1.05,1.9999649741321575,0.011836272107356181,1.6500000000000001,-0.01099011835771799,-0.00015527455911929172,1.3323532506477284e-06,0.9999848991866354,-0.005495031456115528,-7.763976799108608e-05,2.39547267294891e-07,-0.00024900878666959996,0.04207185852054712,0.0,-0.015934848509318842,-0.000794688167432824,8.909296972075975e-08,-0.0015233870880684915,0.10781740122001458,0.0,0.0021724659587779235,-0.0031435791310901744,3.7610404147998586e-07,0.12263457717326473,0.12262043219679826,0.12263019411099477,0.12264442588070172
1.06,1.9999623727042952,0.012267929892975407,1.6500000000000001,-0.011149358236049014,-0.0001633781059732543,1.4229708499255383e-06,0.9999844581801786,-0.005574650167253781,-8.169174985414601e-05,2.560864685289839e-07,-0.00026480158849485235,0.04316566559279743,0.0,-0.015911091987991226,-0.0008265350132530591,9.290270499537897e-08,-0.0016028948780351536,0.1093797357779027,0.0,0.0025788970525355073,-0.0032260646026302485,3.858290314643491e-07,0.12263406189316979,0.12261954574523296,0.12263114094270833,0.122645746128114
1.07,1.9999596076023924,0.012710681839804077,1.6500000000000001,-0.011308340228270299,-0.00017180421089914847,1.5185386686105636e-06,0.9999840115332995,-0.005654139901134911,-8.590502523297048e-05,2.735546659413599e-07,-0.0002814115903399028,0.04427507152689746,0.0,-0.015883270568268132,-0.000859209459485429,9.680955035004673e-08,-0.001685567791495062,0.11093954568723448,0.0,0.002985408967022714,-0.0033090735924329283,3.955195286720736e-07,0.12263355038171386,0.12261866069545883,0.12263208954497132,0.12264707050496367
1.08,1.9999566704293081,0.013164683652553561,1.6500000000000001,-0.011467023681511566,-0.0001805611741955733,1.6192524300444495e-06,0.9999835593908788,-0.0057334803312408,-9.02837450512196e-05,2.9199092585076956e-07,-0.00029887100323328704,0.04540004713844118,0.0,-0.01585138380865077,-0.0008927164851017177,1.0081309556882044e-07,-0.0017714872982315761,0.11249643214170635,0.0,0.0033919285865650906,-0.0033925541378241088,4.0516235801005173e-07,0.12263304261634755,0.12261777725793702,0.12263303979976117,0.12264839865717732
1.09,1.9999535524601777,0.013630090704752585,1.6500000000000001,-0.01162536794215496,-0.00018965734328762123,1.725311707148567e-06,0.9999831019040328,-0.00581265113071446,-9.483208382160833e-05,3.1143528146862354e-07,-0.00031721285542964144,0.04654055925742634,0.0,-0.01581543199653683,-0.0009270605422419112,1.0491279751024776e-07,-0.001860735331755987,0.11404999632104328,0.0,0.0037983832470082565,-0.0034764528503533803,4.1474411935746917e-07,0.12263253856723833,0.12261689564225431,0.12263399159024488,0.12264973022541023
1.1,1.9999502446342199,0.014107057998924555,1.6500000000000001,-0.011783332363102214,-0.00019910110738726984,1.8369198180914269e-06,0.9999826392300534,-0.0058916319759942035,-9.955423697602668e-05,3.3192872746536e-07,-0.00033647099665568296,0.047696570728919835,0.0,-0.015775416143710606,-0.0009622455421087853,1.0910797795596982e-07,-0.001953394236917347,0.11559983946212665,0.0,0.004204700733551232,-0.0035607149471235246,4.242512077271795e-07,0.12263203819737442,0.12261601605708868,0.12263494480073252,0.12265106484514321
1.11,1.9999467375465023,0.014595740126779545,1.6500000000000001,-0.011940876310996636,-0.00020890089201443008,1.9542837125823507e-06,0.9999821715323405,-0.005970402550425168,-0.00010445441812592447,3.5351321318621416e-07,-0.00035668010182256075,0.048868040414431047,0.0,-0.015731337981865805,-0.0009982748411843816,1.1339782166479135e-07,-0.002049546716141566,0.11714556292968745,0.0,0.004610809276516491,-0.00364528428382699,4.336698341787996e-07,0.12263154146268088,0.12261513871017782,0.12263589931662404,0.12265240214678105
1.12,1.999943021439676,0.015096291229428028,1.6500000000000001,-0.012097959173400785,-0.0002190651533819629,2.0776138487143982e-06,0.9999816989803305,-0.0060489425478486075,-0.00010953685625461436,3.7623163449694753e-07,-0.00037787567419112275,0.05005492319398904,0.0,-0.015683199958180277,-0.001035151227785325,1.1778137463954582e-07,-0.002149275774332121,0.11868676828657186,0.0,0.005016637545904659,-0.0037301033894631243,4.429860473891021e-07,0.12263104831214348,0.12261426380829017,0.12263685502435324,0.12265374175575597
