t,x,y,z,roll,pitch,yaw,qw,qx,qy,qz,vx,vy,vz,wx,wy,wz,ax,ay,az,wx_dot,wy_dot,wz_dot,m1,m2,m3,m4
0.0,0.0,2.0,1.25,0.0,0.0,0.0,1.0,0.0,0.0,0.0,-0.0,-0.0,0.0,2.4241119682098033e-13,-0.00015719612428553395,0.0,0.0,-0.0,0.0,2.726826914828179e-10,-0.01571767313857104,2.5308197616448255e-15,0.12266047044596133,0.12258952955280789,0.12258952955403835,0.12266047044719242
0.01,-1.5420939792425172e-09,2.0,1.25,2.424111968181354e-15,-1.5719612428555013e-06,1.7621956121415814e-20,0.9999999999996911,1.2120559840972277e-15,-7.859806214276698e-07,9.763630576285901e-21,-1.542093979242517e-07,-1.1890269204080104e-16,0.0,2.9692381116491596e-12,-0.00031437285567124435,2.5308197616448254e-17,-1.542093979242517e-05,-2.378053840816021e-14,0.0,1.1208617285779213e-09,-0.023573601010963986,1.099934405428917e-14,0.12267819910336134,0.1225718008918828,0.12257180089694046,0.12267819910842155
0.02,-9.25218338684057e-09,2.0,1.25,5.938476223178875e-14,-6.287457113429417e-06,3.585289017731855e-19,0.9999999999950585,2.969238111631121e-14,-3.14372855670953e-06,2.7260923731644684e-19,-7.710089407598053e-07,-3.566758056401708e-15,0.0,2.2659645768379407e-11,-0.0006286681445048137,2.199868810857834e-16,-6.167995428355536e-05,-5.825645175274769e-13,0.0,4.851937085323097e-09,-0.031421773151858276,5.4446751264229164e-14,0.12269591025383057,0.12255408972911815,0.12255408975101087,0.12269591027573575
0.03,-3.083883576981396e-08,1.9999999999999998,1.25,4.556170273183406e-13,-1.4145324132976362e-05,2.2482220438594755e-18,0.9999999999749888,2.2780851366142294e-13,-7.072662066429216e-06,2.7353236548684573e-18,-2.1586652382973387e-06,-3.328536138292898e-14,0.0,1.000079798181111e-10,-0.0009428083187084099,1.1142432229010316e-15,-0.00013876562975375333,-4.469603038752058e-12,0.0,1.4835918809807126e-08,-0.03140238620356324,1.91980855820946e-13,0.12269586649014867,0.12255413346742625,0.12255413353436531,0.12269586655713191
0.04,-7.709138279939282e-08,1.9999999999999984,1.25,2.0595443585128186e-12,-2.5143623487673264e-05,6.78873664891395e-18,0.9999999999209748,1.0297721792177047e-12,-1.2571811743505467e-05,1.6340470300499678e-17,-4.625254702957883e-06,-1.7828364042520918e-13,0.0,3.1937802196452196e-10,-0.0012567158685760785,4.059603997504703e-15,-0.0002466589464660541,-2.02041301650718e-11,0.0,3.627595469877618e-08,-0.03137525114059744,5.369709021932665e-13,0.12269580523189678,0.12255419468189739,0.122554194845565,0.12269580539568839
0.05,-1.618772581648718e-07,1.9999999999999933,1.25,6.843177466666682e-12,-3.927964150467106e-05,6.684535011468023e-18,0.9999999998071387,3.42158873273909e-12,-1.9639820751072943e-05,7.054165691164695e-17,-8.478587536547889e-06,-6.862452517636159e-13,0.0,8.255270737936347e-10,-0.0015703133415203587,1.1853661266766361e-14,-0.0003853332833589988,-6.713157100236424e-11,0.0,7.604923505638984e-08,-0.03134037462575566,1.2742868497732477e-12,0.12269572649127347,0.12255427335467924,0.12255427369777643,0.12269572683466472
0.06,-3.0213857599184985e-07,1.9999999999999771,1.25,1.8570085837111017e-11,-5.654989031841276e-05,-3.8509246337654744e-17,0.9999999996002638,9.285042914299516e-12,-2.8274945155438873e-05,2.4327945612692244e-16,-1.402613178269774e-05,-2.118917741749185e-12,0.0,1.840362723092319e-09,-0.0018835233610911917,2.9545340992969656e-14,-0.000554754424614977,-1.8217254233197977e-10,0.0,1.4270295648262617e-07,-0.031297765222838746,2.67825574781992e-12,0.12269563028459327,0.12255436946346579,0.12255437010723899,0.12269563092898458
0.07,-5.178879506290782e-07,1.999999999999933,1.25,4.365043194697207e-11,-7.695010872706327e-05,-2.5651141201294125e-16,0.9999999992598351,2.182521595239713e-11,-3.8475054354039004e-05,7.114706649569753e-16,-2.157493746372257e-05,-5.58670007401909e-12,0.0,3.6795862034461582e-09,-0.0021962686459771337,6.541877622316477e-14,-0.0007548805681024536,-4.282107384739468e-10,0.0,2.4644174335094036e-07,-0.031247433394662964,5.130344969350428e-12,0.12269551663228924,0.12255448298151073,0.12255448409322059,0.12269551774518309
0.08,-8.3220355883532e-07,1.9999999999998268,1.25,9.21618099878582e-11,-0.00010047526323885166,-9.622917892913451e-16,0.9999999987380902,4.6080904911607515e-11,-5.0237631598294045e-05,1.833849634762488e-15,-3.143156082062328e-05,-1.3078728387336887e-11,0.0,6.769197590111126e-09,-0.002508472028984451,1.3215224037997822e-13,-0.0009856623356899801,-9.041073595960019e-10,0.0,3.9911260130481814e-07,-0.031189391500622436,9.136458980489239e-12,0.12269538555891604,0.1225546138776437,0.12255461567796322,0.12269538736134411
0.09,-1.271223445584549e-06,1.999999999999596,1.25,1.7903438403471558e-10,-0.0001271195493080829,-2.8238830943672912e-15,0.9999999979800775,8.951719174679731e-11,-6.355977461124618e-05,4.277751004123274e-15,-4.3901988674920184e-05,-2.7904618655678573e-11,0.0,1.1661838229542521e-08,-0.0028200564759895824,2.4814795583294955e-13,-0.0012470427854294394,-1.7563273180496367e-09,0.0,6.141874195935377e-07,-0.031123653793800478,1.5343786163609646e-11,0.12269523709315326,0.12255476211628806,0.12255476488662043,0.12269523986702631
0.1,-1.864139074894433e-06,1.9999999999991311,1.25,3.2539857542413473e-10,-0.00015687639276052936,-7.117413518236113e-15,0.9999999969237248,1.62699286932421e-10,-7.843819629983217e-05,9.203131919231514e-15,-5.9291562930981125e-05,-5.5263859635626117e-11,0.0,1.905294598198188e-08,-0.0031309451048604606,4.3902796365217114e-13,-0.0015389574256054772,-3.1921600532372175e-09,0.0,9.067430418210991e-07,-0.03105023641763098,2.4557133405359452e-11,0.12269507126780761,0.12255492765748141,0.12255493174718501,0.12269507536317825
0.11,-2.6431881272693287e-06,1.9999999999982534,1.25,5.600933058883153e-10,-0.00018973845140786864,-1.6098033369698874e-14,0.999999995499915,2.800466509203199e-10,-9.48692255616278e-05,1.851879243731001e-14,-7.790490523747145e-05,-1.0295866028995326e-10,0.0,2.9796699065964503e-08,-0.003441061204342202,7.392906239401386e-13,-0.0018613342306476241,-5.494515399703697e-09,0.0,1.2934389274162123e-06,-0.03096915740210574,3.775468751966802e-11,0.1226948881198175,0.12255511045689724,0.12255511629040967,0.12269489396204254
0.12,-3.643646545534869e-06,1.9999999999966809,1.25,9.21332562008045e-10,-0.00022569761685078946,-3.351656355325905e-14,0.9999999936325733,4.606662761796116e-10,-0.00011284880818587588,3.5227359112801336e-14,-0.00010004584182651261,-1.822658429834528e-10,0.0,4.492172453030613e-08,-0.0037503282529025754,1.1941217140455316e-12,-0.0022140936589011228,-9.038272589292268e-09,0.0,1.7924924288426566e-06,-0.030880436659518562,5.610314409784636e-11,0.12269468769025553,0.12255531046586979,0.12255531854971682,0.1226946957870495
0.13,-4.903819831026685e-06,1.9999999999939881,1.25,1.4585278080709318e-09,-0.00026474501647033816,-6.531469880839902e-14,0.9999999912387595,7.292638933232742e-10,-0.00013237250784858663,6.387714274254501e-14,-0.00012601732854909263,-3.089831373969516e-10,0.0,6.564654764281763e-08,-0.004058669937532573,1.861353505897066e-12,-0.002597148672252002,-1.4308158128972718e-08,0.0,2.4236517122554956e-06,-0.030784095979750643,8.097214605930255e-11,0.12269447002433227,0.12255552763142005,0.12255553856110193,0.12269448097270004
0.14,-6.465033592280712e-06,1.9999999999895508,1.25,2.234263538718682e-09,-0.0003068710156070364,-1.2053443863606056e-13,0.9999999882287726,1.1171317469621976e-09,-0.00015343550720147678,1.1114046103392255e-13,-0.0001561213761252215,-5.046649705639611e-10,0.0,9.339475877541604e-08,-0.004366010172497588,2.8135646352315826e-12,-0.003010404757601453,-2.191812598398583e-08,0.0,3.2081663519668344e-06,-0.030680159025091344,1.1394797601318136e-10,0.12269423517139959,0.12255576189628456,0.12255577636302717,0.12269424966443795
0.15,-8.371623348556937e-06,1.999999999982479,1.25,3.3264230301055745e-09,-0.00035206521992725104,-2.1248007835247413e-13,0.9999999845062602,1.6632114705817094e-09,-0.00017603260905449104,1.865394248740335e-13,-0.00019065897562727115,-7.98062565993597e-10,0.0,1.2980987468215432e-07,-0.0046722731180344,4.140313026160693e-12,-0.0034537599501840892,-3.2632211213860495e-08,0.0,4.16875563171227e-06,-0.030568651324583286,1.5684644852902768e-10,0.12269398318495431,0.12255601319894553,0.12255603199630771,0.12269400201851173
0.16,-1.0670923590712281e-05,1.9999999999715328,1.25,4.830461118932413e-09,-0.0004003164779762514,-3.601735569757094e-13,0.9999999799683398,2.415230475039276e-09,-0.00020015823765162508,3.0334151742468674e-13,-0.00022993002421487982,-1.2267828598212652e-09,0.0,1.7676987140966145e-07,-0.004977383198989254,5.950493605812136e-12,-0.003927104858724177,-4.7386825959234915e-08,0.0,5.329574588303368e-06,-0.03044960026789556,2.1172495054862707e-10,0.12269371412264134,0.12255628147366363,0.12255630550398897,0.12269373820182632
0.17,-1.3413256102121406e-05,1.999999999955021,1.25,6.861820612925818e-09,-0.00045161288391734096,-5.901462135218274e-13,0.9999999745057255,3.4309101523649323e-09,-0.00022580644003974666,4.796485431598269e-13,-0.00027423325113973756,-1.8391804146687007e-09,0.0,2.3640136644822168e-07,-0.005281265123392311,8.374812037133235e-12,-0.004430322692423421,-6.731446446279804e-08,0.0,6.716177835809422e-06,-0.030323035098717664,2.8089358044643266e-10,0.12269342804625741,0.122556566650512,0.12255659693121741,0.12269345839178429
0.18,-1.665191754252683e-05,1.9999999999306783,1.25,9.55848871435769e-09,-0.0005059417804564033,-9.386120352863075e-13,0.9999999680028645,4.779244085535957e-09,-0.000252970887530087,7.397036841319874e-13,-0.00032386614403850066,-2.6964961627660777e-09,0.0,3.110934281258499e-07,-0.005583843900963607,1.156836521474079e-11,-0.004963289289773433,-9.376878163057595e-08,0.0,8.355481210931292e-06,-0.030188986907668306,3.669253386569544e-10,0.12269312502175404,0.12255686865541357,0.12255690632510179,0.12269316277611746
0.19,-2.0443166297881367e-05,1.9999999998955191,1.25,1.3083689620296058e-08,-0.0005632897619511533,-1.4540692780436228e-12,0.9999999603380808,6.541844345920326e-09,-0.0002816448772520511,1.1154424683698866e-12,-0.00037912487553200784,-3.875256439284651e-09,0.0,4.0351099066684753e-07,-0.0058850448615456775,1.5713318810272323e-11,-0.005525873149185455,-1.2835100750269199e-07,0.0,1.0275721282708123e-05,-0.030047488624710458,4.726653253283776e-10,0.12269280511924115,0.12255718741017849,0.12255723373456869,0.12269285155270804
0.2,-2.4846208599426966e-05,1.9999999998456666,1.25,1.7628709249694316e-08,-0.0006236426777043351,-2.2003788867972084e-12,0.9999999513837267,8.814353853263543e-09,-0.0003118213337989704,1.64831442578547e-12,-0.00044030423014889466,-5.469945375166866e-09,0.0,5.166078537800124e-07,-0.0061847936734578165,2.102167172130834e-11,-0.006117935461429483,-1.7293765790806478e-07,0.0,1.2506412772131915e-05,-0.029898575011075724,6.012389031266797e-10,0.12269246841298957,0.12255752283254533,0.12255757921020898,0.12269252492940064
0.21,-2.9923183915434085e-05,1.9999999997761508,1.25,2.341584783840446e-08,-0.0006869856354400592,-3.2603694355305765e-12,0.9999999410063427,1.1707922668552247e-08,-0.000343492810965397,2.391403075981052e-12,-0.0005076975315916161,-7.595963306464091e-09,0.0,6.536392461094858e-07,-0.006483016361767192,2.7738096872805916e-11,-0.006739330143874312,-2.2970949952765938e-07,0.0,1.507830392963322e-05,-0.029742282650695086,7.560587860968937e-10,0.12269211498143398,0.12255787483622294,0.12255794280411833,0.12269218312380448
0.22,-3.5739149619205e-05,1.9999999996806783,1.25,3.0701495938979936e-08,-0.0007533030049624214,-4.740019324956548e-12,0.9999999290668237,1.5350745987944976e-08,-0.0003766514935755148,3.4118726558437366e-12,-0.0005815965703627997,-1.039288342476563e-08,0.0,8.181739323726768e-07,-0.006779639326471718,3.614284744324622e-11,-0.007389903876519703,-3.011817255882188e-07,0.0,1.8023329920739142e-05,-0.029578649941106948,9.40831018381304e-10,0.12269174490717549,0.12255824333093487,0.1225583245697304,0.12269182636308593
0.23,-4.236206493712276e-05,1.9999999995513638,1.25,3.977932916294934e-08,-0.0008225784219954985,-6.773267719011847e-12,0.9999999154205935,1.988966150633271e-08,-0.0004112891994022167,4.793770649026897e-12,-0.0006622915317697598,-1.4028018441215272e-08,0.0,1.0141058445242687e-06,-0.007074589360589331,4.6554717240432e-11,-0.00806949613981113,-3.9023529645516715e-07,0.0,2.1374564272494116e-05,-0.02940771708386711,1.159559809591823e-09,0.12269135827698407,0.1225586282224653,0.12255872456164293,0.12269145488375251
0.24,-4.986277418070482e-05,1.9999999993784259,1.25,5.098361680932144e-08,-0.0008947947922037529,-9.527506155176407e-12,0.9999998999177864,2.5491803722093458e-08,-0.0004473973811763691,6.641215720873711e-12,-0.0007500709243248971,-1.8700308565374254e-08,0.0,1.2456652178225591e-06,-0.0073677936681490605,5.933404363508268e-11,-0.008777939254227223,-5.001493974918318e-07,0.0,2.516616843546655e-05,-0.029229526074444484,1.416551196727806e-09,0.12269095518179993,0.12255902941270698,0.1225591428354379,0.12269106893142716
0.25,-5.831498926679656e-05,1.9999999991498405,1.25,6.469263933464944e-08,-0.0009699342953918484,-1.3209802922922365e-11,0.9999998824034346,3.2346312660348544e-08,-0.00048496712868576717,9.082001087866974e-12,-0.0008452215085596146,-2.4644541610335654e-08,0.0,1.5174292132335997e-06,-0.007659179882078221,7.488574117498812e-11,-0.009515058421629446,-6.346349647044741e-07,0.0,2.943333951834221e-05,-0.0290441206915779,1.7164155057131681e-09,0.12269053571673547,0.1225594467997114,0.12255957944749471,0.12269066876061466
0.26,-6.779527153021527e-05,1.9999999988509503,1.25,8.133220943725267e-08,-0.0010479783898827998,-1.8073912161988216e-11,0.9999998627176641,4.0666094400621383e-08,-0.0005239891709632463,1.2271643657437899e-11,-0.0009480282262692589,-3.213591552757927e-08,0.0,1.8343320081894034e-06,-0.007948676081980618,9.366235374934604e-11,-0.010280671768362979,-7.978692269009661e-07,0.0,3.421225625422564e-05,-0.02885154648613326,2.064068588893698e-09,0.12269009998107612,0.1225598802777396,0.12256003445479835,0.12269025463445833
0.27,-7.838301283332911e-05,1.9999999984640258,1.25,1.013792913513832e-07,-0.0011289078170733527,-2.4428119181992507e-11,0.9999998406958955,5.0689630706349715e-08,-0.0005644538785634013,1.6397909459402226e-11,-0.0010587741302064931,-4.14949531496538e-08,0.0,2.2016743383181124e-06,-0.008236210811800886,1.1616711295286208e-10,-0.01107459039009731,-9.945312113573912e-07,0.0,3.954002325982884e-05,-0.02865185076940998,2.464731818171553e-09,0.12268964807828112,0.12256032973731619,0.12256050791474046,0.12268982682448955
0.28,-9.016041597722805e-05,1.999999997967775,1.25,1.2536571277643362e-07,-0.0012127026061654182,-3.264397274241816e-11,0.9999998161690523,6.268283496831089e-08,-0.0006063512659273306,2.1685845952213444e-11,-0.0011777403142403768,-5.3092778376480065e-08,0.0,2.6251324733859802e-06,-0.008521713097368818,1.429569901127771e-10,-0.011896618398394504,-1.229838158313383e-06,0.0,4.5454613650721934e-05,-0.028445082600904708,2.923930816860436e-09,0.12268918011598302,0.1225607950652841,0.12256099988491602,0.12268938561036832
0.29,-0.00010321247441931635,1.9999999973367963,1.25,1.5388196370191437e-07,-0.0012993420790723415,-4.3165953953522074e-11,0.9999997889637747,7.694095159178884e-08,-0.0006496709938347958,2.8403351723765264e-11,-0.0013052058439983096,-6.735676248250125e-08,0.0,3.110766611332551e-06,-0.00880511246381898,1.746457292900708e-10,-0.012746552968992492,-1.509582788005599e-06,0.0,5.199481007775155e-05,-0.028231292775553717,3.447492916807874e-09,0.12268869620598803,0.12256127614486127,0.1225615104229143,0.12268893127961636
0.3,-0.0001176269513023252,1.9999999965409752,1.25,1.875810762310722e-07,-0.0013888048554987283,-5.652213006160706e-11,0.9999997589026395,9.379049587833459e-08,-0.0006944023719431664,3.686731391611882e-11,-0.0014414476880078627,-8.477654864769716e-08,0.0,3.6650286749410114e-06,-0.009086338952879892,2.1190684844893458e-10,-0.013624184391790337,-1.8401713624012478e-06,0.0,5.920014425159764e-05,-0.028010533810413074,4.041543330839929e-09,0.12268819646427401,0.12256177285569954,0.12256203958610437,0.12268846412734266
0.31,-0.00013349435779991392,1.999999995544814,1.25,2.2718257935486788e-07,-0.0014810688581924968,-7.333583966475917e-11,0.9999997258043858,1.1359123137734638e-07,-0.0007405343614124838,4.74503433851021e-11,-0.0015867406493553855,-1.0591046222628319e-07,0.0,4.294769496364504e-06,-0.009365323140027242,2.554765959068694e-10,-0.014529296122521743,-2.228662482311851e-06,0.0,6.711083502423017e-05,-0.027782859930792613,4.712500034138941e-09,0.12268768101098895,0.12256228507394436,0.12256258743141679,0.12268798445596134
0.32,-0.00015090793078419525,1.999999994306699,1.25,2.734765224837523e-07,-0.001576111318367767,-9.433845386709877e-11,0.9999996894841459,1.367381816105066e-07,-0.0007880555776159578,6.058813715841163e-11,-0.0017413572978781326,-1.3139231366340125e-07,0.0,5.007245375425615e-06,-0.009641996151495745,3.061568491317134e-10,-0.015461664836102614,-2.682806559153198e-06,0.0,7.576772509775546e-05,-0.027548327055837343,5.46706735174479e-09,0.12268714997044836,0.12256281267229667,0.12256315401512023,0.12268749257490297
0.33,-0.00016996360982068668,1.999999992778093,1.25,3.273275614074547e-07,-0.001673908781297151,-1.2038325552140663e-10,0.999999649753681,1.636636730034508e-07,-0.0008369542929351775,7.678749717917841e-11,-0.0019055679029065116,-1.6193860035296602e-07,0.0,5.810123998319613e-06,-0.009916289681143988,3.648179429417652e-10,-0.01642106048163791,-3.2110858992723993e-06,0.0,8.521221643278506e-05,-0.02730699278355956,6.312228252988094e-09,0.12268660347113185,0.12256335552007606,0.12256373939259428,0.12268698880031811
0.34,-0.00019076001349635364,1.9999999909026542,1.25,3.896791002229852e-07,-0.0017744371120719425,-1.5246047603334567e-10,0.9999996064216238,1.9483940579398844e-07,-0.0008872184396392921,9.663503361583988e-11,-0.002079640366572896,-1.9835611309976078e-07,0.0,6.711489704081316e-06,-0.010188136007166936,4.324014141914753e-10,-0.017407246339072487,-3.822755337488672e-06,0.0,9.548620443004264e-05,-0.027058916375291217,7.2552353572737664e-09,0.1226860416456786,0.12256391348328577,0.12256434361809784,0.12268647345477565
0.35000000000000003,-0.0002133984150865739,1.999999988615279,1.25,4.6155748264841016e-07,-0.00187767150152865,-1.917135262081732e-10,0.9999995592937223,2.3077854962482615e-07,-0.00093883561284739,1.2080658018384873e-10,-0.00226384015770329,-2.415499522066002e-07,0.0,7.719848086920466e-06,-0.010457468008649813,5.099226500872405e-10,-0.018419979077470068,-4.527883355292545e-06,0.0,0.00010663201096042058,-0.02680415873956279,8.303600659262878e-09,0.12268546463088262,0.12256448642467925,0.12256496674453488,0.12268594686695385
0.36,-0.0002379827175670138,1.9999999858410564,1.25,5.440762260248452e-07,-0.0019835864723402683,-2.394564543167098e-10,0.9999995081730916,2.720378604711389e-07,-0.00099179307357327,1.5007734796087e-10,-0.0024584302463079776,-2.9253195755362957e-07,0.0,8.844129923289728e-06,-0.010724219181958192,5.984734273767328e-10,-0.0194590088149039,-5.337393618020006e-06,0.0,0.0001186923163201099,-0.026542782415455313,9.465083985142998e-09,0.12268487256768638,0.12256507420382716,0.12256560882321624,0.12268540937132548
0.37,-0.00026461942797656625,1.9999999824941395,1.25,6.384402912016476e-07,-0.0020921558852706173,-2.971926609463499e-10,0.999999452860468,3.192198154995582e-07,-0.0010460777518517814,1.8533284308565607e-10,-0.0026636710386871002,-3.5242955637235464e-07,0.0,1.0093694413322664e-05,-0.010988323656958919,6.992243297901005e-10,-0.020524079179942173,-6.263106864265068e-06,0.0,0.00013171009018877797,-0.02627485155536225,1.0747680195275416e-08,0.12268426560117358,0.1225656766771875,0.12256626990361838,0.12268486130783832
0.38,-0.0002934176311376584,1.9999999784765232,1.25,7.459503814001266e-07,-0.0022033529455900216,-3.666348962911268e-10,0.9999993931544665,3.7297476240527313e-07,-0.0011016762499458702,2.2758057251309625e-10,-0.0028798203131669524,-4.2249503174255933e-07,0.0,1.1478331727065287e-05,-0.011249716213065437,8.134270312822412e-10,-0.021614927374710675,-7.317783079817661e-06,0.0,0.00014572852167002982,-0.026000431907163748,1.215960515209205e-08,0.12268364388056116,0.12256629369817544,0.12256695003314036,0.12268430302158875
0.39,-0.00032448896274039327,1.999999973676728,1.25,8.680072630593576e-07,-0.002317150209650565,-4.497265613293939e-10,0.9999993288518442,4.340030797280284e-07,-0.0011585748456334475,2.779625606557216e-10,-0.00310713315648259,-5.041152141566408e-07,0.0,1.300826484672326e-05,-0.011508332295102194,9.424164328319415e-10,-0.022731284239514607,-8.515163887514866e-06,0.0,0.00016079094849454797,-0.025719590795851306,1.3709280475702684e-08,0.12268300755918986,0.12256692511723574,0.12256764925685755,0.12268373486249184
0.4,-0.00035794758179714367,1.999999967968382,1.25,1.0061161015839702e-06,-0.0024335195916190566,-5.486643298467686e-10,0.9999992597477644,5.030573446059142e-07,-0.0012167594955731626,3.3776869827727045e-10,-0.0033458619008221763,-5.988215978038586e-07,0.0,1.4694150696956247e-05,-0.011764108028982463,1.0876126407962948e-09,-0.02387287431900095,-9.870015083573383e-06,0.0,0.0001769407854673964,-0.025432397104574542,1.5405317113186366e-08,0.12268235679451393,0.12256757078191556,0.12256836761727401,0.1226831571849456
0.41000000000000003,-0.00039391014247436924,1.9999999612086996,1.25,1.1618908048382244e-06,-0.002552432370365837,-6.659221034948171e-10,0.9999991856360662,5.809445043880263e-07,-0.0012762158387481385,4.0845094341921653e-10,-0.0035962560615482725,-7.083008825273532e-07,0.0,1.654708055607119e-05,-0.012016980237193685,1.2505227750956688e-09,-0.025039415929842206,-1.1398169250230887e-05,0.0,0.00019422145224201457,-0.025138921255130845,1.725649775101896e-08,0.12268169174808927,0.12256823053693908,0.12256910515407268,0.12268257034749146
0.42,-0.00043249576530857695,1.9999999532368526,1.25,1.3370583671633778e-06,-0.002673859196507455,-8.042763070428397e-10,0.9999991063095343,6.685280484933912e-07,-0.001336929199986695,4.916383924391929e-10,-0.0038585622756111253,-8.34405941700343e-07,0.0,1.857857974179654e-05,-0.01226688645408508,1.432742595816674e-09,-0.026230621229921765,-1.3116568373864512e-05,0.0,0.00021267630050430936,-0.024839235187864434,1.9271758103495857e-08,0.12268101258556023,0.12256890422428302,0.1225698619038645,0.12268197471247048
0.43,-0.00047382600781349584,1.9999999438722278,1.25,1.533463206636369e-06,-0.0027977700996012246,-9.66832525692314e-10,0.9999990215601743,7.667301768740361e-07,-0.0013988845935590645,5.891532374241414e-10,-0.004133024240668749,-9.791672155554762e-07,0.0,2.0800606566157376e-05,-0.012513764940950974,1.635957937165586e-09,-0.027446196289000798,-1.5043306397177014e-05,0.0,0.00023234854065107147,-0.024533412340982212,2.1460167113391558e-08,0.12268031947664597,0.12256959168325335,0.1225706378999369,0.12268137064567586
0.44,-0.0005180248344856802,1.9999999329125666,1.25,1.7530714882372765e-06,-0.0029241344954895727,-1.157053480793309e-09,0.9999989311794878,8.76533961414782e-07,-0.0014620667268490603,7.030276243142192e-10,-0.0044198826549284405,-1.1448045287837157e-06,0.0,2.3225550554817968e-05,-0.012757554700904724,1.8619459380845052e-09,-0.028685841160845573,-1.7197671633545937e-05,0.0,0.0002532811680477349,-0.024221527629356056,2.3830906104400133e-08,0.12267961259512447,0.12257029275056289,0.12257143317200044,0.12268075851600195
0.45,-0.0005652185862159022,1.9999999201319858,1.25,1.9979754255509482e-06,-0.003052921193792064,-1.3787883345427876e-09,0.9999988349587502,9.989854965812897e-07,-0.0015264600040996467,8.355214240398146e-10,-0.004719375157724129,-1.3337393304971975e-06,0.0,2.5866229927112075e-05,-0.012998195493538095,2.1125760592535886e-09,-0.029949249956794138,-1.9600188971219137e-05,0.0,0.00027551688895111303,-0.0239036574227346,2.6393246928053028e-08,0.12267889211881544,0.12257100726041037,0.12257224774593634,0.12268013869509062
0.46,-0.0006155359491138361,1.9999999052788715,1.25,2.2703975535946944e-06,-0.003184098405542948,-1.6363033082702689e-09,0.9999987326892914,1.1351960356111301e-06,-0.0015920485302313276,9.891409268375578e-10,-0.0050317362708437435,-1.548607353925077e-06,0.0,2.873588833384023e-05,-0.013235627849359416,2.3898108766455657e-09,-0.031236110920740388,-2.2272661794711947e-05,0.0,0.00029909804618330385,-0.023579879523363476,2.9156529150919016e-08,0.1226781582295617,0.12257173504456013,0.12257308164354308,0.12267951155697446
0.47000000000000003,-0.0006691079227536742,1.9999998880736438,1.25,2.5726949653390116e-06,-0.0033176337509719387,-1.9343135927418065e-09,0.999998624162775,1.286344108530185e-06,-0.0016588161147322263,1.166658467676406e-09,-0.005357197340620555,-1.7922716924832837e-06,0.0,3.184819085077815e-05,-0.013469793084005364,2.695706642271969e-09,-0.032546106505513026,-2.5238213550517355e-05,0.0,0.00032406654464344614,-0.023250273143126526,3.213013633106258e-08,0.12267741111320989,0.12257247593242267,0.1225739348822839,0.12267887747771797
0.48,-0.0007260677878484559,1.9999998682063875,1.25,2.9073635044721015e-06,-0.0034534942674259972,-2.2780165225548075e-09,0.999998509171482,1.4536776182685891e-06,-0.0017267462756187292,1.3711329883964641e-09,-0.005695986480802255,-2.0678362881292092e-06,0.0,3.521721922670915e-05,-0.013700633312221946,3.0324136032668173e-09,-0.03387891345062666,-2.8521328884081864e-05,0.0,0.00035046377674433917,-0.022914918880068483,3.5323471435432354e-08,0.12267665095958813,0.12257322975113596,0.12257480747503416,0.12267823683505656
0.49,-0.0007865510733610219,1.9999998453343462,1.25,3.2770419069513517e-06,-0.0035916464174297383,-2.673125980170213e-09,0.9999983875085925,1.6385159111466363e-06,-0.0017958222434655171,1.6059315397462223e-09,-0.006048328516211232,-2.3786598271814995e-06,0.0,3.8857466385664935e-05,-0.013928091461606734,3.402176070980616e-09,-0.03523420286138152,-3.2147894274925625e-05,0.0,0.0003783305478613048,-0.022573898694363843,3.87459314526967e-08,0.12267587796248344,0.12257399632564844,0.1225756994298306,0.12267759000803428
0.5,-0.0008506955230596432,1.9999998190792736,1.25,3.6845158838861673e-06,-0.0037320560968820498,-3.1259079884528074e-09,0.9999982589684694,1.8422518180017047e-06,-0.0018660269655037779,1.8747517240036536e-09,-0.0064144449272093545,-2.728370038054163e-06,0.0,4.278383018393525e-05,-0.014152111286109223,3.807332232320751e-09,-0.03661164028928773,-3.614523809679738e-05,0.0,0.0004077070018807953,-0.022227295883883377,4.2406881259095926e-08,0.12267509231961675,0.12257477547880109,0.12257661074962072,0.12267693737663969
0.51,-0.0009186410615265001,1.9999997890246388,1.25,4.1327221383064225e-06,-0.0038746886433865097,-3.6432174437831808e-09,0.9999981233469416,2.0663536622322264e-06,-0.0019373431097863946,2.1816450762887307e-09,-0.006794553794980236,-3.1208783846239994e-06,0.0,4.701160642328084e-05,-0.014372637379284401,4.2503136961625345e-09,-0.03801088581378982,-4.054217002985183e-05,0.0,0.00043863254693631557,-0.0218751950590795,4.6315626796743154e-08,0.12267429423261693,0.12257556703141162,0.12257754143201478,0.12267627932144173
0.52,-0.0009905297596273185,1.9999997547126838,1.25,4.624752308389479e-06,-0.004019508844713073,-4.2325359348846225e-09,0.9999979804415872,2.3123672310441015e-06,-0.0020097530694188487,2.531041380025264e-09,-0.00718886974764178,-3.5603951482217422e-06,0.0,5.155648112266156e-05,-0.014589615187290813,4.733644768255614e-09,-0.03943159412526675,-4.5369019752020175e-05,0.0,0.00047114578141935914,-0.021517682117394143,5.0481387626797196e-08,0.12267348390699243,0.12257637080235853,0.12257849146903921,0.12267561622322402
0.53,-0.001066505799450592,1.9999997156413247,1.25,5.1638568297461266e-06,-0.004166480947388451,-4.902010585495184e-09,0.9999978300520159,2.5819177061987083e-06,-0.0020832389668545516,2.927773909294586e-09,-0.007597603907201511,-4.051444890511195e-06,0.0,5.6434522051668024e-05,-0.014802991021632284,5.2599414486984784e-09,-0.040873414609281344,-5.065767483701289e-05,0.0,0.0005052844203528099,-0.02115484421722994,5.491326892221292e-08,0.1226726615521014,0.12257718660866593,0.12257946084689186,0.12267494846262014
0.54,-0.0011467154387249472,1.9999996712608987,1.25,5.753448709401991e-06,-0.004315568665412638,-5.660493851929155e-09,0.9999976719801523,2.8767115505798014e-06,-0.0021577826582533308,3.377105588048953e-09,-0.008020963837366953,-4.598882288797805e-06,0.0,6.166216952971776e-05,-0.015012712071635412,5.831910146699873e-09,-0.04233599143205417,-5.6441617786748486e-05,0.0,0.0005410852222141829,-0.020786769751356647,5.962023296648979e-08,0.12267182738112081,0.12257801426558872,0.12258044954570076,0.12267427641974818
0.55,-0.0012313069747233187,1.9999996209707476,1.25,6.397107204155716e-06,-0.004466735189098829,-6.517584199433609e-09,0.9999975060305151,3.1985383469190646e-06,-0.0022333657379017035,3.88475605332504e-09,-0.008459153492223046,-5.207908334589479e-06,0.0,6.725622649595168e-05,-0.015218726416659417,6.452346108028274e-09,-0.043818963627134624,-6.275596212644112e-05,0.0,0.0005785839162958,-0.020413548319837046,6.461107022713769e-08,0.12267098161101275,0.12257885358669789,0.12258145753928458,0.12267360047384641
0.56,-0.0013204307076627353,1.9999995641156392,1.25,7.098581396048985e-06,-0.004619943194034151,-7.483667574076884e-09,0.9999973320104981,3.5492725850469934e-06,-0.002309969542693634,4.456929606724517e-09,-0.008912373165788336,-5.8840868855188575e-06,0.0,7.323384785563376e-05,-0.015420983038032153,7.124131551242627e-09,-0.04532196518324328,-6.963748749110499e-05,0.0,0.0006178151306885878,-0.020035270702494293,6.98943700742764e-08,0.12267012446248934,0.12257970438396679,0.12258248479491743,0.12267292100290991
0.5700000000000001,-0.0014142389036086122,1.9999994999820183,1.25,7.861793657745436e-06,-0.004775154850158298,-8.569959579726543e-09,0.9999971497306477,3.930875394066913e-06,-0.002387575156670344,5.100344035516168e-09,-0.009380819442461379,-6.633361560028496e-06,0.0,7.961252910972344e-05,-0.015619431830709303,7.850233509513802e-09,-0.04684462513325737,-7.712467363284249e-05,0.0,0.0006588123209756015,-0.0196520288309859,7.547849121719777e-08,0.12266925615997622,0.1225805664678569,0.12258353127309589,0.12267223838332857
0.58,-0.0015128857568925756,1.9999994277940898,1.25,8.69084300068661e-06,-0.004932331830957442,-9.788548262509313e-09,0.9999969590049387,4.345396215885526e-06,-0.0024661634156178357,5.822260281769668e-09,-0.009864685148368567,-7.46207296351939e-06,0.0,8.641009427514579e-05,-0.01581402361465187,8.633701375586582e-09,-0.04838656764431274,-8.525773327897752e-05,0.0,0.0007016076997209941,-0.019263915760253658,8.137153193161563e-08,0.12266837693157355,0.122581439647404,0.1225845969273109,0.12267155298952614
0.59,-0.00161652735205294,1.9999993467097232,1.25,9.59000829897217e-06,-0.005091435322770419,-1.1152437398013304e-08,0.9999967596510483,4.794974416573071e-06,-0.002545714911720658,6.6305129349622645e-09,-0.010364159303624236,-8.376976233969825e-06,0.0,9.364468310414332e-05,-0.016004710145914376,9.477664148146115e-09,-0.04994741210899338,-9.407864377187144e-05,0.0,0.0007462321668397129,-0.018871025639695567,8.758130015276213e-08,0.1226674870090156,0.12258232373030506,0.12258568170382314,0.12267086519360286
0.6,-0.0017253216253070795,1.9999992558161839,1.25,1.0563751381999773e-05,-0.005252426034204404,-1.2675590169420599e-08,0.9999965514906274,5.281840832070361e-06,-0.002626209998270493,7.533541520513408e-09,-0.010879427075513716,-9.385258894346475e-06,0.0,0.00010133473761194005,-0.016191444127445782,1.0385327378641825e-08,-0.05152677323758049,-0.0001036311774221211,0.0,0.0007927152409317758,-0.01847345368398371,9.41152835115846e-08,0.12266658662762844,0.12258321852300369,0.12258678554144262,0.122670175364979
0.61,-0.0018394283255650208,1.9999991541256799,1.25,1.1616719988996095e-05,-0.005415264205657117,-1.4372973117764776e-08,0.9999963343495689,5.808319244808112e-06,-0.002707628794428114,8.540422553706815e-09,-0.011410669732609612,-1.049455899845376e-05,0.0,0.00010949898792277884,-0.01637417921959405,1.1359969818377807e-08,-0.053124261151332536,-0.00011396093050778039,0.0,0.0008410849916646978,-0.018071296143286168,1.0098061938993989e-07,0.12266567602628578,0.12258412383077691,0.12258790837131354,0.12266948387004237
0.62,-0.0019590089749937038,1.9999990405707289,1.25,1.2753750578675115e-05,-0.005579909618942577,-1.6260600238618182e-08,0.999996108058273,6.376827787856474e-06,-0.0027899511900371975,9.660902325461857e-09,-0.011958064599831387,-1.1712983556201726e-05,0.0,0.000118156437445234,-0.016552870050311506,1.2404939766440622e-08,-0.054739481476766466,-0.00012511535085327067,0.0,0.0008913679732868455,-0.017664650273266358,1.0818406507320009e-07,0.12266475544736274,0.12258503945782107,0.12258905011670336,0.12266879107179851
0.63,-0.002084226829141438,1.9999989139993364,1.25,1.3979870987372713e-05,-0.0057463216070174185,-1.8355577092751097e-08,0.9999958724519085,6.989880273279258e-06,-0.0028731568504885164,1.0905430383424509e-08,-0.012521785014457965,-1.3049127223617661e-05,0.0,0.00012732634738851575,-0.016727472225059378,1.3523651119841808e-08,-0.056372035440911364,-0.00013714376392275171,0.0,0.0009435891593527225,-0.017253614304644713,1.1573196807904039e-07,0.12266382513668739,0.12258596520733778,0.12259021069279766,0.12266809732952466
0.64,-0.0022152468366321916,1.9999987731699869,1.25,1.5300302929127616e-05,-0.005914459063804745,-2.067614479169078e-08,0.9999956273706723,7.650087441427962e-06,-0.0029572252216329862,1.2285193668870098e-08,-0.01310200028310281,-1.4512091242283334e-05,0.0,0.00013702822063228846,-0.0168979423364044,1.471957912802143e-08,-0.05802151996750413,-0.0001500973973639077,0.0,0.0009977718787410562,-0.01683828741247742,1.236302367412964e-07,0.12266288534349194,0.12258690088161912,0.12259139000650025,0.12266740299842768
0.65,-0.0023522355984394246,1.999998616746444,1.25,1.6720464331307463e-05,-0.006084280454112361,-2.3241723712666726e-08,0.9999953726600417,8.360158127975347e-06,-0.0030421355347419994,1.3812151266953652e-08,-0.013698875639660619,-1.6111502612248816e-05,0.0,0.00014728178496333687,-0.017064237973308926,1.5996255854667737e-08,-0.05968752777409733,-0.0001640294039393667,0.0,0.0010539377530446752,-0.016418769685119447,1.3188431112775238e-07,0.12266193632035985,0.12258784628213307,0.1225925879562387,0.12266670842930667
0.66,-0.0024953613267492914,1.9999984432923563,1.25,1.8245971499516253e-05,-0.006255743823642426,-2.607295679118404e-08,0.999995108171026,9.122900345557088e-06,-0.003127866811513555,1.549906972491692e-08,-0.01431257220423448,-1.7857533481856227e-05,0.0,0.00015810697569318196,-0.01722631773010679,1.7357265350576478e-08,-0.06136964747004916,-0.00017899488278431397,0.0,0.0011121066354098828,-0.015995162092809212,1.404991343719616e-07,0.12266097832317299,0.12258880120960773,0.12259380443177684,0.12266601396821934
0.67,-0.0026447938034230914,1.9999982512656698,1.25,1.988264110566343e-05,-0.006428806809089212,-2.9191752233436194e-08,0.9999948337604104,9.941222276962309e-06,-0.003214397869122532,1.735955888997146e-08,-0.014943246943052027,-1.9760920737302774e-05,0.0,0.00016952391767153453,-0.01738414121516511,1.880623854210697e-08,-0.06306746365536404,-0.00019505089893027155,0.0,0.0011722965509024423,-0.015567566456109287,1.494791244979409e-07,0.12266001161105589,0.12258976546411562,0.12259503931403197,0.12266531995615479
0.68,-0.002800704338068956,1.9999980390128413,1.25,2.1636491993227846e-05,-0.006603426648321982,-3.262132548498432e-08,0.9999945492909976,1.0818133176890453e-05,-0.0033017073253136108,1.9408108215733474e-08,-0.01559105262937879,-2.1832985774183657e-05,0.0,0.0001815529067112308,-0.017537669059228975,2.0346847840535296e-08,-0.0647805570203542,-0.00021225650103651465,0.0,0.0012345236384748667,-0.015136085413971871,1.5882814681504125e-07,0.12265903644631819,0.12259073884515692,0.12259629247490031,0.12266462672871073
0.6900000000000001,-0.002963265725732831,1.9999978047628548,1.25,2.3513746793909234e-05,-0.006779560190649644,-3.638624028660264e-08,0.999994254631843,1.1756744179371836e-05,-0.003389773603535171,2.166012348329499e-08,-0.0162561378054367,-2.4085654432681783e-05,0.0,0.00019421439044103186,-0.017686862923444548,2.1982801478407794e-08,-0.06650850444608994,-0.00023067273727215347,0.0,0.0012988020946085258,-0.014700822391691161,1.6854948696501267e-07,0.12265805309439588,0.12259172115174208,0.12259756377708768,0.12266393461577692
0.7000000000000001,-0.0031326522042188806,1.9999975466210371,1.25,2.5520833350027246e-05,-0.006957163907164079,-4.051244864295206e-08,0.9999939496584841,1.2760269008033165e-05,-0.003478574938112611,2.4131963880286543e-08,-0.016938646745335347,-2.653147707751373e-05,0.0,0.00020752894860340132,-0.017831685507062798,2.371783757983555e-08,-0.06825087910560822,-0.00025036266929355077,0.0,0.0013651441187029234,-0.014261881568568974,1.7864582469513513e-07,0.12265706182379006,0.12259271218247347,0.12259885307394847,0.12266324394122456
0.71,-0.0033090394110495244,1.9999972625626707,1.25,2.766438593720243e-05,-0.007136193901158877,-4.502732952480821e-08,0.999993634253166,1.3832024586476637e-05,-0.0035680893794594517,2.6840979378625943e-08,-0.0176387194190232,-2.918364880320099e-05,0.0,0.00022151727281509033,-0.017972100554815927,2.5555717972310496e-08,-0.07000725056584794,-0.00027139138426344984,0.0,0.0014335598602823157,-0.013819367845357977,1.8911920843447965e-07,0.12265606290600402,0.12259371173562665,0.12260016020933062,0.12266255502260223
0.72,-0.0034926043400753852,1.999996950426406,1.25,2.995124628203494e-05,-0.007316605918620179,-4.995972612096441e-08,0.9999933083050591,1.497543154613224e-05,-0.0036582947993245834,2.9805548349063545e-08,-0.018356491457265898,-3.205602974471272e-05,0.0,0.00023620014580904764,-0.018108072863969957,2.7500221748525142e-08,-0.07177718489027987,-0.0002938260048599647,0.0,0.0015040573680884974,-0.013373386811827738,1.9997103075192273e-07,0.1226550566154789,0.1225947196092296,0.12260148501742876,0.12266186817083904
0.73,-0.003683525297745488,1.9999966079074687,1.25,3.238846436968506e-05,-0.007498355358786468,-5.5339981451670494e-08,0.9999929717104723,1.6194014629037112e-05,-0.003749168896074055,3.304511534813491e-08,-0.019092094117658154,-3.51631654730213e-05,0.0,0.0002515984201768603,-0.018239568291052482,2.955513858734895e-08,-0.07356024474220042,-0.0003177356972254267,0.0,0.0015766425411254262,-0.012924044713903682,2.1120200476762345e-07,0.1226540432295276,0.12259573560114193,0.12260282732264463,0.12266118368995449
0.74,-0.0038819818590481213,1.999996232550663,1.25,3.4983299036454656e-05,-0.007681397284773965,-6.119997215157724e-08,0.9999926243730594,1.749140298309373e-05,-0.003840689200005753,3.6580229010723805e-08,-0.019845654251675632,-3.8520307454626405e-05,0.0,0.00026773299663155616,-0.01836655375824803,3.172426184387761e-08,-0.07535598948865697,-0.0003431916768069901,0.0,0.0016513190817213981,-0.012471448420723306,2.2281214159138242e-07,0.12265302302826597,0.12259675950913247,0.1226041869394557,0.12266050187677566
0.75,-0.004088154823132823,1.999995821743171,1.25,3.7743218342669284e-05,-0.007865686434264305,-6.757314022664571e-08,0.9999922662040175,1.8871330347459145e-05,-0.003932833078695287,4.0432579979129804e-08,-0.02061729427277289,-4.214343355363713e-05,0.0,0.00028462480181128824,-0.018488997259466948,3.40113814191766e-08,-0.07716397530497278,-0.0003702672120428696,0.0,0.0017280884506729818,-0.012015705391934042,2.3480072885672253e-07,0.12265199629454382,0.12259779113095544,0.12260556367229118,0.12265982302066307
0.76,-0.004302226168624021,1.9999953727071456,1.25,4.067589972137019e-05,-0.008051177230251325,-7.449452258638898e-08,0.9999918971222811,2.0337635125822376e-05,-0.004025577742371507,4.462503879733257e-08,-0.02140713212553297,-4.604926855455562e-05,0.0,0.0003022947656450158,-0.018606867866086712,3.642027642101206e-08,-0.07898375527984035,-0.00039903762585011987,0.0,0.0018069498245279214,-0.011556923644615545,2.471663104249684e-07,0.12265096331387335,0.12259883026442542,0.12260695731541667,0.12265914740324387
0.77,-0.004524379008636906,1.9999948824920992,1.25,4.378922989853695e-05,-0.00823782379184355,-8.200077815012792e-08,0.9999915170547075,2.1894260345433367e-05,-0.004118900249319935,4.9181693697055455e-08,-0.02221528125587413,-5.02553046834803e-05,0.0,0.00032076379830184667,-0.01872013573235926,3.895470762767597e-08,-0.08081487952095075,-0.00042958029487195226,0.0,0.0018879000550681725,-0.01109521172027797,2.5990666732531103e-07,0.12264992437435582,0.12259987670749126,0.12260836765282737,0.12265847529815359
0.78,-0.00475479754550616,1.999994347967089,1.25,4.7091304580782654e-05,-0.008425579945119123,-9.013021232370546e-08,0.9999911259362547,2.3545253499857315e-05,-0.004212777511312484,5.4127888200263005e-08,-0.023041850582318706,-5.4779822105043036e-05,0.0,0.00034005276674637925,-0.01882877210049227,4.161840976751828e-08,-0.08265689526112724,-0.0004619746464447421,0.0,0.0019709336310509465,-0.01063067865208888,2.730187999901075e-07,0.12264887976660746,0.12260093025830751,0.12260979445814899,0.12265780697078746
0.79,-0.004993667025238233,1.999993765812694,1.25,5.059042790668856e-05,-0.008614399234029914,-9.892279864132763e-08,0.9999907237101535,2.5294766273541336e-05,-0.004307186299061826,5.949025846088464e-08,-0.02388694446832887,-5.964190937201249e-05,0.0,0.0003601824709228656,-0.018932749305401037,4.441508362747812e-08,-0.08450934696493174,-0.0004963021532470804,0.0,0.0020560426422584206,-0.010163433931873606,2.8649891185512137e-07,0.12264782978368342,0.12260199071530542,0.12261123749454814,0.12265714267805963
0.8,-0.005241173691697866,1.9999931325127929,1.25,5.4295111658175335e-05,-0.008804234931351471,-1.0842019736587967e-07,0.99999031032807,2.714705414639551e-05,-0.0044021032476987436,6.529677026684818e-08,-0.02475066269571373,-6.486148380413642e-05,0.0,0.00038117361959154767,-0.019032040779129743,4.734838800462071e-08,-0.0863717764357121,-0.0005326463255954836,0.0,0.002143216745910376,-0.00969358747726027,3.003423943830433e-07,0.12264677472099952,0.12260305787726163,0.12261269651465119,0.12265648266817233
0.81,-0.005497504740539648,1.999992444346135,1.25,5.821407422854454e-05,-0.008995040049675565,-1.1866577084024395e-07,0.9999898857502618,2.91064758767089e-05,-0.004497504862270823,7.157675562193817e-08,-0.025633100439111853,-7.045931177245884e-05,0.0,0.00040304680584107313,-0.019126621054946242,5.042193151513898e-08,-0.08824372292305861,-0.000571092701353685,0.0,0.0022324431354899497,-0.009221249599090584,3.14543813566619e-07,0.12264571487625389,0.12260413154336514,0.12261417126047228,0.122655827180395
0.8200000000000001,-0.005762848272895398,1.9999916973777125,1.25,6.235623934406448e-05,-0.009186767352442013,-1.297045953818169e-07,0.9999894499457253,3.1177492860841714e-05,-0.004593367523260843,7.836094882556923e-08,-0.02653434824155303,-7.64570288650354e-05,0.0,0.00042582248230134666,-0.019216465771111555,5.363926427595309e-08,-0.09012472323063861,-0.0006117288334247894,0.0,0.002323706512027867,-0.008746530968786574,3.2909689796604025e-07,0.1226446505493464,0.12260521151328214,0.12261566146335005,0.12265517644485228
0.8300000000000001,-0.0060373932488281936,1.9999908874499301,1.25,6.673073453622054e-05,-0.009379369365006603,-1.4158346951260654e-07,0.9999890028923343,3.336466836825788e-05,-0.004689667492123256,8.568152196729275e-08,-0.027454491991102736,-8.287715990968035e-05,0.0,0.00044952093608163047,-0.019301551674321973,5.700386947445979e-08,-0.09201431182437769,-0.0006546442747979806,0.0,0.002416989057891334,-0.008269542585969715,3.439945283331881e-07,0.12264358204229678,0.12260629758722011,0.12261716684389412,0.12265453068232343
0.84,-0.006321329440563939,1.9999900101735768,1.25,7.13468893619999e-05,-0.009572798385741765,-1.5435091831799117e-07,0.9999885445769722,3.5672666650587476e-05,-0.004786380916837085,9.357211975173735e-08,-0.02839361289859248,-8.974313882911411e-05,0.0,0.00047416226345917335,-0.01938185662283095,6.051915484261685e-08,-0.09391202094095605,-0.0006999305611239102,0.0,0.0025122704131194224,-0.007790395746281112,3.5922872887158707e-07,0.12264250965916182,0.12260738956598835,0.12261868711194006,0.122653890104051
0.85,-0.006614847385511361,1.9999890609186006,1.25,7.621423336983516e-05,-0.009767006497166924,-1.6805719372846582e-07,0.9999880749956533,3.8106251923536025e-05,-0.00488348383747369,1.0206789356872882e-07,-0.029351787476438886,-9.70793283036407e-05,0.0,0.0004997663443440189,-0.019457359589247596,6.418844405189153e-08,-0.09581738069659021,-0.000747681190795406,0.0,0.0026095276543450993,-0.007309202009392682,3.7479066017583493e-07,0.12264143370595115,0.12260848725105755,0.12262022196651516,0.12265325491156098
0.86,-0.006918138339081336,1.9999880348046888,1.25,8.134249380908938e-05,-0.009961945577105112,-1.827542705204641e-07,0.9999875941536368,4.067028722058681e-05,-0.00498095219177771,1.1120553472254534e-07,-0.030329087518554097,-0.00010491103921626842,0.0,0.0005263528165460753,-0.019528040663018803,6.801496804613355e-08,-0.09772991919606781,-0.0007979916025126409,0.0,0.002708735276340786,-0.006826073167357817,3.9067061389380223e-07,0.12264035449054145,0.1226095904446168,0.1226217710958117,0.12265262529649334
0.87,-0.007231394227316524,1.9999869266916543,1.25,8.674159308122827e-05,-0.01015756730986298,-1.9849583783469088e-07,0.9999871020655314,4.3369733117574105e-05,-0.005078761820759708,1.2102330673364463e-07,-0.031325580081349634,-0.00011326454985499905,0.0,0.0005539410498708346,-0.019593881052594752,7.200185632976757e-08,-0.09964916264200711,-0.0008509591503144999,0.0,0.002809865176221386,-0.006341121213123031,4.06858009148564e-07,0.12263927232259057,0.12261069894962857,0.12262333417717194,0.12265200144044393
0.88,-0.0075548075993422505,1.9999857311696343,1.25,9.242164593108838e-05,-0.010353823197430704,-2.1533728601325384e-07,0.9999865987553913,4.620964632733742e-05,-0.005176888474298807,1.315610766257544e-07,-0.032341327465835824,-0.0001221671248468467,0.0,0.0005825501200705031,-0.019654863087281264,7.615212822910483e-08,-0.10157463544430909,-0.0009066830760604565,0.0,0.0029128866403382585,-0.00585445830953938,4.2334139075774577e-07,0.12263818751344982,0.12261181256988088,0.12262491087708143,0.12265138351481744
0.89,-0.007888571579649626,1.9999844425490996,1.25,9.83929563769226e-05,-0.010550664570699008,-2.3333568856035065e-07,0.9999860842568024,4.919517816380231e-05,-0.005275307816753891,1.4286034511095068e-07,-0.03337638720081832,-0.0001316470337980107,0.0,0.0006121987826775998,-0.01971097021878554,8.046868414492249e-08,-0.10350586032977446,-0.0009652644793499213,0.0,0.003017766333891428,-0.005366196758499128,4.4010842927464726e-07,0.12263710037607486,0.12261293111003828,0.12262650085117202,0.1226507716806923
0.9,-0.008232879820221898,1.9999830548506818,1.25,0.00010466601437817208,-0.010748042600690016,-2.5254977903525067e-07,0.9999855586129598,5.233157287496857e-05,-0.005373995432581721,1.5496427558526231e-07,-0.03443081202719307,-0.00014173356961451588,0.0,0.0006429054467483316,-0.019762187022451246,8.495429681459778e-08,-0.10544235845185436,-0.001026806284868676,0.0,0.003124468293288563,-0.0048764489706041095,4.5714592288501366e-07,0.12263601122493692,0.12261405437568922,0.12262810374423568,0.12265016608869653
0.91,-0.008587926452515037,1.9999815617948198,1.25,0.00011125149224019084,-0.010945908309798935,-2.730399226908952e-07,0.9999850218767359,5.5624165844424526e-05,-0.005472926831960492,1.679177218474391e-07,-0.03550464988334085,-0.00015245706647755035,0.0,0.0006746881485433711,-0.019808499198197622,8.961160260262276e-08,-0.10738364950050726,-0.0010914132071546969,0.0,0.003232953921273549,-0.00438532743537931,4.744398011844744e-07,0.12263492037593302,0.122615182173391,0.1226297191902466,0.1226495668788965
0.92,-0.00895390603930357,1.9999799567912273,1.25,0.00011816024075542546,-0.011144212583043699,-2.948680826765822e-07,0.999984474110739,5.907838166114449e-05,-0.005572077456417347,1.8176725445380445e-07,-0.0365979438916221,-0.00016384891744767398,0.0,0.0007075645251738026,-0.019849893571158832,9.444309283828726e-08,-0.1093292518121326,-0.0011591917127783853,0.0,0.00334318198484451,-0.003892944691571802,4.91975130841816e-07,0.12263382814629342,0.12261631431071345,0.12263134681239445,0.12264897418069687
0.93,-0.009331013526402693,1.9999782329281912,1.25,0.00012540328508083042,-0.011342906179319424,-3.1809778062890155e-07,0.9999839153873622,6.269973205746587e-05,-0.0056714226844583136,1.9656118562258845e-07,-0.03771073234597259,-0.00017594159167204094,0.0,0.0007415517882402613,-0.019886358092029058,9.945110521945908e-08,-0.11127868247955369,-0.0012302499799349527,0.0,0.003455108615980955,-0.0033994132981083475,5.09736123174993e-07,0.12263273485449104,0.12261745059627864,0.12263298622312728,0.1226483881127527
0.9400000000000001,-0.009719444194277642,1.9999763829616974,1.25,0.00013299182035158086,-0.011541939742654914,-3.4279405148137655e-07,0.999983345788822,6.649381371528327e-05,-0.005770937837199235,2.1234959260179996e-07,-0.03884304870059999,-0.00018876865116877764,0.0,0.0007766666974934217,-0.019917881837121,1.0463781530178712e-07,-0.11323145746202146,-0.0013046978554494563,0.0,0.00356868731519488,-0.002904845805645935,5.277061436586706e-07,0.12263164082014906,0.12261859083979858,0.12263463702420338,0.12264780878289468
0.9500000000000001,-0.010119393609551402,1.9999743993043948,1.25,0.0001409372070314278,-0.011741263813468322,-3.690233923301065e-07,0.999982765407189,7.046630594063784e-05,-0.00587059818399627,2.2918433941555278e-07,-0.039994921559781536,-0.00020236476716268412,0.0,0.0008129255345441589,-0.019944455008141976,1.100052280926325e-07,-0.1151870916952128,-0.001382646809197753,0.0,0.003683868957919949,-0.002409354728486607,5.458677233459342e-07,0.1226305463639473,0.12261973485210995,0.12263629880675408,0.12264723628806609
0.96,-0.010531057576421712,1.999972274014398,1.25,0.000149250966000323,-0.011940828839819145,-3.968537052001136e-07,0.999982174344407,7.46229682070223e-05,-0.005970378948074538,2.471190969048093e-07,-0.041166374668762155,-0.00021676573594647824,0.0,0.0008503440766518207,-0.01996606893169073,1.1555516976870581e-07,-0.11714509920119626,-0.0014642098859494151,0.0,0.003800601803744658,-0.0019130525170416718,5.642025722215102e-07,0.12262945180752904,0.12262088244520641,0.12263797115135593,0.12264667071427222
0.97,-0.010954632087998415,1.9999699987839359,1.25,0.0001579447733802261,-0.012140585188653802,-4.2635423356506056e-07,0.9999815727123028,7.896963756786436e-05,-0.006070255312153522,2.66209360979745e-07,-0.04235742690575276,-0.00023200849424188553,0.0,0.000888937570619052,-0.01998271605848281,1.212892795370627e-07,-0.11910499319833913,-0.00154950165464144,0.0,0.003918831508501033,-0.0014160515310432387,5.826915944903289e-07,0.12262835747340757,0.12262203343226788,0.12263965362811288,0.1226461121365436
0.98,-0.01139031327757213,1.9999675649278512,1.25,0.0001670304551002919,-0.012340483157042146,-4.5759549248152306e-07,0.9999809606325872,8.351222593879356e-05,-0.006170202424067903,2.865124690023724e-07,-0.043568092275027566,-0.0002481311340349845,0.0,0.0009287207068218414,-0.019994389962311596,1.2720900165851239e-07,-0.12106628621113043,-0.0016386381550943835,0.0,0.004038501139209716,-0.0009184640131432859,6.013149057823313e-07,0.12262726368487109,0.12262318762768679,0.12264134579674783,0.12264556061891044
0.99,-0.011838297369825257,1.9999649633719545,1.25,0.00017651998120292266,-0.012540472983402239,-4.906491922080649e-07,0.9999803382368441,8.825671725044086e-05,-0.00627019540238249,3.080876142196895e-07,-0.04479837990111963,-0.00026517291686035645,0.0,0.0009697075934032463,-0.020001085338745676,1.3331557765270932e-07,-0.12302849017989508,-0.001731736842185356,0.0,0.004159551191880927,-0.0004204020631323746,6.200518522659578e-07,0.12262617076588864,0.12262434484709225,0.1226430472067052,0.12264501621439061
1.0,-0.012298780631996263,1.9999621846412412,1.25,0.00018642545989245226,-0.012740504858710788,-5.255881551889352e-07,0.9999797056665106,9.320916447266057e-05,-0.006370209341999937,3.30995858169436e-07,-0.046048294024112944,-0.0002831742875087515,0.0,0.00101191173065946,-0.020002798003574244,1.3961003870383154e-07,-0.12499111657037441,-0.0018289165274950985,0.0,0.004281919612177321,7.802238696421465e-05,6.388810316563652e-07,0.12262507904101509,0.12262550490737016,0.12264475739726163,0.12264447896499098
1.01,-0.012771959325008247,1.9999592188479745,1.25,0.00019675913132852162,-0.012940528937696864,-5.624862262923708e-07,0.9999790630728487,9.837568651121077e-05,-0.006470219319760025,3.5530014098254804e-07,-0.04731783399602984,-0.0003021768871331792,0.0,0.0010553459856467928,-0.01999952489100639,1.4609319828583663e-07,-0.12695367648314979,-0.001930297318449199,0.0,0.004405541818925133,0.0005766975973950025,6.577803161098594e-07,0.12262398883529646,0.12262666762668135,0.12264647589764796,0.12264394890172063
1.02,-0.013258029654572696,1.9999560556796439,1.25,0.00020753336116648247,-0.013140495350016278,-6.014181762040701e-07,0.9999784106169037,0.00010376246497806738,-0.006570200400029253,3.8106528950860196e-07,-0.0486069942783115,-0.000322223565728549,0.0,0.0011000225670379626,-0.019991264051626344,1.5276564502602873e-07,-0.12891568076288595,-0.00203600055497626,0.0,0.004530350730472222,0.0010755120443168772,6.767268769535299e-07,0.12262290047417419,0.12262783282447628,0.12264820222717931,0.12264342604461811
1.03,-0.013757187722279348,1.9999526843868016,1.25,0.0002187606338474582,-0.0133403542114044,-6.424595978875694e-07,0.9999777484694562,0.00010937574083669195,-0.006670127640279547,4.083580231929201e-07,-0.04991576444038992,-0.00034335839396023866,0.0,0.0011459530002562372,-0.019978014650120054,1.5962773582490723e-07,-0.13087664010737177,-0.0021461487437086646,0.0,0.004656276793880422,0.0015743544427449657,6.956972112464672e-07,0.12262181428339103,0.12262900032150643,0.12264993589539623,0.1226429104027911
1.04,-0.014269629476683107,1.9999490937707884,1.25,0.0002304535456409698,-0.01354005563480507,-6.856867960348858e-07,0.9999770768109607,0.00011522181092371402,-0.006769976096654977,4.372469576365754e-07,-0.05124412915934876,-0.00036562667431724405,0.0,0.001193148102915571,-0.019959776962771444,1.6667958925095807e-07,-0.13283606517633717,-0.0022608654897543438,0.0,0.004783248016936178,0.002073113769066222,7.146671701406704e-07,0.12262073058889482,0.12263016993983393,0.12265167640221444,0.12264240197446852
1.05,-0.014795550664398815,1.9999452721713504,1.25,0.0002426247974433189,-0.013739549741473317,-7.311766694428295e-07,0.9999763958314773,0.00012130702434862926,-0.00686972082952528,4.6780260577328874e-07,-0.05259206822067074,-0.00038907495156586695,0.0,0.0012416179605949608,-0.01993655237473873,1.7392107922772063e-07,-0.13479346670002412,-0.0023802754260707198,0.0,0.004911190002973792,0.0025716792823987297,7.336119889784568e-07,0.12261964971674451,0.12263134150283646,0.12265342323808437,0.12264190074706664
1.06,-0.015335146781214793,1.9999412074541587,1.25,0.00025528718733520115,-0.013938786672049832,-7.790065862630096e-07,0.9999757057305921,0.00012763777877325668,-0.006969336909025185,5.000973766001286e-07,-0.053959556520068834,-0.0004137510224802337,0.0,0.0012913719029750469,-0.01990834337712347,1.813518290305272e-07,-0.1367483555874924,-0.0025045041404747727,0.0,0.005040025988480804,0.003069940545329629,7.525063191192594e-07,0.12261857199301462,0.12263251483521062,0.12265517588415961,0.12264140669726817
1.07,-0.01588861302323593,1.9999368869982368,1.25,0.00026845360290230245,-0.014137716597605026,-8.292542520864992e-07,0.9999750067173274,0.00013422051657283616,-0.007068799420578447,5.342055714020275e-07,-0.0553465640663985,-0.000439703944826293,0.0,0.0013424184803645768,-0.019875153563832137,1.8897120561010582e-07,-0.13870024303464035,-0.002633678100325907,0.0,0.0051696768834691926,0.0035677874441536125,7.71324261409922e-07,0.12261749774370127,0.1226336897629708,0.12265693381247544,0.12264091979111243
1.08,-0.01645614423806709,1.9999322976833032,1.25,0.0002821370133229058,-0.014336289730650743,-8.819975708375486e-07,0.9999742990100432,0.00014106172088078583,-0.0071680834704056125,5.702033774133951e-07,-0.056753055985647685,-0.0004669840455763305,0.0,0.0013947654406444307,-0.019836987628240398,1.9677831425872565e-07,-0.14064864063192112,-0.002767924574921002,0.0,0.005300061314591261,0.004065110207938233,7.900394013055224e-07,0.12261642729462718,0.12263486611344676,0.12265869648613548,0.12264043998410101
1.09,-0.017037934876047656,1.999927425877039,1.25,0.00029635046122681414,-0.014534456336117593,-9.373144984645461e-07,0.9999735828363272,0.00014816791151927748,-0.007267164191014499,6.081688588635408e-07,-0.058178992526001484,-0.000495642928331451,0.0,0.001448419706656402,-0.019793851359673372,2.0477199363621627e-07,-0.14259306047173712,-0.002907371555643748,0.0,0.005431095670967753,0.004561799426927929,8.086248455543276e-07,0.12261536097134866,0.12263604371527588,0.1226604633595079,0.12263996722131427
1.1,-0.01763417894154785,1.9999222574222872,1.25,0.00031110705433016474,-0.014732166742296294,-9.952828894306359e-07,0.9999728584328783,0.0001555456408179217,-0.007366016746672567,6.48181945356211e-07,-0.05962432906397805,-0.0005257334799299204,0.0,0.0015033873540637858,-0.01974575163970184,2.129508111698122e-07,-0.14453301525549528,-0.0030521476739130277,0.0,0.00556269415270342,0.005057746070412719,8.270532603261767e-07,0.12261429909906081,0.12263722239839506,0.12266223387843067,0.12263950143754113
1.11,-0.018245069944337586,1.9999167776241906,1.25,0.0003264199568509794,-0.014929371351740914,-1.055980336020906e-06,0.9999721260453768,0.00016320148932299073,-0.0074646163388601494,6.90324417537287e-07,-0.0610890161116319,-0.0005573098762197254,0.0,0.0015596735897104705,-0.019692696438265118,2.213130588427398e-07,-0.1464680184003055,-0.0032023821169777384,0.0,0.005694768822051444,0.005552841503399936,8.452969108811516e-07,0.12261324200250542,0.12263840199402713,0.12266400748042525,0.12263904255742146
1.12,-0.018870800851038413,1.99991097123728,1.25,0.00034230238071056236,-0.015126020652132678,-1.1194840004980103e-06,0.999971385928348,0.00017114206139973832,-0.007562938211703826,7.346798900085867e-07,-0.06257299932482129,-0.0005904275869742038,0.0,0.0016172827305048147,-0.01963469480963384,2.2985674938743523e-07,-0.14839758414530824,-0.0033582045416080866,0.0,0.00582722965720196,0.006046977502598312,8.633277025790162e-07,0.1226121900058779,0.12263958233466536,0.12266578359491886,0.12263859049560115
1.1300000000000001,-0.019511564036669246,1.9999048224525193,1.25,0.0003587675765261178,-0.01532206522710247,-1.1858704401532154e-06,0.9999706383450148,0.00017937398073050682,-0.007660957657389057,7.813337914497445e-07,-0.06407621951253523,-0.000625143379930116,0.0,0.0016762181828545097,-0.01957175688821315,2.3857961289432013e-07,-0.15032122765761444,-0.003519744985735925,0.0,0.005959984608649559,0.0065400462717867675,8.811172231425601e-07,0.12261114343273508,0.12264076325405553,0.12266756164347573,0.12263814515689908
1.1400000000000001,-0.020167551236296384,1.9998983148843172,1.25,0.00037582882440022396,-0.015517455767010704,-1.2552154253154366e-06,0.9999698835671419,0.00018790388571144302,-0.007758650021551345,8.303733419143147e-07,-0.06559861264727657,-0.0006615153239280748,0.0,0.0017364824226778059,-0.019503893884198105,2.4747909385028644e-07,-0.15223846513784484,-0.0036871337780992972,0.0,0.006092939658093414,0.0070319404560575255,8.986367862769582e-07,0.12261010260590396,0.12264194458717355,0.1226693410400361,0.12263770643648646
1.1500000000000001,-0.020838953496798353,1.999891431557513,1.25,0.00039349942451304365,-0.015712143079682977,-1.32759375039648e-06,0.9999691218748709,0.0001967384247507667,-0.007855990708645183,8.818875272705308e-07,-0.06714010987649657,-0.0006996027911358185,0.0,0.001798076976016378,-0.019431118079092,2.565523486198593e-07,-0.1541488139252545,-0.0038605014459488027,0.0,0.006225998879851328,0.00752255315522813,9.158574763958205e-07,0.12260906784739105,0.12264312617020079,0.12267112119116326,0.12263727422007889
