t,x,y,z,roll,pitch,yaw,qw,qx,qy,qz,vx,vy,vz,wx,wy,wz,ax,ay,az,wx_dot,wy_dot,wz_dot,m1,m2,m3,m4
0.0,2.0,0.0,1.6500000000000001,0.0,0.0,0.0,1.0,0.0,0.0,0.0,-0.0,0.0,0.0,-7.85980621428216e-05,-6.06027992052872e-14,0.0,-0.0,0.0,0.0,-0.007858836569443901,-6.81706728727943e-11,3.163524702276112e-16,0.12264273522344263,0.122642735223135,0.12260726477655734,0.12260726477686508
0.01,2.0,7.710469896212586e-10,1.6500000000000001,-7.859806214282362e-07,-6.060279920509068e-16,2.6790707729986166e-21,0.9999999999999228,-3.92990310714108e-07,-3.030139960259564e-16,1.2204538220504385e-21,-2.972567301020026e-17,7.710469896212586e-08,0.0,-0.00015718642783726062,-7.423095279332301e-13,3.1635247022761123e-18,-5.945134602040052e-15,7.710469896212585e-06,0.0,-0.011786800506385581,-2.8021543217256786e-10,1.3749180071185996e-15,0.12265159955354218,0.12265159955227756,0.1225984004465335,0.12259840044779831
0.02,2.0,4.626091693420285e-09,1.6500000000000001,-3.1437285567457785e-06,-1.4846190558516587e-14,9.148850594263853e-20,0.9999999999987647,-1.571864278372242e-06,-7.423095279321027e-15,3.407615466684302e-20,-8.91689514100427e-16,3.8550447037990266e-07,0.0,-0.00031433407227053324,-5.664911442656644e-12,2.7498360142371992e-17,-1.4564112938186923e-13,3.083997714177768e-05,0.0,-0.01571088658080791,-1.2129842716752418e-09,6.805843912469307e-15,0.12266045513453358,0.12266045512905961,0.12258954486667753,0.12258954487215304
0.03,2.0,1.541941788490698e-08,1.6500000000000001,-7.072662066841975e-06,-1.1390425684124575e-13,1.086634072180244e-18,0.9999999999937472,-3.536331033413616e-06,-5.695212842218812e-14,3.419154569339184e-19,-8.321340345732245e-15,1.0793326191486696e-06,0.0,-0.0004714041594534188,-2.500199496143807e-11,1.3928040295166226e-16,-1.1174007596880148e-12,6.938281487687666e-05,0.0,-0.01570119311909193,-3.7089797050122398e-09,2.399760701336556e-14,0.12266043326716089,0.12266043325042345,0.12258956673897028,0.12258956675571334
0.04,1.9999999999999996,3.854569139969641e-08,1.6500000000000001,-1.257181174582361e-05,-5.148860897415879e-13,7.321643072887616e-18,0.9999999999802437,-6.28590587287041e-06,-2.574430448887194e-13,2.0425587886885194e-18,-4.45709101063023e-14,2.3126273514789415e-06,0.0,-0.0006283579346523718,-7.984450554290144e-11,5.074505004096832e-16,-5.0510325412679515e-12,0.00012332947323302705,0.0,-0.015687625617194716,-9.068988688138584e-09,6.712136297728518e-14,0.12266040266777403,0.1226604026268493,0.12258959735159927,0.12258959739253934
0.05,1.9999999999999984,8.09386290824359e-08,1.6500000000000001,-1.9639820759911054e-05,-1.7107943673757962e-12,3.443526161603755e-17,0.9999999999517847,-9.819910379797703e-06,-8.553971838157304e-13,8.817707124242109e-18,-1.715613129409041e-13,4.239293768273945e-06,0.0,-0.0007851566717973132,-2.0638176872420976e-10,1.4817076624973658e-15,-1.678289275059109e-11,0.00019266664167949941,0.0,-0.015670187418644666,-1.9012308818890387e-08,1.5928585711669964e-13,0.12266036335096997,0.12266036326517726,0.12258963669631091,0.12258963678214033
0.06,1.9999999999999942,1.5106928799592495e-07,1.6500000000000001,-2.8274945181811416e-05,-4.642521462581033e-12,1.2645338410594922e-16,0.9999999999000659,-1.413747259043477e-05,-2.3212607319524088e-12,3.040993208278388e-17,-5.297294354372978e-13,7.01306589134887e-06,0.0,-0.0009417616830252652,-4.600906819207092e-10,3.693167642743676e-15,-4.5543135582995214e-11,0.00027737721230748847,0.0,-0.015648882820867106,-3.567573930506694e-08,3.3478197172832346e-13,0.12266031533534039,0.12266031517435853,0.12258968476265622,0.1225896849237155
0.07,1.9999999999999833,2.589439753145391e-07,1.6500000000000001,-3.847505442048741e-05,-1.0912607999196485e-11,3.87799260295918e-16,0.9999999998149588,-1.9237527209057124e-05,-5.456304002318751e-12,8.893383345892117e-17,-1.3966750185047842e-12,1.0787468731861287e-05,0.0,-0.0010981343282146553,-9.198965548255485e-10,8.177347097063835e-15,-1.0705268461848859e-10,0.0003774402840512268,0.0,-0.015623717074135133,-6.16104363726761e-08,6.4129313131875e-13,0.12266025864345642,0.12266025836545498,0.12258974153799504,0.1225897418161445
0.08,1.9999999999999567,4.1610177941766e-07,1.6500000000000001,-5.023763174621655e-05,-2.3040452536986814e-11,1.0372112967089002e-15,0.9999999996845226,-2.5118815870466803e-05,-1.1520226277885796e-11,2.292312057664409e-16,-3.2696820968342924e-12,1.571578041031164e-05,0.0,-0.0012542360245079679,-1.6922994093742311e-09,1.6519030269118676e-14,-2.2602683989901074e-10,0.0004928311678449901,0.0,-0.015594696380285569,-9.977815170512032e-08,1.1420574006356552e-12,0.12266019330185082,0.12266019285163923,0.12258980700750077,0.12258980745797601
0.09,1.999999999999899,6.356117227922744e-07,1.6500000000000001,-6.35597749108131e-05,-4.47585961221944e-11,2.4918609097092567e-15,0.9999999994950194,-3.1779887450057135e-05,-2.237929808939162e-11,5.347188806325065e-16,-6.9761546639199955e-12,2.195099433746009e-05,0.0,-0.0014100282558203666,-2.915459588927955e-09,3.101849510977694e-14,-4.3908182951245564e-10,0.0006235213927147197,0.0,-0.015561827891197408,-1.5354685812832558e-07,1.9179733407868507e-12,0.12266011934099794,0.12266011864819355,0.12258988115416676,0.12258988184741378
0.1,1.9999999999997828,9.320695374472165e-07,1.6500000000000001,-7.843819686285964e-05,-8.134964414720612e-11,5.4912427169826204e-15,0.9999999992309312,-3.921909842137576e-05,-4.0674822150002113e-11,1.1503915062031526e-15,-1.3815964908908028e-11,2.9645781465490566e-05,0.0,-0.001565472582331916,-4.763236571940743e-09,5.4878497084855686e-14,-7.980400133094865e-10,0.0007694787128027387,0.0,-0.015525119707034563,-2.266857674466973e-07,3.0696418379783342e-12,0.12266003679528932,0.1226600357725092,0.12258996395881305,0.12258996498230154
0.11,1.9999999999995632,1.3215940636346644e-06,1.6500000000000001,-9.48692265577735e-05,-1.4002332715967392e-10,1.1271650587179983e-14,0.9999999988749788,-4.7434613261098425e-05,-7.001166376840554e-11,2.314849101573872e-15,-2.5739665072493935e-11,3.895245261873572e-05,0.0,-0.001720530649961058,-7.449174937861901e-09,9.241133186934363e-14,-1.3736288499265554e-09,0.0009306671153238118,0.0,-0.015484580874249509,-3.2335974601964464e-07,4.719336289448452e-12,0.12265994570300776,0.12265994424408504,0.1225900554000936,0.1225900568601054
0.12,1.9999999999991702,1.8218232727674345e-06,1.6500000000000001,-0.00011284880986250783,-2.3033314201710737e-10,2.180325052822456e-14,0.9999999984081434,-5.642440490131405e-05,-1.1516657144034272e-10,4.4034200130758855e-15,-4.55664607458821e-11,5.002292091325631e-05,0.0,-0.0018751641998169062,-1.1230431492333636e-08,1.4926522287382473e-13,-2.2595681473250424e-09,0.0011070468294505614,0.0,-0.015440221383346091,-4.4812313434753503e-07,7.012893721612543e-12,0.12265984610629714,0.12265984408452613,0.12259015545450509,0.12259015747789455
0.13,1.999999999998497,2.4519099155133425e-06,1.6500000000000001,-0.00013237251055466385,-3.6463195516536605e-10,4.0102910032059945e-14,0.9999999978096898,-6.618625522900912e-05,-1.823159785104852e-10,7.984643147497304e-15,-7.724578434929595e-11,6.30086642745463e-05,0.0,-0.0020293350776279797,-1.64116376248126e-08,2.326692063015945e-13,-3.577039532248851e-09,0.0012985743361260008,0.0,-0.015392052166401146,-6.059129776086218e-07,1.0121519625804781e-11,0.12265973805113058,0.12265973531754189,0.12259026409639595,0.12259026683232022
0.14,1.9999999999973876,3.232516796140356e-06,1.6500000000000001,-0.00015343551141576686,-5.585658908958752e-10,7.063703839537799e-14,0.999999997057193,-7.671775563262824e-05,-2.792829473356193e-10,1.389255833251789e-14,-1.2616624264115506e-10,7.806068806261075e-05,0.0,-0.002183005243144929,-2.3348691044506073e-08,3.5169561538992036e-13,-5.479531496011574e-09,0.0015052023788007264,0.0,-0.015340085094343717,-8.02041674754064e-07,1.4243499526808568e-11,0.12265962158727395,0.1226596179689444,0.12259038129797632,0.12259038491959282
0.15,1.9999999999956197,4.1858116742784684e-06,1.6500000000000001,-0.0001760326154184326,-8.316057692733269e-10,1.198297289434196e-13,0.9999999961265648,-8.801630759557446e-05,-4.15802888299563e-10,2.331742964632573e-14,-1.9951564149883622e-10,9.532948781363558e-05,0.0,-0.002336136779514854,-3.245247111989388e-08,5.175391968377658e-13,-8.158052803502894e-09,0.0017268799750920444,0.0,-0.015284332973986643,-1.0421890544258889e-06,1.960581054805126e-11,0.12265949676824879,0.12265949206664532,0.12259050702932901,0.12259051173545679
0.16,1.9999999999928832,5.335461795356141e-06,1.6500000000000001,-0.00020015824700712984,-1.2076153010888836e-09,1.9669246740582187e-13,0.9999999949920846,-0.00010007912333650231,-6.038076573630289e-10,3.791769288004045e-14,-3.0669571495640766e-10,0.00011496501210743992,0.0,-0.002488691902624662,-4.419247213302385e-08,7.438118263509456e-13,-1.1846706489897917e-08,0.001963552429362089,0.0,-0.015224809544813507,-1.3323938866120467e-06,2.6465626504313778e-11,0.12265936365129029,0.12265935764065408,0.1225906412584212,0.12259064727516478
0.17,1.9999999999887552,6.706628051060703e-06,1.6500000000000001,-0.00022580645347221396,-1.7154551907483874e-09,3.1359257651884926e-13,0.9999999936264308,-0.00011290322649624145,-8.577276076102142e-10,5.99560742874635e-14,-4.5979510366976036e-10,0.00013711662556986878,0.0,-0.0026406329704111242,-5.910034885213482e-08,1.0468517269240414e-12,-1.6828616115899834e-08,0.0022151613462117106,0.0,-0.015161529475517221,-1.6790448395927512e-06,3.511171033742508e-11,0.1226592222973036,0.12265921472307421,0.1225907839511167,0.12259079153344883
0.18,1.9999999999826696,8.325958771263415e-06,1.6500000000000001,-0.0002529709064168905,-2.389622242514849e-09,4.871784010399755e-13,0.999999992000715,-0.00012648545287118084,-1.1948111425102802e-09,9.246297280367963e-14,-6.741240406973608e-10,0.00016193307201925033,0.0,-0.0027919224921350064,-7.777336892487888e-08,1.4460460330994472e-12,-2.344219540807434e-08,0.0024816446448867164,0.0,-0.015094508360283362,-2.0888708923626236e-06,4.5865688011995816e-11,0.12265907277081715,0.12265906334810014,0.12259093507118943,0.12259094450449085
0.19,1.9999999999738798,1.0221583148940683e-05,1.6500000000000001,-0.0002816449033167316,-3.270922511052501e-09,7.394799957475065e-13,0.9999999900845186,-0.00014082245119292498,-1.6354612913775574e-09,1.3943033137333794e-13,-9.688141098338155e-10,0.00018956243776600392,0.0,-0.0029425231376167915,-1.0087776669938729e-07,1.9641654871639578e-12,-3.208775187656136e-08,0.0027629365745927277,0.0,-0.01502376271482358,-2.5689312133329743e-06,5.908319830606966e-11,0.12265891513993277,0.12265890355201392,0.12259109458033748,0.12259110618189106
0.2,1.9999999999614166,1.2423104299713483e-05,1.6500000000000001,-0.00031182136917135364,-4.40717748382807e-09,1.0992047578666907e-12,0.9999999878459293,-0.00015591068395402698,-2.2035888008203447e-09,2.0603934434822808e-13,-1.3674863438180976e-09,0.00022015211507444733,0.0,-0.003092397746431478,-1.2915199319153836e-07,2.6277099992208406e-12,-4.323441447878526e-08,0.0030589677307147406,0.0,-0.01494930997215382,-3.126604516727161e-06,7.515491326489357e-11,0.12265874947627431,0.12265873537318055,0.12259126243819796,0.12259127655863511
0.21,1.9999999999440377,1.4961591957717043e-05,1.6500000000000001,-0.0003434928582478298,-5.853962230674402e-09,1.6032480411508803e-12,0.9999999852515821,-0.00017174642827958553,-2.9269812098449226e-09,2.989254565517922e-13,-1.8989908266691588e-09,0.000253848765795808,0.0,-0.003241509337059868,-1.6340985703393051e-07,3.4672637524618293e-12,-5.7427374885324814e-08,0.003369665071937155,0.0,-0.014871168478116313,-3.769577908679045e-06,9.450742443399276e-11,0.12265857585493152,0.1226585588520441,0.12259143860236257,0.12259145562705931
0.22,1.9999999999201696,1.7869574809602502e-05,1.6500000000000001,-0.0003766515559153938,-7.675374404771945e-09,2.2984392982284983e-12,0.9999999822667007,-0.00018832577684448442,-3.8376873507588e-09,4.264842050593188e-13,-2.598220856295116e-09,0.00029079828518139986,0.0,-0.0033898211159938043,-2.0454355136511926e-07,4.517858487900696e-12,-7.529543140343552e-08,0.003694951938259851,0.0,-0.014789357486637723,-4.5058352356289865e-06,1.1760399034956195e-10,0.12265839435440376,0.1226583740311226,0.12259162302839419,0.12259164337881481
0.23,1.999999999887841,2.118103246856138e-05,1.6500000000000001,-0.00041128928057095656,-9.944832929513413e-09,3.243544717731001e-12,0.999999978855141,-0.00020564463883603596,-4.972416693124453e-09,5.992215365361011e-13,-3.5070046105004894e-09,0.00033114576588487996,0.0,-0.0035372964867926224,-2.5352656174651024e-07,5.819343559453068e-12,-9.755882412541239e-08,0.004034748069905565,0.0,-0.014703897154728354,-5.343644948183501e-06,1.449451411390266e-10,0.12265820505653942,0.12265818095500274,0.12259181566984438,0.12259183980482986
0.24,1.9999999998446065,2.493138709035241e-05,1.6500000000000001,-0.00044739748565493937,-1.2745905157243166e-08,4.511547650331052e-12,0.9999999749794363,-0.00022369874096178012,-6.372952923780482e-09,8.301523006780149e-13,-4.675077141706802e-09,0.0003750354621624486,0.0,-0.0036838990590883714,-3.114164503287893e-07,7.416761310681228e-12,-1.250373493936011e-07,0.004388969627113611,0.0,-0.014614808537216747,-6.291547494162588e-06,1.7706913647152142e-10,0.12265800804647295,0.12265797967033458,0.12259201647827114,0.12259204489527162
0.25,1.9999999997874602,2.915749463339828e-05,1.6500000000000001,-0.00048496726175689507,-1.6173161238761644e-08,6.192228350600156e-12,0.9999999706008444,-0.0002424836285021762,-8.086581132399181e-09,1.1352506735140985e-12,-6.161135403238657e-09,0.0004226107542798073,0.0,-0.0038295926575369573,-3.79357511629762e-07,9.360726288883497e-12,-1.58658741211959e-07,0.004757529210814725,0.0,-0.01452211358121988,-7.358342255102969e-06,2.1455227349609153e-10,0.12265780341256068,0.12265777022582518,0.1225922254032578,0.12259225863950544
0.26,1.9999999997127376,3.389763576510764e-05,1.6500000000000001,-0.000523989338810364,-2.0333054396810532e-08,8.395064697274702e-12,0.9999999656793968,-0.00026199466640791023,-1.0166527949215007e-08,1.5339563027023746e-12,-8.033978883048747e-09,0.0004740141131346294,0.0,-0.003974341330712769,-4.5858329543084866e-07,1.1707806780603059e-11,-1.9946730678616367e-07,0.0051403358841814895,0.0,-0.014425835120346493,-8.5530740410143e-06,2.5800904181358376e-10,0.12265759124631263,0.12265755267223218,0.12259244239243292,0.12259248102605395
0.27,1.9999999996160065,3.9191506416664555e-05,1.6500000000000001,-0.0005644540883763871,-2.53448257525599e-08,1.1252475591117522e-11,0.999999960173948,-0.0002822270404415305,-1.2672413959464216e-08,2.0497399901622874e-12,-1.0373738289405173e-08,0.0005293870651032467,0.0,-0.004118109359943887,-5.50418992450048e-07,1.4520907125155172e-11,-2.486328029408917e-07,0.005537295195048657,0.0,-0.014325996868622516,-9.885019158698641e-06,3.080921229458046e-10,0.12265737164232302,0.12265732706235691,0.12259266739149047,0.12259271204255465
0.28,1.9999999994919437,4.5080207988614025e-05,1.6500000000000001,-0.0006063515260150671,-3.1341432311454625e-08,1.492342866538857e-11,0.9999999540422286,-0.0003031757583631059,-1.5670717697747024e-08,2.7107327351649185e-12,-1.3273194597491782e-08,0.0005888701571201884,0.0,-0.004260861268085219,-6.562836786048215e-07,1.786964923951915e-11,-3.0745953974453793e-07,0.005948309199197253,0.0,-0.014222623414154954,-1.1363671069443385e-05,3.6549223219113775e-10,0.1226571446981977,0.12265709345103701,0.12259290034421108,0.1225929516757162
0.29,1.999999999334199,5.160623720965817e-05,1.6500000000000001,-0.0006496713137445436,-3.847049667369522e-08,1.9597433777601917e-11,0.9999999472408984,-0.0003248356511595924,-1.9235250504985767e-08,3.550421953113093e-12,-1.683919062623109e-08,0.0006526029219991547,0.0,-0.004402561828226986,-7.776924138389157e-07,2.1830751768977927e-11,-3.773956972688141e-07,0.006373276484496245,0.0,-0.014115740212514421,-1.2998725652377634e-05,4.3093780118834564e-10,0.12265691051448047,0.12265685189513816,0.12259314119248435,0.12259319991127379
0.3,1.9999999991352437,5.88134756511626e-05,1.6500000000000001,-0.0006944027625867236,-4.689527699517489e-08,2.5498943481657425e-11,0.9999999397256006,-0.00034720137431757655,-2.344764151092924e-08,4.608418661497877e-12,-2.119413717108817e-08,0.0007207238440039312,0.0,-0.004543176072335508,-9.162581916523742e-07,2.6488405263286064e-11,-4.6004284102382007e-07,0.0068120921958951695,0.0,-0.014005373579843716,-1.4800066090246783e-05,5.051944999499028e-10,0.12265666919457566,0.12265660245354601,0.12259338987633076,0.1225934567339438
0.31,1.9999999988862036,6.674717889995696e-05,1.6500000000000001,-0.0007405348351990743,-5.679565568691719e-08,3.289218130581357e-11,0.9999999314510202,-0.000370267409139052,-2.8397831986267846e-08,5.931299384769788e-12,-2.6477615571316133e-08,0.0007933703246776929,0.0,-0.004682669299823861,-1.0736937356438514e-06,3.1934641767975984e-11,-5.571656212387794e-07,0.007264648061260873,0.0,-0.013891550685696512,-1.6777747394810035e-05,5.890645975697682e-10,0.12265642084467024,0.12265634518715722,0.12259364633392615,0.12259372212737721
0.32,1.9999999985766748,7.545396539209763e-05,1.6500000000000001,-0.0007880561485917643,-6.83691453050014e-08,4.208641818384284e-11,0.9999999223709388,-0.00039402806409987134,-3.418457829039937e-08,7.573526474010568e-12,-3.2848078439227064e-08,0.0008706786489390663,0.0,-0.004821007086049438,-1.251813139548575e-06,3.826969721468143e-11,-6.707016408051109e-07,0.007730832418051307,0.0,-0.013774299545589062,-1.8941980589492598e-05,6.833861612583534e-10,0.12265616557365233,0.12265608015886971,0.12259391050162524,0.12259399607411237
0.33,1.9999999981945231,8.498180491034334e-05,1.6500000000000001,-0.0008369549769294077,-8.183191004867096e-08,5.34417168039283e-11,0.9999999124382963,-0.00041847747625050187,-4.0915962623742153e-08,9.598450465277254e-12,-4.0484650124788556e-08,0.0009527839514532557,0.0,-0.004958155290735642,-1.4525333474337033e-06,4.560236499314305e-11,-8.027714763622957e-07,0.008210530240818952,0.0,-0.013653649013275213,-2.130311656733541e-05,7.89032093809557e-10,0.1226559034930288,0.12265580743357299,0.12259418231398675,0.12259427855552699
0.34,1.9999999977256635,9.538000674817682e-05,1.6500000000000001,-0.0008872192544166422,-9.741980125182979e-08,6.737516295257891e-11,0.9999999016052498,-0.0004436096126586995,-4.87099107772514e-08,1.207939801230234e-11,-4.958902833133126e-08,0.0010398201832864478,0.0,-0.005094080066314942,-1.6778754708952831e-06,5.405033909087257e-11,-9.556888366884827e-07,0.008703623169536242,0.0,-0.013529628772737754,-2.3871629642680865e-05,9.069090100557819e-10,0.12265563471684064,0.1226555270781371,0.12259446170379931,0.12259456955178942
0.35000000000000003,1.9999999971538198,0.00010669920754328696,1.6500000000000001,-0.0009388365782667312,-1.1538940522248915e-07,8.436760213954306e-11,0.9999998898232353,-0.00046941827189369976,-5.769471605647597e-08,1.5100848824905278e-11,-6.038748813758689e-08,0.001131920078851645,0.0,-0.005228747866190397,-1.9299659402873206e-06,6.374054519425869e-11,-1.131970842257357e-06,0.009209989538735036,0.0,-0.013402269329908624,-2.665810081540423e-05,1.0379559533224331e-09,0.12265535936157623,0.12265523916140234,0.12259474860210753,0.12259486904180972
0.36,1.9999999964602642,0.0001189913587835069,1.6500000000000001,-0.000991794211752373,-1.3601910175596409e-07,1.0497089889518002e-10,0.9999998770430304,-0.0004958970855515136,-6.800956854311528e-08,1.8759704924079224e-11,-7.313298951784313e-08,0.0012292151231539888,0.0,-0.005362125452913115,-2.2110374872033678e-06,7.480945815732123e-11,-1.3343484095408393e-06,0.009729504407451952,0.0,-0.013271602004100982,-2.9673200766854746e-05,1.1831429533448018e-09,0.12265507754608314,0.12265494375416644,0.1225950429382395,0.12259517700318914
0.37,1.9999999956235348,0.00013230971398828313,1.6500000000000001,-0.0010460790873378534,-1.5961013162077267e-07,1.298157351351245e-10,0.9999998632148178,-0.0005230395198209005,-7.980508884361592e-08,2.3166655388387422e-11,-8.810738928588812e-08,0.0013318355193435501,0.0,-0.0054941799062724166,-2.5234299556244155e-06,8.740340426115473e-11,-1.5657767233740064e-06,0.010262039589971088,0.0,-0.013137658919154223,-3.2927672607004264e-05,1.3434694275622326e-09,0.12265478939147814,0.12265464092917311,0.12259534463983413,0.12259549341217055
0.38,1.999999994619131,0.0001467088155688292,1.6500000000000001,-0.001101677809891657,-1.864876712912981e-07,1.596199628897813e-10,0.99999984828825,-0.0005508388770895744,-9.324386546190438e-08,2.8447639614203706e-11,-1.0562375821981364e-07,0.0014399101565834764,0.0,-0.005624878631296199,-2.869590939343453e-06,1.0167884670856588e-10,-1.8294457804546084e-06,0.010807463687355339,0.0,-0.013000472994298407,-3.6432314392613315e-05,1.519962428156013e-09,0.1226544950210556,0.12265433076109863,0.1225956536328701,0.12259581824358749
0.39,1.999999993419182,0.00016224448137019663,1.6500000000000001,-0.0011585766599786261,-2.1700191317835759e-07,1.951975254999629e-10,0.9999998322125141,-0.0005792882975901891,-1.0850099492189764e-07,3.474541194467663e-11,-1.260288039538465e-07,0.0015535665782412953,0.0,-0.005754189366158385,-3.252076243476682e-06,1.17802652824275e-10,-2.1287909868249393e-06,0.011365642119757305,0.0,-0.01286007793474546,-4.019796143652589e-05,1.7136747376389998e-09,0.12265419456019391,0.12265401332653854,0.12259596984169463,0.12259615147081342
0.4,1.9999999919920954,0.0001789737908985718,1.6500000000000001,-0.0012167615972307247,-2.5152914958792373e-07,2.374679600868919e-10,0.9999998149363998,-0.0006083807610856301,-1.2576462375498667e-07,4.2221210339344686e-11,-1.4970540005037792e-07,0.001672930950411088,0.0,-0.005882080189991108,-3.673550168073971e-06,1.3595234146134588e-10,-2.4675037919789668e-06,0.011936437159500473,0.0,-0.012716508221998933,-4.423546842846597e-05,1.925682816247383e-09,0.12265388813626169,0.12265368870399329,0.1225962931890537,0.12259649306571033
0.41000000000000003,1.9999999903021748,0.0001969550712371846,1.6500000000000001,-0.0012762182637954375,-2.904728586193783e-07,2.874664927172024e-10,0.9999997964083643,-0.0006381090885931322,-1.452364914582588e-07,5.1056531558384166e-11,-1.7707522149046055e-07,0.001798128030774136,0.0,-0.006008519530598363,-4.136785612046001e-06,1.5631630914922265e-10,-2.8495423420527202e-06,0.0125197079649211,0.0,-0.012569799103856949,-4.8555691387957755e-05,2.157084604820172e-09,0.1226535758785207,0.12265335697385346,0.12259662359612192,0.12259684299857787
0.42,1.9999999883092132,0.0002162478826542885,1.6500000000000001,-0.0013369319878608066,-3.342647901978821e-07,3.463547362041545e-10,0.9999997765766018,-0.0006684659441467194,-1.6713247352082781e-07,6.145501512287915e-11,-2.0860148664444352e-07,0.0019292811378055629,0.0,-0.006133476172068247,-4.644663995833126e-06,1.7909403355774932e-10,-3.279142134391294e-06,0.013115310614960884,0.0,-0.012419986584177823,-5.3169469470239226e-05,2.4089971872847167e-09,0.12265325791802939,0.12265301821838441,0.12259696098253439,0.12259720123810174
0.43,1.9999999859680568,0.00023691300390674792,1.6500000000000001,-0.0013988877872560795,-3.83366050420728e-07,4.154319989180054e-10,0.9999997553891113,-0.0006994438365974597,-1.9168312360828684e-07,7.364443808565363e-11,-2.447918056063214e-07,0.002066512120334374,0.0,-0.00625691926228192,-5.200175001450786e-06,2.0449625289491698e-10,-3.7608266556416206e-06,0.013723098144500397,0.0,-0.012267107412337885,-5.808760664622911e-05,2.682554317271264e-09,0.1226529343875441,0.12265267252170997,0.12259730526641761,0.12259756775130264
0.44,1.9999999832281417,0.0002590124172428401,1.6500000000000001,-0.001462070373126922,-4.3826818238494597e-07,4.961472113246157e-10,0.999999732793766,-0.0007310351214510072,-2.1913421398899965e-07,8.787882240653384e-11,-2.862011345959914e-07,0.0022099413274642202,0.0,-0.006378818320315005,-5.806416128757708e-06,2.327451199031746e-10,-4.299417985396644e-06,0.01434292058042279,0.0,-0.01211119907240793,-6.332085327778957e-05,2.978903813808698e-09,0.12265260542141879,0.12265231996979568,0.12259765636442241,0.1225979425034848
0.45,1.9999999800329964,0.0002826092931079511,1.6500000000000001,-0.0015264641536840923,-4.994942416529425e-07,5.90111475235452e-10,0.9999997087383814,-0.000763232002741885,-2.4974727328070733e-07,1.0444065647188472e-10,-3.3343483595314665e-07,0.002359687578862065,0.0,-0.006499143243730078,-6.466592067006577e-06,2.6407432917109095e-10,-4.900047347313811e-06,0.01497462497839707,0.0,-0.011952299772087895,-6.887988760971057e-05,3.299204831448378e-09,0.12265227115550537,0.12265196065043135,0.12259801419175628,0.12259832545818528
0.46,1.9999999763197178,0.00030776797455691804,1.6500000000000001,-0.0015920532380245076,-5.675998645046306e-07,6.991112389380357e-10,0.9999996831707874,-0.0007960265349439691,-2.8380012059176236e-07,1.2364323203140818e-10,-3.871518430652017e-07,0.0025158681354218717,0.0,-0.006617864315756763,-7.18401388095192e-06,2.9872921653214217e-10,-5.568165589549128e-06,0.015618055460370196,0.0,-0.011790448431333363,-7.477529719996629e-05,3.644625010538204e-09,0.12265193172705133,0.12265159465321276,0.12259837866221727,0.12259871657712311
0.47000000000000003,1.9999999720184107,0.0003345539613768371,1.6500000000000001,-0.0016588214400235204,-6.431743271183185e-07,8.251220994876242e-10,0.9999996560388966,-0.000829410624916588,-3.215873951282129e-07,1.4583309754605105e-10,-4.480679293896473e-07,0.002678598670310278,0.0,-0.006734952212356746,-7.962098011005903e-06,3.3696682938185503e-10,-6.309553576287442e-06,0.016273053252756513,0.0,-0.011625684670743975,-8.101756030991262e-05,4.016337513776635e-09,0.12265158727459749,0.12265122206952303,0.12259874968822744,0.122599115820149
0.48,1.9999999670515967,0.0003630338939242279,1.6500000000000001,-0.0017267522822972824,-7.268415938186241e-07,9.70323231482928e-10,0.9999996272907766,-0.0008633760338856737,-3.634210803359566e-07,1.713926286500444e-10,-5.169590805487904e-07,0.0028479932404011274,0.0,-0.0068503780091716425,-8.804365087150172e-06,3.7905596680767486e-10,-7.130332472110347e-06,0.016939456725313332,0.0,-0.011458048799669121,-8.761702727619679e-05,4.415517955515593e-09,0.12265123793787454,0.12265084299251287,0.12259912718086782,0.12259952314519511
0.49,1.9999999613335862,0.0003932755366805109,1.6500000000000001,-0.001795829000233977,-8.192613525278401e-07,1.1371124396254964e-09,0.9999995968747184,-0.0008979143794593569,-4.096310216462666e-07,2.007427161282115e-10,-5.946649682921557e-07,0.0030241642581056156,0.0,-0.006964113188350128,-9.714438556529839e-06,4.252771884921669e-10,-8.036973900925097e-06,0.017617101430690757,0.0,-0.011287581804032137,-9.458390188621976e-05,4.843341230629794e-09,0.12265088385769914,0.12265045751708029,0.1225995110499131,0.12259993850822597
0.5,1.999999954769818,0.0004253477615298216,1.6500000000000001,-0.0018660345460927313,-9.211300355575444e-07,1.328121830278968e-09,0.9999995647393096,-0.0009330171376774091,-4.605654368931715e-07,2.343455714974053e-10,-6.820925249391253e-07,0.0032072224636046777,0.0,-0.007076129645252285,-1.0696043124874567e-05,4.759227914202707e-10,-9.036309961181423e-06,0.018305820144643863,0.0,-0.011114325333946937,-0.00010192822277904974,5.300978250134026e-09,0.1226505251758696,0.1226500657398498,0.12259990120386685,0.1226003618631893
0.51,1.999999947256159,0.00045932053076325007,1.6500000000000001,-0.0019373515931689334,-1.033181823879775e-06,1.5462340951056956e-09,0.9999995308335037,-0.0009686756450939001,-5.165914184724402e-07,2.72707649958964e-10,-7.802196167318896e-07,0.0033972768974901177,0.0,-0.007186399695029067,-1.1753003012110834e-05,5.312967534948474e-10,-1.0135543079128018e-05,0.019005442906894914,0.0,-0.01093832169106624,-0.00010965984489368431,5.789592591043171e-09,0.1226501620350606,0.12264966775915068,0.12260029754999804,0.12260079316196786
0.52,1.99999993867817,0.0004952648798136592,1.6500000000000001,-0.0020097625400247315,-1.1561896330218497e-06,1.7945993976696897e-09,0.9999994951066921,-0.0010048811008924532,-5.780954263142942e-07,3.163826901581482e-10,-8.900988143466798e-07,0.0035944348738208894,0.0,-0.00729489607907361,-1.2889240022748254e-05,5.917146432411342e-10,-1.1342255681906932e-05,0.01971579706263337,0.0,-0.010759613815633897,-0.00011778842098660208,6.3103370682210425e-09,0.12264979457871802,0.12264926367499451,0.12260069999437655,0.12260123235433185
0.53,1.9999999289103298,0.0005332528997252961,1.6500000000000001,-0.0020832495147833784,-1.2909660787358162e-06,2.0766528516617797e-09,0.9999994575087731,-0.0010416245690334368,-6.454837707454276e-07,3.65974869847397e-10,-1.0128612586297852e-06,0.003798801953600755,0.0,-0.007401591971341745,-1.4108771431842875e-05,6.575034948592683e-10,-1.2664419672351896e-05,0.02043670730464067,0.0,-0.010578245273334171,-0.0001263233832405014,6.8643502363214646e-09,0.12264942295095302,0.12264885358905211,0.1226011084419106,0.12260167938789232
0.54,1.999999917815223,0.0005733577193624736,1.6500000000000001,-0.0021577943794861437,-1.43836442060268e-06,2.396132577131218e-09,0.9999994179902248,-0.0010788969804324457,-7.191830843204885e-07,4.2214207620371637e-10,-1.1497206194442177e-06,0.004010481918683475,0.0,-0.007506460984540293,-1.541570768755828e-05,7.290016479675634e-10,-1.4110405687446146e-05,0.02116799571602708,0.0,-0.0103942602419263,-0.00013527392498606823,7.452752830188517e-09,0.12264904729643626,0.12264843760463003,0.1226015227963833,0.12260213420805546
0.55,1.9999999052426847,0.0006156534873616594,1.6500000000000001,-0.002233378734510422,-1.5992794817428198e-06,2.7570983188033115e-09,0.9999993765021736,-0.0011166891351693964,-7.996407817088087e-07,4.855992891974044e-10,-1.301977145333299e-06,0.004229576746111523,0.0,-0.007609477176180271,-1.681424993156424e-05,8.065585514630386e-10,-1.568899212250591e-05,0.021909481813567316,0.0,-0.010207703497619198,-0.00014464898255859142,8.07664415225659e-09,0.12264866776029201,0.12264801582664571,0.12260194296049003,0.1226025967579772
0.56,1.9999998910289067,0.0006602153538313677,1.6500000000000001,-0.0023099839230477075,-1.7746485428175471e-06,3.1639506082313626e-09,0.9999993329964649,-0.0011549917047275616,-8.873255067289339e-07,5.571220760504853e-10,-1.4710218015291412e-06,0.004456186582894168,0.0,-0.007710615054492677,-1.830868733873011e-05,8.905345310126952e-10,-1.7409373903288067e-05,0.022660982591621633,0.0,-0.01001862040121526,-0.00015445721731109665,8.737098415831273e-09,0.12264828448799212,0.12264758836160243,0.12260236883587665,0.12260306697851986
0.5700000000000001,1.9999998749955006,0.0007071194518043061,1.6500000000000001,-0.002387591035640024,-1.9654522085223846e-06,3.621450449179131e-09,0.9999992874257325,-0.0011937952342618461,-9.827275656313185e-07,6.375501944595176e-10,-1.6583404936571355e-06,0.0046904097212306884,0.0,-0.007809849584204576,-1.9903394277786173e-05,9.81300519779664e-10,-1.9281170988373783e-05,0.023422312566628682,0.0,-0.009827056884030615,-0.0001647069978056388,9.43516105320824e-09,0.12264789762525026,0.12264715531756325,0.12260280032317712,0.12260354480820893
0.58,1.9999998569485173,0.0007564428784462878,1.6500000000000001,-0.002466180914773418,-2.172715244790498e-06,4.134739503263827e-09,0.9999992397434683,-0.001233090144895604,-1.0863593457384646e-06,7.277913018897881e-10,-1.865518374312432e-06,0.004932342574184283,0.0,-0.00790715619217329,-2.1602827294842885e-05,1.07923775207686e-09,-2.131443658435466e-05,0.024193283822156374,0.0,-0.009633059433634267,-0.0001754063822041492,1.0171844997919998e-08,0.12264750731791603,0.1226467168041248,0.12260323732205183,0.12260403018319185
0.59,1.999999836677424,0.00080826367602647,1.6500000000000001,-0.002545734159527069,-2.3975073849446785e-06,4.709360750515425e-09,0.9999991899040895,-0.0012728667360452784,-1.1987557185617732e-06,8.288247678771632e-10,-2.0942442295111374e-06,0.005182079651812117,0.0,-0.008002510772877261,-2.3411521921869157e-05,1.184737419738064e-09,-2.3519665056543446e-05,0.02497370605449669,0.0,-0.009436675079405217,-0.00018656310088017422,1.0948126950544318e-08,0.12264711371187006,0.12264627293238964,0.12260367973122599,0.12260452303719724
0.6,1.9999998139540374,0.0008626608126535397,1.6500000000000001,-0.0026262311302766065,-2.6409441030583623e-06,5.35127959713276e-09,0.9999991378630084,-0.0013131151877721506,-1.320474426525403e-06,9.417055859010426e-10,-2.3463149418478298e-06,0.005439713537756858,0.0,-0.008095889693761394,-2.533408931244637e-05,1.2982002910877464e-09,-2.590779951814793e-05,0.025763386618790247,0.0,-0.00923795137783897,-0.00019818453927266617,1.176494363743283e-08,0.12264671695291873,0.12264582381493849,0.12260412744852862,0.12260502330149584
0.61,1.9999997885314087,0.0009197141627825103,1.6500000000000001,-0.0027076519534501233,-2.90418735281044e-06,6.066905400346775e-09,0.9999990835766981,-0.0013538255631604561,-1.452096452439569e-06,1.0675683810178355e-09,-2.62364002702217e-06,0.005705334866304806,0.0,-0.00818726980043404,-2.737521270732248e-05,1.4200362924867206e-09,-2.849023908108395e-05,0.026562130575666268,0.0,-0.009036936397682598,-0.00021027772100261593,1.2623188072209268e-08,0.12264631718668995,0.12264536956580166,0.12260458037093111,0.12260553090486286
0.62,1.9999997601426678,0.0009795044874968519,1.6500000000000001,-0.002789976526335436,-3.188446270144866e-06,6.8631133779431915e-09,0.9999990270027599,-0.001394987810721126,-1.5942263708788258e-06,1.2076315090701392e-09,-2.9282462402310975e-06,0.0059790322999156926,0.0,-0.008276628421715046,-2.953964373249869e-05,1.5506640525319318e-09,-3.127884575186094e-05,0.027369740738383233,0.0,-0.008833678704948597,-0.00022284929127336766,1.3523705829740853e-08,0.12264591455852936,0.12264491030042952,0.12260503839458625,0.12260604577354124
0.63,1.9999997284998157,0.001042113414570719,1.6500000000000001,-0.002873184521937058,-3.4949778380744994e-06,7.74726686765781e-09,0.9999989680999885,-0.0014365917668204065,-1.7474926806350917e-06,1.36320124291333e-09,-3.262282248759531e-06,0.006260892507228982,0.0,-0.008363943374533013,-3.1832198532789834e-05,1.6905104090815377e-09,-3.4285950956251666e-05,0.028186017720455685,0.0,-0.008628227347683148,-0.00023590550057495287,1.4467291342329897e-08,0.12264550921339734,0.12264444613566287,0.12260550141486719,0.12260656783120738
0.64,1.9999996932924733,0.0011076234183160958,1.6500000000000001,-0.002957255393881402,-3.825087511999054e-06,8.727239899344016e-09,0.9999989068284372,-0.0014786271581325964,-1.9125481174303777e-06,1.535676040729536e-09,-3.62802336694187e-06,0.0065510001415514055,0.0,-0.008449192968668709,-3.4257753743997746e-05,1.8400098793785297e-09,-3.752436167675578e-05,0.029010759983752073,0.0,-0.008420631840646425,-0.0002494521887126617,1.545468422820863e-08,0.12264510129576651,0.1226439771897021,0.12260596932640688,0.12260709699893695
0.65,1.9999996541865812,0.0011761177992197123,1.6500000000000001,-0.0030421683813686303,-4.180129803939406e-06,9.811440040530861e-09,0.9999988431494814,-0.0015210836041161231,-2.0900699460903692e-06,1.7265508911299347e-09,-4.027876349509049e-06,0.006849437819830309,0.0,-0.008532356011345941,-3.682124230704307e-05,1.9996040936457103e-09,-4.100736618718437e-05,0.02984376388704867,0.0,-0.008210942149837301,-0.00026349476917978315,1.6486565662080608e-08,0.12264469094952099,0.1226435035820764,0.12260644202313693,0.12260763319517362
0.66,1.9999996108230513,0.001247680663374646,1.6500000000000001,-0.0031279025141696636,-4.561508824125082e-06,1.1008831473748529e-08,0.999998777025881,-0.0015639506195122103,-2.28076023139728e-06,1.9374217293810416e-09,-4.464384239181775e-06,0.007156286102117241,0.0,-0.008613411811665455,-3.952764912759341e-05,2.169741192620142e-09,-4.4748739369030734e-05,0.030684823735024583,0.0,-0.007999208676826974,-0.00027803821389395993,1.7563554797739767e-08,0.12264427831785538,0.1226430254336113,0.12260691939832666,0.12260817633569868
0.67,1.9999995628163696,0.0013223969017115457,1.6500000000000001,-0.003214436617666724,-4.970678778408024e-06,1.232895826180185e-08,0.9999987084218435,-0.0016072176168653188,-2.4853460868585207e-06,2.1699899187300514e-09,-4.940231264219812e-06,0.007471623471526013,0.0,-0.00869234018488248,-4.2382006584922266e-05,2.3508751896005056e-09,-4.876274759464787e-05,0.031533731827682016,0.0,-0.007785482243054254,-0.0002930870383165559,1.868620525271792e-08,0.12264386354317627,0.12264254286639713,0.12260740134462242,0.12260872633360276
0.68,1.9999995097531502,0.001400352169034478,1.6500000000000001,-0.0033017493179358847,-5.4091444200141186e-06,1.378196775503012e-08,0.9999986373030824,-0.0016508739090646085,-2.7045799006469306e-06,2.426066790449417e-09,-5.458247781490304e-06,0.007795526314689394,0.0,-0.00876912145652654,-4.538938989392453e-05,2.5434652976745003e-09,-5.3064153162630045e-05,0.032390278510177097,0.0,-0.007569814073930467,-0.0003086452869737998,1.985500166460994e-08,0.12264344676700381,0.12264205600375515,0.12260788775408653,0.12260928309925867
0.6900000000000001,1.9999994511906385,0.0014816328628664156,1.6500000000000001,-0.003389819046870009,-5.878461454184202e-06,1.5378634092507847e-08,0.9999985636368781,-0.0016949087119056002,-2.9392395379883925e-06,2.7075782358726755e-09,-6.021415260474978e-06,0.00812806890271835,0.0,-0.00884373646636109,-4.855491232439826e-05,2.7479752228927044e-09,-5.7668218271188264e-05,0.03325425222304497,0.0,-0.007352255782930306,-0.0003247165193982535,2.1070356329382642e-08,0.12264302812987556,0.1226415649702047,0.12260837851823596,0.12260984654029676
0.7000000000000001,1.9999993866551653,0.0015663261021094405,1.6500000000000001,-0.003478624047340503,-6.3802368942983e-06,1.713038174712434e-08,0.9999984873921351,-0.0017393111466712566,-3.190128519293678e-06,3.016569343352985e-09,-6.632871303497109e-06,0.008469323372667674,0.0,-0.008916166572185146,-5.18837202818896e-05,2.964872424262153e-09,-6.259070851572245e-05,0.03412543955280411,0.0,-0.007132859355531498,-0.0003413037965088107,2.233260593090876e-08,0.12264260777125091,0.1226410698914288,0.12260887352808121,0.12261041656158163
0.71,1.9999993156405507,0.0016545197055247622,1.6500000000000001,-0.003568142378396282,-6.9161293681207255e-06,1.9049309062536032e-08,0.9999984085394389,-0.0017840702427316805,-3.4580761733533066e-06,3.355209072744058e-09,-7.29591469731433e-06,0.008819359709511601,0.0,-0.00898639365347172,-5.5380988254574476e-05,3.1946273415108796e-09,-6.784789589722245e-05,0.03500362528292398,0.0,-0.006911677133046579,-0.00035840966744684266,2.364200837119596e-08,0.12264218582941763,0.1226405708942396,0.12260937267416487,0.122610993065191
0.72,1.9999992376064561,0.0017463021700376924,1.6500000000000001,-0.0036583519204982946,-7.487849372849417e-06,2.1148211728120443e-08,0.9999983270511111,-0.0018291749401616018,-3.743937764937019e-06,3.7257949596808915e-09,-8.01401049109311e-06,0.009178245728632947,0.0,-0.009054400114846078,-5.905191363082645e-05,3.4377125916860723e-09,-7.34565613285773e-05,0.03588859244513994,0.0,-0.006688761796562991,-0.0003760361568857304,2.4998739711724732e-08,0.12264176244139999,0.12264006810654335,0.12260987584659959,0.12261157595039604
0.73,1.9999991519766873,0.001841762648872744,1.6500000000000001,-0.0037492303807880522,-8.097159477700123e-06,2.34406061362821e-08,0.999998242901263,-0.001874614092374877,-4.048594596163134e-06,4.130757841626037e-09,-8.790795095654914e-06,0.009546047058829076,0.0,-0.00912016888940298,-6.290171139228908e-05,3.6946021357453742e-09,-7.943399662633635e-05,0.036780122371100205,0.0,-0.006464166350624717,-0.0003941847528306276,2.640289123433736e-08,0.12264133774286792,0.12263956165730472,0.12261038293510615,0.12261216511364428
0.74,1.999999058137444,0.0019409909295240609,1.6500000000000001,-0.003840755298388502,-8.745874472805264e-06,2.5940752564773628e-08,0.9999981560658477,-0.0019203764687751683,-4.372954081027594e-06,4.572666597347132e-09,-9.630081398763143e-06,0.009922827125837818,0.0,-0.009183683441858572,-6.6935608687439e-05,3.9657704163728195e-09,-8.5798005975946e-05,0.03767799474432849,0.0,-0.006237944106965952,-0.00041285639492509503,2.7854466630682682e-08,0.12264091186804929,0.12263905167651071,0.12261089382905158,0.12261276044854393
0.75,1.99999895543552,0.0020440774115664116,1.6500000000000001,-0.003932904049735592,-9.435861463257907e-06,2.8663678125106063e-08,0.9999980665227106,-0.0019664507574219817,-4.717949792507816e-06,5.054232891203641e-09,-1.0535863891103876e-05,0.010308647136386446,0.0,-0.009244927771542299,-7.115883929079099e-05,4.251691468359028e-09,-9.256690685898283e-05,0.03858198765248638,0.0,-0.006010148668309911,-0.0004320514632800377,2.9353379329863544e-08,0.12264048494964244,0.12263853829513441,0.12261140841748568,0.12261336184585056
0.76,1.999998843176452,0.0021511130843120106,1.6500000000000001,-0.004025653853938991,-1.0169039907183708e-05,3.162519941663852e-08,0.9999979742516389,-0.002012825567711284,-5.084541481682691e-06,5.578315913346455e-09,-1.1512323797502536e-05,0.010703566062766486,0.0,-0.00930388641522477,-7.557663795303976e-05,4.55283800297009e-09,-9.975953043141655e-05,0.03949187763992019,0.0,-0.005780833912027734,-0.0004517697678403064,3.089944997298225e-08,0.12264005711873245,0.12263802164509774,0.12261192658917863,0.12261396919345566
0.77,1.9999987206226155,0.002262189504318453,1.6500000000000001,-0.0041189817781702096,-1.0947381596777254e-05,3.48419448245605e-08,0.999997879234408,-0.002059489433069835,-5.4737150683367835e-06,6.1479271066738725e-09,-1.256383420781275e-05,0.011107640627937065,0.0,-0.009360544449782853,-8.019423464759711e-05,4.869680467818673e-09,-0.00010739522134246176,0.04040743976047537,0.0,-0.005550053973858108,-0.0004720105383044802,3.249240404196316e-08,0.12263962850470808,0.12263750185923464,0.12261244823265698,0.12261458237637753
0.78,1.999998586991273,0.00237739877275308,1.6500000000000001,-0.004212864743076615,-1.177291058129493e-05,3.833137639872249e-08,0.9999977814548273,-0.002106430813662473,-5.886482602544673e-06,6.766234871142586e-09,-1.3694965201813432e-05,0.011520925291159353,0.0,-0.009414887494701932,-8.501684871912936e-05,5.2026860838093535e-09,-0.00011549383698412124,0.04132844763056363,0.0,-0.0053178632316713825,-0.0004927724146113694,3.413186965174342e-08,0.12263919923518145,0.12263697907125293,0.12261297323623994,0.12261520127675378
0.79,1.9999984414525662,0.0024968335126191164,1.6500000000000001,-0.004307279528219612,-1.264770303105286e-05,4.211181124912918e-08,0.9999976808987842,-0.0021536380991114866,-6.3238821967595555e-06,7.4365692358030246e-09,-1.4910488962355278e-05,0.011943472234164434,0.0,-0.009466901714416281,-9.00496829398245e-05,5.552317860853541e-09,-0.00012407574616207854,0.04225467348246588,0.0,-0.005084316289289282,-0.0005140534380071926,3.581737551429762e-08,0.12263876943591041,0.1226364534156968,0.12261350148807455,0.12261582577383634
0.8,1.9999982831274612,0.002620586845848933,1.6500000000000001,-0.004402202777535459,-1.3573887041536734e-05,4.6202442392897835e-08,0.9999975775542852,-0.0022010996112273164,-6.78697792795932e-06,8.162426488716136e-09,-1.62153848709086e-05,0.012375331347856865,0.0,-0.009516573820487718,-9.529791747927321e-05,5.919033594095306e-09,-0.0001331618271791663,0.04318588821785604,0.0,-0.004849467960188307,-0.0005358510427069113,3.754834907989676e-08,0.12263833923072225,0.12263592502790814,0.12261403287617098,0.12261645574398883
0.81,1.9999981110856417,0.002748752370269824,1.6500000000000001,-0.004497611004817018,-1.4553642376789825e-05,5.062335898660024e-08,0.9999974714114959,-0.002248803606749727,-7.276859709433089e-06,8.947473754713871e-09,-1.7614844579581132e-05,0.012816550219555925,0.0,-0.009563891073620047,-0.00010076670379396273,6.3032848424514765e-09,-0.00014277346532322034,0.044121861461529306,0.0,-0.004613373251475747,-0.000558162048162093,3.9324114864959346e-08,0.12263790874144105,0.12263539404398811,0.12261456728843674,0.12261709106068545
0.8200000000000001,1.999997924343351,0.002881424136447699,1.6500000000000001,-0.004593480599214882,-1.558920015130608e-05,5.539556587715984e-08,0.9999973624627798,-0.0022967382800986704,-7.794643131821431e-06,9.79555351078881e-09,-1.911427705359698e-05,0.013267174120776515,0.0,-0.009608841285517233,-0.00010646115844251507,6.705515891394493e-09,-0.00015293254975172287,0.045062361615319305,0.0,-0.004376087347932652,-0.0005809826519472416,4.1143892972876414e-08,0.12263747808781648,0.1226348606007586,0.12261510461271004,0.12261773159451235
0.8300000000000001,1.999997721861185,0.0030186966244140968,1.6500000000000001,-0.0046897878307562745,-1.668284244971724e-05,6.054100240386718e-08,0.9999972507027332,-0.0023448917661340473,-8.341469273054535e-06,1.0710688028740757e-08,-2.0719313578156327e-05,0.013727245995551368,0.0,-0.0096514128205787,-0.00011238635683290756,7.126162701909005e-09,-0.00016366146976624612,0.04600715591218886,0.0,-0.004137665595975622,-0.0006043084232760635,4.300679781351346e-08,0.12263704738745573,0.12263432483572283,0.12261564473679301,0.12261837721317152
0.84,1.9999975025418348,0.0031606647202819696,1.6500000000000001,-0.004786508855880079,-1.7836901883625714e-05,6.608256038361193e-08,0.9999971361282193,-0.0023932521429235335,-8.91850447686396e-06,1.1697083734570042e-08,-2.243581272353037e-05,0.014196806449296238,0.0,-0.009691594597436745,-0.00011854732690803634,7.565651847664762e-09,-0.00017498311047032286,0.046956010470478024,0.0,-0.0038981634878440183,-0.000628134297158748,4.4911837027596376e-08,0.12263661675575825,0.12263378688702634,0.1226161875484844,0.12261902778148656
0.85,1.9999972652277804,0.0033074236927556804,1.6500000000000001,-0.0048836197229865114,-1.9053761084999557e-05,7.204410121111407e-08,0.9999970187384011,-0.0024418074345177302,-9.526940099575861e-06,1.2759135473989379e-08,-2.4269865262186818e-05,0.014675893738219443,0.0,-0.00972937609033558,-0.00012494904277608252,8.024399442460932e-09,-0.00018692084780500234,0.04790869034829511,0.0,-0.0036576366459240527,-0.0006524545692097954,4.685791062246257e-08,0.1226361863058528,0.12263324689341712,0.1226167329356107,0.12261968316141036
0.86,1.9999970086989352,0.003459069169540668,1.6500000000000001,-0.004981096377999715,-2.0335852135610346e-05,7.845047200576775e-08,0.9999968985347694,-0.0024905456137317835,-1.0167992224925892e-05,1.3901430673328929e-08,-2.622779903168869e-05,0.015164543759277047,0.0,-0.009764747330355227,-0.00013159641829223225,8.502810060114013e-09,-0.00019949854295698324,0.04886495959803391,0.0,-0.003416140807229167,-0.0006772628911162143,4.884381032472661e-08,0.12263575614853758,0.12263270499420716,0.12261728078605683,0.1226203432120359
0.87,1.9999967316702432,0.003615697113658262,1.6500000000000001,-0.005078914669941913,-2.1685655932061545e-05,8.532752073670298e-08,0.9999967755211717,-0.002539454604932783,-1.0842901346669215e-05,1.5128753385033715e-08,-2.8316183737062716e-05,0.015662790040674817,0.0,-0.009797698906480164,-0.0001384943005984068,9.001275648955464e-09,-0.0002127405361348681,0.04982458132100356,0.0,-0.0031737318079357556,-0.0007025522667753703,5.086821915226521e-08,0.12263532639222344,0.12263216132923156,0.12261783098779647,0.1226210077896082
0.88,1.9999964327892272,0.003777403799671125,1.6500000000000001,-0.005177050356517394,-2.310570148602139e-05,9.270211025781063e-08,0.9999966497038378,-0.0025885222868320774,-1.1552932018792395e-05,1.6446088206898632e-08,-3.054183568629432e-05,0.01617066373291791,0.0,-0.009828221966513942,-0.00014564746362773966,9.520174443159318e-09,-0.00022667163970973515,0.050787317722154536,0.0,-0.002930465568152813,-0.0007283150491098293,5.292971121216285e-08,0.12263489714287945,0.12263161603880968,0.12261838342892092,0.12262167674753936
0.89,1.9999961106334931,0.003944285789824813,1.6500000000000001,-0.005275479109704948,-2.4598565159342428e-05,1.0060213118478401e-07,0.999996521091402,-0.002637736495281818,-1.2299372473167949e-05,1.785862406415472e-08,-3.2911822452572644e-05,0.01668819360040916,0.0,-0.00985630821784322,-0.0001530606015806034,1.0059869873198721e-08,-0.0002413171307168918,0.05175293016488723,0.0,-0.0026863980768509176,-0.0007545429375667246,5.5026751728699537e-08,0.12263446850398192,0.12263106926370511,0.12261893799766747,0.12262234993642555
0.9,1.999995763708184,0.004116439910110949,1.6500000000000001,-0.005374176521357134,-2.616686983381814e-05,1.0905651354669183e-07,0.9999963896949244,-0.00268708502607492,-1.3083534204526394e-05,1.9371757843511674e-08,-3.543346745688307e-05,0.017215406013596536,0.0,-0.00988194992805096,-0.00016073832237907415,1.0620709477733308e-08,-0.00025670274271634116,0.05272117922592718,0.0,-0.0024415853770515077,-0.0007812269763098143,5.715769730301675e-08,0.12263404057646718,0.12263052114508574,0.12261949458244667,0.12262302720406586
0.91,1.999995390443393,0.004293963226257518,1.6500000000000001,-0.005473118108804999,-2.7813284015396606e-05,1.1809523714522977e-07,0.9999962555279112,-0.0027365556377477456,-1.390675152265546e-05,2.0991097868275988e-08,-3.8114354464524804e-05,0.017752324941670422,0.0,-0.00990513992538425,-0.00016868514110679968,1.1203023819259056e-08,-0.0002728546570101758,0.05369182475025362,0.0,-0.002196083551160837,-0.0008083575531088103,5.9320796407576856e-08,0.12263361345868544,0.1226299718244845,0.12262005307186818,0.12262370839548371
0.92,1.9999949891915298,0.004476953019651785,1.6500000000000001,-0.005572279320466682,-2.9540520872740696e-05,1.2774934055558803e-07,0.9999961186063283,-0.002786136054384736,-1.4770381071770895e-05,2.272246720370163e-08,-4.096233198911854e-05,0.018298971945811055,0.0,-0.009925871599074177,-0.00017690547344125036,1.1807125405884845e-08,-0.0002897994932157949,0.0546646259060663,0.0,-0.0019499487064591862,-0.0008359243989311332,6.151419011952692e-08,0.12263318724636048,0.12262942144375899,0.12262061335476715,0.12262439335295088
0.93,1.9999945582246446,0.0046655067632013466,1.6500000000000001,-0.005671635541458546,-3.1351337210094705e-05,1.3805092870383324e-07,0.9999959789486181,-0.0028358139684242964,-1.567580131703843e-05,2.4571906781791776e-08,-4.398551759766306e-05,0.018855366172986294,0.0,-0.009944138899513434,-0.00018540362908542235,1.2433307621649595e-08,-0.0003075642991945291,0.05563934123977685,0.0,-0.0017032369609861972,-0.0008639165882428232,6.373591309375422e-08,0.12263276203255029,0.12262887014505264,0.12262117532022772,0.122625081916013
0.9400000000000001,1.9999940957317093,0.004859722097138821,1.6500000000000001,-0.005771162099207347,-3.3248532374488376e-05,1.4903317895682734e-07,0.9999958365757101,-0.0028855770434652052,-1.6624411998261986e-05,2.654567833485532e-08,-4.719230211020087e-05,0.0194215243503,0.0,-0.0099599363382939,-0.00019418380520610682,1.308184366775993e-08,-0.00032617654033595547,0.05661572873101073,0.0,-0.001456004429602458,-0.000892322540021181,6.598389477560457e-08,0.12263233790761277,0.12262831807075444,0.12262173885760638,0.12262577392151733
0.9500000000000001,1.9999935998158582,0.005059696804775701,1.6500000000000001,-0.00587083426906211,-3.523494709738022e-05,1.607303456620005e-07,0.9999956915110307,-0.002935412917072867,-1.7617633550788777e-05,2.8650267127231347e-08,-5.0591353687660815e-05,0.01999746077989077,0.0,-0.009973258988105483,-0.00020325007988584597,1.3752985517161686e-08,-0.0003456640881988801,0.0575935458476064,0.0,-0.0012083072102616818,-0.0009211300194818321,6.82559608558519e-08,0.12263191495917322,0.12262776536346018,0.1226223038565547,0.12262646920364337
0.96,1.999993068491588,0.005265528788210856,1.6500000000000001,-0.005970627279904279,-3.731346227091388e-05,1.731777630757518e-07,0.99999554378051,-0.0029853092035847066,-1.8656906493717698e-05,3.0892384474727926e-08,-5.419162180146075e-05,0.02058318733438108,0.0,-0.009984102482499134,-0.00021260640559574346,1.4446962884876968e-08,-0.000366055208510669,0.05857254960059813,0.0,-0.0009602013706116151,-0.0009503261405238391,7.054983496895438e-08,0.12263149327209692,0.12262721216593286,0.12262287020703981,0.12262716759393502
0.97,1.9999924996819203,0.005477316043999207,1.6500000000000001,-0.006070516319754853,-3.9486997659032767e-05,1.8641184662087934e-07,0.9999953934125871,-0.003035253496914047,-1.9743690785533278e-05,3.327897004147968e-08,-5.800234107847511e-05,0.02117871345287638,0.0,-0.009992463015517716,-0.00022225660269632275,1.5163982216540774e-08,-0.0003873785485273109,0.059552496599169565,0.0,-0.000711742934898351,-0.0009798973688950787,7.28631406309705e-08,0.12263107292846316,0.12262665862106399,0.12262343779936502,0.12262786892133518
0.98,1.9999918912155248,0.0056951566387860655,1.6500000000000001,-0.006170476541377179,-4.175851054377042e-05,2.0047009241523086e-07,0.9999952404382125,-0.0030852333733518067,-2.087946514732353e-05,3.581719390411015e-08,-6.203303501500177e-05,0.021784046137513783,0.0,-0.009998337341197101,-0.00023220435297364504,1.5904225697496378e-08,-0.0004096631237573015,0.060533143105565214,0.0,-0.00046298787112104833,-0.0010098295260776626,7.51934034182469e-08,0.12263065400754461,0.12262610487183448,0.1226240065241881,0.12262857301222214
0.99,1.9999912408238079,0.005919148684912628,1.6500000000000001,-0.006270483067874086,-4.413099430710636e-05,2.1539107501572385e-07,0.9999950848908477,-0.0031352363943653746,-2.206572635377608e-05,3.851445837329108e-08,-6.62935195533982e-05,0.022399189950559815,0.0,-0.010001722772940137,-0.000242453193217876,1.6667850284905712e-08,-0.00043293830405314915,0.061514245089947545,0.0,-0.00021399207854582575,-0.0010401077938941444,7.753805338789977e-08,0.12263023658578873,0.12262555106127648,0.12262457627253942,0.12262927969044861
1.0,1.9999905461379663,0.006149390315998131,1.6500000000000001,-0.0063705109982781765,-4.66074769488485e-05,2.3121444332399927e-07,0.9999949268064628,-0.0031852501093940395,-2.3303988492182846e-05,4.137839956302071e-08,-7.079390651510037e-05,0.023024147012056472,0.0,-0.010002617182768018,-0.0002530065088515279,1.7454986765254373e-08,-0.0004572337990750012,0.0624955582851872,0.0,3.51886245172732e-05,-0.0010707167198348907,7.989442773319688e-08,0.12262982073680381,0.12262499733243501,0.12262514693583801,0.12262998877738243
1.01,1.9999898046860076,0.006385979662504124,1.6500000000000001,-0.006470535413134,-4.919101954107657e-05,2.4798091460225653e-07,0.9999947662235324,-0.003235262058640368,-2.4595782189719893e-05,4.441688869819717e-08,-7.55446068837886e-05,0.023658916998014923,0.0,-0.010001019000449791,-0.0002638675276145738,1.826573883956965e-08,-0.0004825796431316084,0.06347683824157489,0.0,0.00028449851262922835,-0.0011016402231047843,8.225977367380615e-08,0.12262940653134731,0.1226244438283298,0.12262571840590752,0.12263070009194973
1.02,1.9999890138897374,0.006629014827286348,1.6500000000000001,-0.006570531380070923,-5.1884714619751544e-05,2.657322665502508e-07,0.999994603183028,-0.0032852597758569156,-2.5942653809304687e-05,4.76380331513404e-08,-8.05563339325207e-05,0.024303497139155753,0.0,-0.009996927212515433,-0.0002750393133136236,1.9100182238730496e-08,-0.000509006179404539,0.06445784038144298,0.0,0.0005338819646268957,-0.0011328616013882248,8.463125157876636e-08,0.12262899403731915,0.12262389069191808,0.12262629057498955,0.12263141345067954
1.03,1.9999881710617196,0.006878593861139674,1.6500000000000001,-0.006670473959365572,-5.469168451416904e-05,2.845113273970325e-07,0.9999944377284078,-0.0033352307911277174,-2.7346164614369277e-05,5.105017719961695e-08,-8.584010618871871e-05,0.02495788222019496,0.0,-0.009990341361157253,-0.0002865247596423383,1.9958363871144977e-08,-0.0005365440435622694,0.0654383200536859,0.0,0.0007832834748107594,-0.0011643635383282727,8.700593831860945e-08,0.1226285833197577,0.12262333806605726,0.12262686333575679,0.12263212866775075
1.04,1.9999872734022055,0.0071348147383415534,1.6500000000000001,-0.006770338209492748,-5.761507961500594e-05,3.0436196396375163e-07,0.9999942699056062,-0.003385162633644002,-2.880788990292345e-05,5.466190249364553e-08,-9.14072502309656e-05,0.025622064579674385,0.0,-0.009981261543019218,-0.00029832658408018907,2.0840301005102685e-08,-0.0005652241467714733,0.06641803258816859,0.0,0.0010326476639045679,-0.0011961281117180886,8.938083083843669e-08,0.12262817444083898,0.12262278609346788,0.12262743658132487,0.1226328455550415
1.05,1.9999863179960382,0.0073977753321994065,1.6500000000000001,-0.006870099192663647,-6.065807658177944e-05,3.253290676567453e-07,0.9999940997630178,-0.0034350428344735555,-3.0329418111317335e-05,5.848202822990834e-08,-9.726940331164746e-05,0.02629603411033537,0.0,-0.009969688407879162,-0.0003104473218767001,2.174598048791371e-08,-0.000595077658113528,0.06739673335001205,0.0,0.001281919289429067,-0.0012281368024007941,9.175284995102749e-08,0.1226277674598805,0.12262223491669735,0.12262801020526229,0.12263356392218001
1.06,1.9999853018095306,0.007667573390607397,1.6500000000000001,-0.006969731980350431,-6.382387649061104e-05,3.474585383531736e-07,0.9999939273514818,-0.0034848589293232386,-3.1912349888149014e-05,6.2519611018961e-08,-0.00010343851579956197,0.02697977826003442,0.0,-0.009955623157230637,-0.00032288932012820496,2.2675358004123235e-08,-0.0006261359864149626,0.0683741777937462,0.0,0.0015310432557112674,-0.0012603705038716293,9.411884434637574e-08,0.12262736243334811,0.12262168467808407,0.12262858410159974,0.122634283576597
1.07,1.9999842216873205,0.007944306511617965,1.6500000000000001,-0.007069211658796093,-6.711570292325551e-05,3.7079726614464416e-07,0.9999937527242627,-0.0035345984612941525,-3.355829713879687e-05,6.67839444420245e-08,-0.00010992685343670594,0.02767328203319925,0.0,-0.009939067542764937,-0.0003356547319541327,2.3628357374841225e-08,-0.0006584307615012464,0.06935012151732017,0.0,0.001779964623685893,-0.0012928095325777783,9.647559480537166e-08,0.12262695941486616,0.12262113551972172,0.1226291581648377,0.12263500432358095
1.08,1.9999830743492064,0.008228072119033546,1.6500000000000001,-0.0071685133345086504,-7.053679999842694e-05,3.9539311090759136e-07,0.9999935759370279,-0.0035842489836289486,-3.526888204109229e-05,7.128455828895393e-08,-0.0001167469994035542,0.028376527992823843,0.0,-0.009920023864756919,-0.0003487455107797605,2.460486990023067e-08,-0.0006919938148840165,0.07032432031596055,0.0,0.002028628620190029,-0.00132543363890976,9.881981861924917e-08,0.12262655845523215,0.12262058758342428,0.12262973228995311,0.12263572596633451
1.09,1.999981856386962,0.008518967438023826,1.6500000000000001,-0.007267612139738771,-7.409043034652116e-05,4.2129487967262473e-07,0.999993397047825,-0.0036337980624508363,-3.704573603268201e-05,7.603121747101069e-08,-0.00012391185618724747,0.029089496263000742,0.0,-0.009898494970361136,-0.0003621634047323279,2.560475374722621e-08,-0.0007268571598925103,0.07129653023586854,0.0,0.002276980646920626,-0.001358222018877446,1.0114817419978503e-07,0.12262615960243348,0.12262004101069138,0.12263030637240466,0.12263644830603307
1.1,1.9999805642611348,0.008817089470773925,1.6500000000000001,-0.007366483237939865,-7.77798730289044e-05,4.4855230176864064e-07,0.999993216117055,-0.003683233279493828,-3.8890498770664536e-05,8.103392060231663e-08,-0.00013143464724722098,0.02981216453198902,0.0,-0.009874484251818506,-0.00037590995115730944,2.662783338422637e-08,-0.0007630529712606503,0.07226650762774764,0.0,0.0025249662889317848,-0.0013911533264628333,1.0345726587850809e-07,0.12262576290166934,0.12261949594267448,0.1226308803081366,0.12263717114188497
1.11,1.9999791942978284,0.009122534972168793,1.6500000000000001,-0.007465101829209851,-8.160842140300335e-05,4.772160017211874e-07,0.9999930332074443,-0.0037325422348237873,-4.0804817064117886e-05,8.630289824433851e-08,-0.00013932891847292215,0.030544508055815957,0.0,-0.0098479956445825,-0.00038998647126158454,2.767389906479637e-08,-0.0008006135641818815,0.07323400920015274,0.0,0.0027725313227573364,-0.001424205686641341,1.0574364888787777e-07,0.1226253683953751,0.12261895252014335,0.12263145399358125,0.12263789427119351
