t,x,y,z,roll,pitch,yaw,qw,qx,qy,qz,vx,vy,vz,wx,wy,wz,ax,ay,az,wx_dot,wy_dot,wz_dot,m1,m2,m3,m4
0.0,-0.9510565162951535,-1.04654801910768,1.4848756317712892,0.0,0.0,0.0,1.0,0.0,0.0,0.0,0.0,0.0,0.0,-0.0,0.0,0.0,0.0,0.0,0.0,-0.0,0.0,0.0,,,,
0.01,-0.9510565160736688,-1.0465480190765273,1.4848756317057432,-6.286322627677773e-07,4.4718066864672115e-06,-2.8111219559649607e-12,0.999999999997451,-3.1431613137995507e-07,2.2359033432320743e-06,-7.027804889860047e-13,1.1031309152053043e-07,1.5512570040378448e-08,-3.264711180291342e-08,-0.00018665285019226797,0.0013285008892285918,0.0,4.3868365534922664e-05,6.166874335854141e-06,-1.2983483967870346e-05,-0.036186958076929954,0.25785562276341706,0.0,,,,
0.02,-0.9510565093439038,-1.0465480181310305,1.4848756297137915,-4.8759362216207305e-06,3.474311456229042e-05,-1.69405210713452e-10,0.9999999998461426,-2.4379681089686797e-06,1.7371557280426382e-05,-4.235130265931827e-11,1.7242964424306063e-06,2.4215558564673127e-07,-5.104088734202333e-07,-0.0007162602133511688,0.005109525618058368,0.0,0.0003408264484727013,4.7832442330893924e-05,-0.00010089851328369418,-0.06720158310331177,0.480567616965003,0.0,,,,
0.03,-0.9510564645271681,-1.0465480118423685,1.4848756164458767,-1.5951745427717227e-05,0.00011385751239513053,-1.8162260489902141e-09,0.9999999983477511,-7.975872649151867e-06,5.692875617224761e-05,-4.540565100546796e-10,8.527017926856558e-06,1.1958996577672788e-06,-2.52460575749691e-06,-0.0015453291336052029,0.011049692182306635,0.0,0.0011169045448971562,0.00015648134582402757,-0.00033073627581189924,-0.09339641016636627,0.6704622320510008,0.0,,,,
0.04,-0.9510563023659867,-1.046547989117925,1.4848755684286226,-3.664434731433302e-05,0.00026201259911865784,-9.601280577277146e-09,0.9999999912508237,-1.8322172869998727e-05,0.00013100629925056167,-2.400320082928399e-09,2.6322520034288245e-05,3.6866248428021395e-06,-7.794989423106437e-06,-0.002633032665743113,0.018873120233355654,0.0,0.00257014419658567,0.00035945313863567025,-0.0007612726801223711,-0.11511098384209459,0.8297818572318069,0.0,,,,
0.05,-0.9510558761063231,-1.0465479294652533,1.4848754421832637,-6.934681012473875e-05,0.0004967328966322283,-3.444684050409521e-08,0.9999999685559313,-3.4673399708272074e-05,0.00024836644621055903,-8.61170933436895e-09,6.276215103056893e-05,8.777925257053238e-06,-1.8589989832387138e-05,-0.003941140085721966,0.02832099417964484,0.0,0.004872233083457382,0.000680192019203905,-0.0014435457583800132,-0.13267149648884977,0.9606822984816067,0.0,,,,
0.06,-0.9510549543156264,-1.0465478006456423,1.484875169117994,-0.00011608255733232084,0.0008330379469277674,-9.67011644842635e-08,0.9999999115715787,-5.8041253459903736e-05,0.0004165189635251191,-2.4175284870600115e-08,0.0001270889808723578,1.7749370226438603e-05,-3.7651659398313596e-05,-0.005433935231932469,0.03915104112114126,0.0,0.008170087209806557,0.0011384884247638946,-0.0024213177069865146,-0.14639060764029665,1.0652312953738403,0.0,,,,
0.07,-0.9510532061784784,-1.0465475566931266,1.484874651148021,-0.00017853009360399038,0.0012836048560010654,-2.291620345976078e-07,0.9999997900607054,-8.926495476047918e-05,0.0006418023916107421,-5.729047347982184e-08,0.00022989777865252796,3.206114117978443e-05,-6.812516166025437e-05,-0.007078126287452778,0.05113694601631867,0.0,0.01258738115224335,0.001750712605646729,-0.003731521788800142,-0.1565674142239158,1.1454080805852387,0.0,,,,
0.08,-0.9510501891168117,-1.0465471362755814,1.4848737569986414,-0.00025804681729833004,0.001858924755324408,-4.796893510864222e-07,0.999999559726359,-0.00012902312963293926,0.00092946226704421,-1.1992218336834706e-07,0.00038291003603318504,5.33209646797703e-05,-0.00011349265422222525,-0.008842749823863898,0.06406772341485181,0.0,0.018226027137264244,0.002530040298273894,-0.005404694320759382,-0.16348754485771907,1.2031038076334921,0.0,,,,
0.09,-0.951045338586781,-1.0465464613753321,1.4848723191481308,-0.0003556918796595315,0.002567452831186733,-9.132211586762495e-07,0.999999160208782,-0.0001778452061884355,0.0012837261239110232,-2.283047289247434e-07,0.0005987635288022148,8.325326317136462e-05,-0.0001775114179270061,-0.01069907148910587,0.07774706235862386,0.0,0.025167603716374363,0.0034866706154235505,-0.0074653919707362475,-0.16742335464078248,1.2401226916331187,0.0,,,,
0.1,-0.9510379599094168,-1.0465454362674924,1.4848701313687207,-0.00047224807090212427,0.0034157517258944954,-1.613079146415055e-06,0.9999985137031336,-0.00023612231142013397,0.0017078751755122403,-4.032680334350316e-07,0.0008908159163684887,0.00012367044621334927,-0.000264156086477546,-0.01262048532927725,0.09199265858570953,0.0,0.03347473480668389,0.004628036272344807,-0.009932594587445068,-0.16863419970437818,1.2581837245862901,0.0,,,,
0.11,-0.9510272219971485,-1.0465439467750026,1.4848669468253752,-0.0006082427289887056,0.004408628245015836,-2.6815077192042288e-06,0.9999975242558189,-0.00030411766550326254,0.0022043126431917303,-6.703720747565584e-07,0.0012729618866900811,0.00017644626614429453,-0.0003775648329553423,-0.014582413382603248,0.10663554592017035,0.0,0.04319241986490093,0.0059590062672961715,-0.012820093787232596,-0.16736677337080702,1.2589228416921976,0.0,,,,
0.12,-0.951012152843176,-1.0465418597801042,1.4848624766935088,-0.0007639676787989176,0.005549263413514809,-4.239436955312203e-06,0.9999960777563704,-0.00038197647831335736,0.002774628753901113,-1.0598470770205727e-06,0.001759463361809073,0.00024349116332010682,-0.0005219893719237336,-0.01656220686941124,0.1215194366666304,0.0,0.05434931596264293,0.007482081135084376,-0.01613686752157523,-0.1638554881085721,1.2438954288482715,0.0,,,,
0.13,-0.9509916366454725,-1.0465390229727185,1.4848563892581834,-0.0009394982182506985,0.006839336012518881,-6.4254957942161335e-06,0.9999940426095959,-0.00046973535868759085,0.0034196624731171956,-1.6063459480301362e-06,0.002364792286845736,0.0003267295272460337,-0.0007017486380423094,-0.018539050021936097,0.13650007893674285,0.0,0.06695897253098898,0.009197580892179749,-0.019887440849109178,-0.1583228896005778,1.2145790742434348,0.0,,,,
0.14,-0.9509644124419407,-1.0465352648169404,1.4848483094587108,-0.001134711174377653,0.008279139799235485,-9.39432915422926e-06,0.9999912710479605,-0.0005673312514557097,0.004139560075637243,-2.348522298325874e-06,0.0031034855329841265,0.0004280788011117736,-0.0009211860043568936,-0.020493867349665244,0.15144463710642858,0.0,0.08102101954219515,0.011103825791984332,-0.024072233136019427,-0.1509800911767302,1.172376478896277,0.0,,,,
0.15,-0.950929074137896,-1.0465303947175641,1.4848378188439333,-0.0013493020569238254,0.00986769466677135,-1.3314292716050622e-05,0.99998760102571,-0.0006746099206185897,0.0049338306843535506,-3.3284523957129906e-06,0.003990011452660317,0.0005494303584240966,-0.001184629905667817,-0.022409234917545016,0.16623110003398267,0.0,0.09652230989649528,0.013197310008828914,-0.028687891908613213,-0.14202721862002474,1.118618452271483,0.0,,,,
0.16,-0.9508840718116316,-1.0465242033692783,1.4848244559047983,-0.001582801340140271,0.01160285203987793,-1.8364613026419475e-05,0.9999828586230433,-0.0007913339994023837,0.0058013989271015745,-4.590922909852164e-06,0.005038647632843741,0.0006926320816171485,-0.001496357734617458,-0.024269296023708385,0.18074772025759325,0.0,0.11343801678190926,0.015472868369275191,-0.033727613581904035,-0.13165385694961798,1.0545669297605806,0.0,,,,
0.17,-0.9508277141883249,-1.0465164632718489,1.4848077167521523,-0.001834589905525407,0.01348139482850158,-2.473210942321168e-05,0.9999768608797821,-0.0009171906294016422,0.0067406548748408105,-6.1826085473569275e-06,0.006263369399981341,0.0008594725737063699,-0.0018605628803762824,-0.026059681498558494,0.194892486134704,0.0,0.13173268677498112,0.01792383624929921,-0.03918145128803175,-0.12003949222724272,0.9814179588472579,0.0,,,,
0.18,-0.9507581721769663,-1.0465069293953062,1.484787056108967,-0.002103913679535367,0.01549913227499841,-3.260757896443669e-05,0.999969418972696,-0.0010517987117714448,0.007749501431523647,-8.151164893543707e-06,0.0076777486378534045,0.0010516669352377227,-0.0022813247820448698,-0.0277674347062382,0.20857262778275465,0.0,0.15136124945036933,0.02054220275593232,-0.04503661002834478,-0.10735394273506536,0.9003046101825741,0.0,,,,
0.19,-0.9506734833693448,-1.0464953399798134,1.4847618885874851,-0.002389897501024614,0.017650990034501594,-4.2181946832613197e-05,0.9999603416482792,-0.0011947157935516984,0.008825399347791713,-1.0544262153264728e-05,0.009294862487269264,0.0012708440399696805,-0.002762581871127685,-0.02938094121096696,0.2217041567280257,0.0,0.17226998426721116,0.023318757311935764,-0.051277729372970246,-0.09375777504313472,0.8122997785519609,0.0,,,,
0.2,-0.9505715574043946,-1.0464814174555546,1.4847315902230076,-0.0026915582535243965,0.019931095822689614,-5.36422832393641e-05,0.9999494388227752,-0.0013454446118115271,0.009965410027860529,-1.3408585180329148e-05,0.011127211504210172,0.0015185352439112036,-0.003308107279672595,-0.0308898629727136,0.2342114383622786,0.0,0.1943974455001838,0.026243229762085152,-0.05788715393169763,-0.07940270153162429,0.71841884680257,0.0,,,,
0.21,-0.9504501821054033,-1.046464869468638,1.4846955002372808,-0.0030078172975400008,0.022332860952539883,-6.71677842256799e-05,0.9999365252631877,-0.0015034393174836488,0.011166236292343772,-1.6788824336428615e-05,0.013186646860705937,0.0017961644635246714,-0.003921487192908393,-0.03228507685752073,0.2460267956402202,0.0,0.21767534598318403,0.029304424119640956,-0.06484519182000217,-0.06443195686524794,0.6196221931976466,0.0,,,,
0.22,-0.9503070303017017,-1.046445389999631,1.484652923005628,-0.003337512237918923,0.024849058062947828,-8.292580840427909e-05,0.9999214242665041,-0.0016681113996044113,0.012424261250036829,-2.0726680436968053e-05,0.015484306180411172,0.0021050395600885207,-0.004606101727450876,-0.033558617185872164,0.2570901419179655,0.0,0.2420294004335495,0.032490346071581286,-0.07213036134403336,-0.04898065174208485,0.516817529360292,0.0,,,,
0.23,-0.9501396672504944,-1.0464226605619806,1.4846031302031595,-0.003679408061050015,0.027471895318661746,-0.0001010680550082803,0.9999039712591168,-0.0018388353292627117,0.013735585419503081,-2.5259905414399823e-05,0.01803055760852605,0.0024463449684000876,-0.005365108218386226,-0.034703621996217786,0.2673486404261107,0.0,0.2673801291247421,0.03578832436117299,-0.07971962612839466,-0.03317610296369815,0.4108620619547091,0.0,,,,
0.24,-0.9499455585784597,-1.0463963514681767,1.4845453631065462,-0.004032207676212772,0.03019308733406688,-0.00012172696091686777,0.9998840172441916,-0.0020149539409603672,0.015096062227326923,-3.042139843556142e-05,0.020834951723385994,0.002821135509184925,-0.006201426800778761,-0.03571428266860719,0.2767563875823861,0.0,0.2936436226754185,0.03918512616645745,-0.08758861891054033,-0.017138139504495123,0.3025644765280355,0.0,,,,
0.25,-0.9497220786666328,-1.0463661231521226,1.4844788350289728,-0.004394561894802829,0.03300392304409368,-0.00014501238589201496,0.999861432031312,-0.002195783567359907,0.016501331994711696,-3.623837511156599e-05,0.02390618090472358,0.0032303313257646075,-0.007117728173388342,-0.036585796533851946,0.2852741171690047,0.0,0.3207322687228063,0.04266706659322712,-0.09571185422561482,-0.0009793848019642839,0.1926867465057787,0.0,,,,
0.26,-0.9494665194058979,-1.0463316275367605,1.484402733867003,-0.004765078880400183,0.0358953307149844,-0.0001710086463049737,0.9998361071899347,-0.002380618941598625,0.01794685450826213,-4.273162519061465e-05,0.027252045781285483,0.0036747138867208426,-0.008116423434621003,-0.03731432208530912,0.2928689223190693,0.0,0.3485554412483132,0.046220112401069074,-0.10406293020556087,0.015194484048467677,0.0819457742112746,0.0,,,,
0.27,-0.9491760992541504,-1.0462925094365771,1.4843162247391732,-0.00514233310169961,0.03885794025677592,-0.00019977194834591084,0.9998079586758989,-0.002568737879528264,0.01942794025479651,-4.991487177177518e-05,0.030879428388166315,0.004154922997479394,-0.009199655882974599,-0.037896936411870384,0.29951399226449277,0.0,0.37702015332328476,0.049829980081051606,-0.11261471971632221,0.0312844991242333,-0.0289851260171386,0.0,,,,
0.28,-0.9488479725298493,-1.0462484079851846,1.4842184526972015,-0.005524873819166858,0.04188214296899907,-0.0002313282622552689,0.9997769290882715,-0.0027594057524403985,0.020939780384332893,-5.7794242661770034e-05,0.034794271671900454,0.004671454764923177,-0.010369294676479577,-0.03833159448072662,0.30518836088427015,0.0,0.4060316740428392,0.053482228403630344,-0.12133955105696602,0.047198185147350316,-0.13947488998370147,0.0,,,,
0.29,-0.9484792388802592,-1.0461989580787163,1.484108545491735,-0.005911233134898884,0.044958148821987516,-0.00026567166962912535,0.9997429895220934,-0.0029518797590940326,0.022477475450372077,-6.636786205343035e-05,0.039001564989032296,0.005224660460329569,-0.01162693024787316,-0.038617089915672,0.3098766642457029,0.0,0.4354941104156985,0.05716234555534977,-0.13020937844455208,0.06284936196341098,-0.2489334965054797,0.0,,,,
0.3,-0.9480669528661858,-1.0461437918263272,1.483985616375593,-0.006299933633538036,0.048076041348964246,-0.00030276320645354214,0.9997061409909739,-0.0031454130042049624,0.024036062962590556,-7.562556826696958e-05,0.04350533525156451,0.005814746227112772,-0.012973871374483591,-0.038753016939887655,0.3135689045413292,0.0,0.465310954977938,0.060855830982916505,-0.13919594250857323,0.07815796420652635,-0.35681087508225623,0.0,,,,
0.31,-0.9476081336084387,-1.0460825399996094,1.483848766928446,-0.006689495640211199,0.05122583019924165,-0.0003425302153213283,0.99966641540186,-0.0033392583890107788,0.0256105437743292,-8.554876089458095e-05,0.048308643380362996,0.0064417735810378615,-0.014411143804039213,-0.038739733180124164,0.316260218079802,0.0,0.4953855998985769,0.06454827206322057,-0.14827092101879413,0.09304987619791316,-0.46259591164502845,0.0,,,,
0.32,-0.9470997744446032,-1.0460148334732582,1.483697089887864,-0.007078444119337364,0.054397501380834413,-0.0003848662113746335,0.9996238760725686,-0.0035326723181108187,0.027195907316028535,-9.611037835421502e-05,0.05341358573527667,0.007105660651758818,-0.015939490339855557,-0.038578323060863354,0.31795064527886097,0.0,0.525621818344933,0.06822541571788056,-0.15740607007031288,0.10745678004678558,-0.5658155353517162,0.0,,,,
0.33,-0.9465388525479794,-1.0459403046498246,1.4835296719726072,-0.007465315235783687,0.057581065201836076,-0.00042963125798547205,0.999578617790698,-0.0037249182255123087,0.028787155676172994,-0.0001072750046172854,0.05882130019840922,0.007806184115718728,-0.017559372291091772,-0.03827056155132648,0.31864490092222514,0.0,0.5559242138756628,0.07187323509088923,-0.1665733559496726,0.12131601489052178,-0.6660338695364499,0.0,,,,
0.34,-0.9459223384637412,-1.0458585888618848,1.483345596684975,-0.007848662597272276,0.06076660190423196,-0.00047665284011329327,0.9995307664202414,-0.003915269921702501,0.030379326523457206,-0.0001189991017533748,0.06453197659465952,0.008542981771635993,-0.019270972196005997,-0.03781887806411329,0.31835214326949696,0.0,0.5861986386294088,0.07547799140793557,-0.1757450779058476,0.13457044522197362,-0.7628514304517457,0.0,,,,
0.35,-0.9452472055204917,-1.045769325745442,1.4831439470799308,-0.008227063194180902,0.06394430497150198,-0.0005257272157371937,0.9994804780694829,-0.004103014762618646,0.03196751485782021,-0.00013123136295689497,0.0705448711413261,0.009315555710986217,-0.021074197728377632,-0.03722632034088731,0.31708574093936753,0.0,0.6163525810769794,0.07902629113597949,-0.18489398204993132,0.1471683363004838,-0.8559043583155719,0.0,,,,
0.36,-0.9445104390784327,-1.0456721605788404,1.482923808489616,-0.008599123049981696,0.06710452208238876,-0.0005766212188169974,0.9994279378404963,-0.0042874566406053815,0.03354689357369494,-0.00014391317890812756,0.07685832462625077,0.010123276037075175,-0.022968686699502514,-0.0364965181970342,0.314863036812758,0.0,0.6462955241049775,0.0825051385616553,-0.19399336660735014,0.1590632347248223,-0.9448636663299362,0.0,,,,
0.37,-0.9437090455783326,-1.0455667455819377,1.4826842711927182,-0.008963482592573334,0.07023779367748269,-0.0006290744809526084,0.9993733581866832,-0.004467918796832089,0.03511273281623756,-0.00015697920869379962,0.08346978402165543,0.010965385087484007,-0.024953813070405607,-0.035633647032855355,0.3117051085160035,0.0,0.6759392741988056,0.08590198390708023,-0.2030171787464306,0.17021385235588915,-1.0294344947166083,0.0,,,,
0.38,-0.9428400613583698,-1.0454527411707164,1.4824244330190175,-0.009318821753740159,0.07333488910262514,-0.0006828020333381475,0.99931697691022,-0.004643746454186684,0.036660418110333506,-0.00017035804508718684,0.09037582724850567,0.01184100211585363,-0.02702869389115355,-0.03464239105297386,0.3076365253379389,0.0,0.7051982624929706,0.0892047671016442,-0.2119401032071443,0.18058395190982238,-1.1093553583606905,0.0,,,,
0.39,-0.9419005612087392,-1.0453298171629617,1.4821434018802406,-0.009663864800978224,0.07638684029332331,-0.0007374972457925052,0.9992590548359644,-0.004814309269360976,0.03818546724269413,-0.0001839729627784663,0.09757219081391329,0.012749128390160961,-0.029192197086388358,-0.033527906167655566,0.3026851017029425,0.0,0.7339898184566008,0.09240195732835692,-0.22073764295385812,0.19014223269315336,-1.1843973783079131,0.0,,,,
0.4,-0.9408876666366457,-1.0451976539310486,1.4818402982191559,-0.0099973849030272,0.07938497296711448,-0.0007928350556288897,0.9991998732022476,-0.004979003602687088,0.03968354587920033,-0.0001977427371630018,0.10505380005177,0.013688652665825531,-0.0314429500084411,-0.032295782579240456,0.29688164756010466,0.0,0.7622344169821134,0.09548258846332883,-0.22938619207591363,0.19886221511620683,-1.2543634890732673,0.0,,,,
0.41,-0.9397985538169719,-1.0450559434982916,1.48151425736962,-0.01031820842770357,0.0823209352957837,-0.0008484754359315331,0.9991397308120367,-0.005137254604263986,0.041150481902634255,-0.00021158252054512627,0.11281480170448285,0.014658356993170593,-0.03377934868162319,-0.03095200708347788,0.2902597162533463,0.0,0.7898558996449349,0.09843629052696133,-0.23786310115986242,0.20672212279448426,-1.319087615436678,0.0,,,,
0.42,-0.938630461206486,-1.0449043905757127,1.4811644318210369,-0.01062521896810808,0.08518672403617504,-0.0009040670504571804,0.9990789409901532,-0.005288518115016035,0.042582278459875604,-0.00022540476210070444,0.12084859859136264,0.015656922819948786,-0.0361995676635309,-0.029502925139016586,0.28285535060647393,0.0,0.8167816709022191,0.10125331726542325,-0.24614673535718398,0.21370476122599333,-1.378433814081086,0.0,,,,
0.43,-0.9373806968019638,-1.0447427135364693,1.4807899933814155,-0.010917361091038136,0.08797470810666433,-0.0009592510408809134,0.9990178283935994,-0.005432282381538339,0.04397512571231827,-0.00023912015766233417,0.129147886116893,0.01668293735082804,-0.03870157045143713,-0.027955202778460777,0.27470682808989727,0.0,0.8429428699984625,0.10392456998098973,-0.25421652537130995,0.21979739221156197,-1.4322953770293703,0.0,,,,
0.44,-0.9360466450250277,-1.0445706453255545,1.4803901352339335,-0.011193643799528046,0.09067764960582078,-0.0010136648914582554,0.9989567257225751,-0.005568069583893213,0.045325411288491206,-0.00025263861534176833,0.13770469037979063,0.01773490012691925,-0.04128312036408248,-0.026315788451207255,0.265854406032334,0.0,0.8682745193459579,0.10644161772981874,-0.2620530115877834,0.22499160336142077,-1.4805938953257793,0.0,,,,
0.45,-0.9346257732188594,-1.0443879343027533,1.4799640738825859,-0.011453143699913128,0.09328872227999595,-0.0010669463163647608,0.9988959703795143,-0.00569543717591433,0.04662972944343859,-0.0002658702231765793,0.14651040765144382,0.01881122978961295,-0.04394179183141614,-0.024591874901749498,0.2563400679025914,0.0,0.8927156501479954,0.10879671400574295,-0.2696378815713745,0.2292831722018168,-1.5232782827577256,0.0,,,,
0.46,-0.9331156377442162,-1.0441943450171822,1.4795110509831695,-0.011695007862704153,0.09580152745721154,-0.0011187371159756929,0.9988359011224596,-0.005813979038036066,0.04788488893515263,-0.00027872620537047543,0.155555844999996,0.019910270994178112,-0.046674982027075644,-0.022790861197370477,0.24620727171555018,0.0,0.9162094060327396,0.11098281002865144,-0.2769540011539852,0.23267192455737523,-1.5603237606045475,0.0,,,,
0.47,-0.9315138896643816,-1.0439896589120834,1.4790303350564924,-0.011918456365894583,0.09821010747544273,-0.00116868695012581,0.9987768547573957,-0.005923326443182075,0.049087919634080525,-0.00029111985427412876,0.16483126184402166,0.021030301439761718,-0.04947992278063177,-0.02092031502631146,0.23550070161581513,0.0,0.9387031254657092,0.11299356475603924,-0.2839854393371603,0.23516158703632728,-1.5917308054177233,0.0,,,,
0.48,-0.9298182800108026,-1.043773674958873,1.4785212230813154,-0.01212278450911847,0.10050895664392898,-0.0012164569788955778,0.9987191629118417,-0.006023148836805751,0.050236077887297566,-0.0003029674260082947,0.17432641222741924,0.022169538983613762,-0.052353692708864495,-0.018987935391817444,0.22426602366558837,0.0,0.9601484037087638,0.11482335173629857,-0.2907174872330396,0.2367596335848876,-1.617524062674911,0.0,,,,
0.49,-0.9280266646232118,-1.0435462102197537,1.4779830419651323,-0.012307364687337981,0.1026930297862539,-0.0012617233246482629,0.9986631489291337,-0.0061131544327645004,0.051326850664225473,-0.00031418898854364047,0.18403058761482652,0.023326148808547973,-0.055293229507573316,-0.01700151582918078,0.2125496468141207,0.0,0.9805011350935473,0.11646726292233123,-0.2971366712675679,0.2374771262028071,-1.637751229806784,0.0,,,,
0.5,-0.9261370085599998,-1.0433071003385126,1.4774151498914618,-0.0124716479134557,0.10475774842339693,-0.0013041803128251619,0.9986091249194957,-0.006193090627317385,0.05235795851566628,-0.0003247092121003658,0.193932660014542,0.02449825061383419,-0.058295342347663176,-0.014968908272315054,0.20039848995875975,0.0,0.9997215363772818,0.11792110956405472,-0.3032307608697974,0.23732855002385225,-1.652481912576048,0.0,,,,
0.51,-0.9241473900764967,-1.0430561999594115,1.4768169375428857,-0.012615164980401867,0.10669900466363531,-0.001343543453319082,0.9985573890002803,-0.006262744234152472,0.05332735738234636,-0.00033445809289263005,0.20402112524361657,0.025683925800904568,-0.061356724321487074,-0.012897987693805261,0.18785975592649753,0.0,1.0177741519488523,0.11918142029838093,-0.30898877087110277,0.2363316430621355,-1.6618064591007495,0.0,,,,
0.52,-0.9220560041706346,-1.0427933830743619,1.4761878291995878,-0.012737527254807866,0.10851316287393427,-0.0013795521290066006,0.9985082227537433,-0.006321941543965982,0.05423323929305916,-0.0003433716024942507,0.21428414615745553,0.02688122462644081,-0.0644739648876626,-0.01079661763810683,0.1749807131140113,0.0,1.0346278416531123,0.12024543655524209,-0.31440095883813335,0.23450722100822757,-1.6658347759730048,0.0,,,,
0.53,-0.9198611656972033,-1.042518543298842,1.4755272837136595,-0.012838427096306955,0.11019705921423499,-0.0014119719631400735,0.9984618889264999,-0.006370548212722439,0.055074031995826556,-0.0003513922564191718,0.2247095956739556,0.02808817329659602,-0.06764356226481909,-0.008672616761901196,0.16180848542779186,0.0,1.0502557520012854,0.12111110539824171,-0.3194588175633363,0.23187899752779276,-1.6646951309455456,0.0,,,,
0.54,-0.9175613120535722,-1.0422315940772702,1.4748347953599223,-0.012917637898750714,0.11174799912181942,-0.0014405968426893028,0.9984186293904451,-0.006408468983315882,0.055848397568265255,-0.00035846959686902966,0.2352850994298767,0.029302780977290298,-0.07086193572697137,-0.006533726488890283,0.1483898510674244,0.0,1.064635271535468,0.12177706991850404,-0.3241550629368676,0.2284734005710917,-1.6585329465608674,0.0,,,,
0.55,-0.9151550054413328,-1.0419324688187952,1.4741098945644766,-0.012975013752142809,0.11316375283766344,-0.0014652505802859991,0.9983786633805185,-0.006435647245921475,0.05655523005553587,-0.0003645605859774297,0.24599807791482686,0.030523046696704758,-0.0741254377554508,-0.004387579878746839,0.13477105059797598,0.0,1.0777479711150664,0.12224265730030173,-0.3284836174237216,0.2243193852446056,-1.6475095889013667,0.0,,,,
0.56,-0.9126409347098313,-1.041621120964696,1.473352148512627,-0.013010488726805955,0.1144425490704668,-0.0014857882030676513,0.9983421860203009,-0.006452064442868195,0.057193652185915794,-0.00036962990725407873,0.25683578793592315,0.031746966117285114,-0.07743036600456765,-0.002241671801855127,0.12099760466444598,0.0,1.0895795298931443,0.12250786467703505,-0.3324395893699032,0.21944824382734213,-1.631801155364241,0.0,,,,
0.57,-0.9100179167889823,-1.0412975239888036,1.4725611616382541,-0.013024075784152994,0.11558306689689203,-0.0015020968623477688,0.9983093671421295,-0.006457739324373809,0.057763011215194004,-0.00037365017428059153,0.2677853632738635,0.03297253815575036,-0.08077297504041211,-0.00010333050303394366,0.10711414161466307,0.0,1.100119647750599,0.12257334289613954,-0.33601924836146985,0.21389341353511243,-1.6115972650328831,0.0,,,,
0.58,-0.9072848977201174,-1.0409616713325682,1.4717365759970913,-0.013015865321360775,0.1165844259985541,-0.0015140963635664978,0.9982803504042537,-0.006452727061958759,0.0582628739517936,-0.0003766020470141358,0.2788338543988308,0.03419777143078971,-0.08414948781444316,0.002020309371128092,0.09316423521877899,0.0,1.1093619449560683,0.12244037831149951,-0.33921999686026816,0.2076902826472136,-1.5870998548461093,0.0,,,,
0.59,-0.9044409532948957,-1.040613576276591,1.4708780715267453,-0.01298602336018095,0.11744617533757587,-0.0015217393213138232,0.9982552527035967,-0.006437118226793408,0.05869302101484477,-0.0003784742572974036,0.2899682671223224,0.03542069051931503,-0.08755610683575055,0.0041223322152406485,0.07919025260465597,0.0,1.1173038498195076,0.12211087272194242,-0.3420403383401905,0.2008759956126965,-1.5585219843771576,0.0,,,,
0.6,-0.9014852893135016,-1.0402532717506254,1.4699853661966409,-0.012934789393002086,0.11816828037316159,-0.0015250109492873011,0.9982341638789587,-0.006411037640631626,0.059053440377416895,-0.000379263546337933,0.301175600068685,0.03663934200332271,-0.09098902500811493,0.0061960653206893585,0.06523321247006131,0.0,1.123946475107348,0.12158732157438973,-0.344479842147779,0.1934892577487531,-1.5260866516417222,0.0,,,,
0.61,-0.8984172414744866,-1.0398808100842285,1.469058216051405,-0.012862473902042017,0.11875110892175766,-0.0015239284997754787,0.9982171466960529,-0.006374643107341457,0.059344320246839534,-0.00037897451799289507,0.3124428808578086,0.037851800290604476,-0.09444443610022804,0.008235101094277988,0.05133265358456922,0.0,1.129294483987163,0.12087279055024228,-0.3465391053110028,0.1855701401326522,-1.4900256219724073,0.0,,,,
0.62,-0.895236274909651,-1.0394962627004003,1.4680964151515055,-0.012769455570143202,0.11919541576307925,-0.00151854037158317,0.9982042371026312,-0.006328124033359321,0.05956604133356248,-0.0003776194126655824,0.3237572008981129,0.039056173193732314,-0.09791854481967412,0.01023331759819781,0.03752651355668581,0.0,1.133355946269772,0.119970890653576,-0.34821971152003006,0.17715988527222368,-1.4505782716393971,0.0,,,,
0.63,-0.8919419833783344,-1.039099719754702,1.4670997954152465,-0.012656178204018096,0.11950232609368407,-0.0015089249091813897,0.9981954447391375,-0.006271699945667764,0.05971916855938464,-0.00037521780747766986,0.33510574869664367,0.04025060725292815,-0.10140757646351205,0.012184897377061793,0.023851017814123975,0.0,1.1361421857166907,0.11888575191971905,-0.3495241875038258,0.1683007141187553,-1.4079904475714922,0.0,,,,
0.64,-0.8885340881363817,-1.0386912897224823,1.4660682263664782,-0.012523147392907757,0.11967331792898303,-0.0014951889192295746,0.9981907536878729,-0.00620561891612923,0.05980444225518062,-0.00037179624911988995,0.34647584160076844,0.04143329278961589,-0.10490778612053485,0.014084344544787273,0.010340578726792043,0.0,1.1376676191808637,0.11762199586279944,-0.3504559570264016,0.15903563496126746,-1.3625133442458301,0.0,,,,
0.65,-0.8850124364958595,-1.0382710989369652,1.465001614792622,-0.012370926927434175,0.11971020355366746,-0.0014774659334462832,0.9981901234415446,-0.006130155901196281,0.05982276889751838,-0.00036738782639788285,0.357854955893646,0.042602468678637026,-0.1084154674025225,0.0159265001107988,-0.0029722952082208215,0.0,1.137949588348582,0.11618470678082177,-0.35101929272654,0.14940825471307423,-1.3144023985734585,0.0,,,,
0.66,-0.8813770000923453,-1.0378392910810683,1.4638999043178242,-0.012200135004931901,0.11961511011959491,-0.0014559142490760614,0.9981934900703254,-0.006045611006168733,0.05977521143284072,-0.0003620316899772458,0.36923075517332077,0.04375642682829965,-0.11192696068404222,0.017706555531290188,-0.016057080203845643,0.0,1.1370081848505302,0.11457940203686365,-0.35121926602481235,0.13946259307087583,-1.2639162034122822,0.0,,,,
0.67,-0.8776278728772715,-1.0373960266359212,1.4627630748962468,-0.012011440248709666,0.11939045948926413,-0.0014307147799012597,0.9982007675651692,-0.0059523076832750385,0.0596629792372079,-0.0003557725271910555,0.3805911169529746,0.04489351635861338,-0.11543866083258741,0.01942006447720154,-0.028885308124425173,0.0,1.1348660695098811,0.11281200143496269,-0.3510616953217429,0.12924289999399877,-1.2113154401902928,0.0,,,,
0.68,-0.8737652688533913,-1.036941482289147,1.461591142230669,-0.0118055575695173,0.11903894742217166,-0.0014020687518781422,0.9982118493341025,-0.0058505908729236085,0.059487417758995104,-0.0003486600000057527,0.39192415742753955,0.04601214746925109,-0.1189470244130878,0.02106295281612073,-0.04143062760697869,0.0,1.131548286495332,0.11088879580926772,-0.3505530927108997,0.11879347691705087,-1.15686183101764,0.0,,,,
0.69,-0.8697895195719476,-1.0364758503060465,1.460384157121736,-0.011583243897977628,0.11856352220063346,-0.0013701952780456638,0.9982266098275281,-0.005740825097500865,0.05924999789143759,-0.000340748154350251,0.40321825435957187,0.04711079498996213,-0.12244857635305696,0.022631526810547954,-0.053668855428940204,0.0,1.1270820731470546,0.10881641494503551,-0.3497006094307896,0.10815850207370102,-1.1008171106019649,0.0,,,,
0.7,-0.8657010714105535,-1.0359993378668917,1.4591422047532951,-0.01134529381689207,0.11796736279105509,-0.0013353288473803373,0.9982449062682451,-0.00562339251708582,0.058952305121506045,-0.00033209480900286644,0.4144620680449457,0.04818800160734927,-0.1259399160568848,0.02412247953989454,-0.0655780181781466,0.0,1.121496666243433,0.10660179495004472,-0.3485119802793437,0.09738186027278428,-1.0434420182554054,0.0,,,,
0.71,-0.8615004826511524,-1.0355121663735896,1.457865403919388,-0.011092535122163008,0.11725385663619572,-0.0012977167617796979,0.9982665804618628,-0.005498690956410436,0.058596028501304596,-0.00032276093210755434,0.4256445603266166,0.04924238076310573,-0.12941772296002088,0.025532895558222485,-0.07713838426999026,0.0,1.1148231054765443,0.10425214519500668,-0.3469954672148338,0.08650697743061576,-0.9849953102833525,0.0,,,,
0.72,-0.8571884203777039,-1.0350145707290248,1.4565539061985298,-0.010825824340613853,0.11642657717365208,-0.0012576165543837215,0.9982914606635727,-0.005367131912320581,0.05818294948798929,-0.0003128100131622397,0.4367550116323896,0.05027261921999531,-0.13287876151603342,0.026860253804119317,-0.08833248634619895,0.0,1.1070940349042928,0.1017749149415465,-0.34515980236704935,0.07557666012583374,-0.9257327930739084,0.0,,,,
0.73,-0.8527656572134434,-1.0345067985924121,1.455207895080973,-0.010546042232259413,0.11548926117559079,-0.0012152934210298073,0.9983193634778108,-0.005229138550887634,0.05771493069810637,-0.0003023074379965025,0.4477830360202822,0.05127747929304431,-0.13631988561176064,0.028102428783200004,-0.09914513408100117,0.0,1.0983435031470938,0.09917775977633449,-0.34301413068255776,0.06463294040489145,-0.8659063772507137,0.0,,,,
0.74,-0.848233067917689,-1.0339891096140186,1.4538275850546936,-0.010254089303613165,0.11444578600466908,-0.001171017694828898,0.9983500957681686,-0.005085143703186379,0.057193904622237814,-0.00029131987384308536,0.4587185942227852,0.0522558007445995,-0.13973804240802074,0.029257690047604926,-0.10956341741404808,0.0,1.0886067630971061,0.09646850796993517,-0.34056795242786553,0.05371692602843263,-0.8057631533075031,0.0,,,,
0.75,-0.8435916258622198,-1.0334617746526158,1.4524132206558416,-0.009950881357455192,0.11330014688102594,-0.0011250623916988776,0.9983834565559733,-0.004935587868596046,0.056621862345876066,-0.00027991467111810405,0.4695520046889732,0.05320650234309264,-0.14313027560557387,0.030324700000437924,-0.119576700225749,0.0,1.077920071907831,0.09365512687896617,-0.3378310657743208,0.042868656310571684,-0.745544489202624,0.0,,,,
0.76,-0.8388423994072187,-1.0329250749790244,1.450965075489401,-0.009637345103151519,0.1120564342552433,-0.0010777008522499282,0.9984192388872323,-0.004780917234295654,0.05600084232254672,-0.0002681592879693866,0.48027395263111455,0.05412858308653637,-0.14649372813827474,0.031302510056406524,-0.12917660447021248,0.0,1.066320492032098,0.09074568951012461,-0.3348135096885717,0.032126963665485855,-0.6854851504486714,0.0,,,,
0.77,-0.8339865481966707,-1.0323793014690885,1.4494834512257637,-0.00931441385016373,0.11071881138214235,-0.0010292045027411767,0.9984572316490925,-0.004621581719421594,0.055332919245292204,-0.0002561207430426508,0.4908754970901042,0.055021123092964495,-0.14982564429759151,0.03219055519294335,-0.138356984783637,0.0,1.0538456940762588,0.08774834136466919,-0.33152550735240893,0.02152934093825115,-0.6258124432834515,0.0,,,,
0.78,-0.8290253193929232,-1.0318247537893985,1.4479686765788773,-0.008983023305843472,0.1092914921902496,-0.0009798407549745126,0.9984972213185709,-0.004458033052131614,0.054620193062744474,-0.00024386510126284713,0.5013480760417133,0.055883284161213825,-0.15312337129489997,0.032988646928760725,-0.14711389359194493,0.0,1.0405337622386475,0.08467126768193302,-0.3279774103358256,0.011111814560402543,-0.5667453815462106,0.0,,,,
0.79,-0.8239600438698604,-1.0312617395790369,1.4464211062715453,-0.008644107497012395,0.10777871954160516,-0.0009298710620152404,0.9985389936280533,-0.004290722887580952,0.05386477818607698,-0.00023145699674454714,0.5116835095733501,0.05671431000662871,-0.15638436027020983,0.033696964769155534,-0.15544553675035558,0.0,1.026423003100075,0.08152266120043868,-0.3241796437471028,0.0009088235345885667,-0.5084938779065082,0.0,,,,
0.8,-0.8187921323838048,-1.0306905736305672,1.4448411199933633,-0.008298594833219965,0.10618474397636866,-0.0008795491435856976,0.9985823351338866,-0.004120100974566358,0.05306879293317274,-0.0002189591962426509,0.5218740011686887,0.05751352617746084,-0.15960616675820805,0.034316046159304954,-0.16335221975896277,0.0,1.0115517585343787,0.07831069055519234,-0.3201426525837747,-0.009046895781631412,-0.4512579600983201,0.0,,,,
0.81,-0.8135230717408475,-1.030111577073427,1.4432291213566542,-0.007947404327980821,0.10451380303629182,-0.0008291193919179277,0.9986270346762879,-0.003946613378334956,0.05223434925631191,-0.00020643220584390222,0.5319121371451901,0.05828033965891476,-0.16278645062474859,0.03484677498835786,-0.17083628461226993,0.0,0.9959582235069654,0.07504346942974388,-0.3158768495082632,-0.018724419156425347,-0.3952270127969323,0.0,,,,
0.82,-0.8081544209788251,-1.0295250765628108,1.4415855368556239,-0.007591441992746019,0.10277010126057298,-0.0007788154658235877,0.9986728847207366,-0.0037707007667882662,0.051363542799568326,-0.00019393392289153102,0.5417908842972637,0.0590142381729844,-0.16592297548915583,0.03529036868821782,-0.17790203735582732,0.0,0.9796802695291347,0.07172902658156673,-0.31139256427204415,-0.028094738323598937,-0.3405790457426984,0.0,,,,
0.83,-0.8026878075815842,-1.0289314034770345,1.4399108148337922,-0.007231597416896512,0.1009577909469378,-0.0007288590777901468,0.9987196825729632,-0.0035927967670467183,0.050458443331929635,-0.000181519334440395,0.5515035858054412,0.059714789183402346,-0.1690136076499435,0.03564836397156127,-0.1845556664395178,0.0,0.9627552745363478,0.0683752768593603,-0.30669999501214307,-0.03713085930660142,-0.287479988661661,0.0,,,,
0.84,-0.7971249237425474,-1.0283308931262838,1.4382054244645675,-0.0068687405456674885,0.09908095376983837,-0.0006794589760793387,0.9987672314615866,-0.0034133263990708653,0.049521085601836205,-0.00016924026286689074,0.5610439554796517,0.06038163861621554,-0.17205631453379439,0.03592260125378156,-0.1908051519739352,0.0,0.9452199599580501,0.0649899933308324,-0.30180916164379773,-0.0458078953783453,-0.2360830134626125,0.0,,,,
0.85,-0.7914675226938626,-1.0277238839755287,1.436469854749624,-0.006503718666653226,0.0971435833466462,-0.00063081012112588,0.9988153414843511,-0.0032327045927735393,0.048553460658473796,-0.00015714515861604505,0.5704060704123646,0.061014509307686995,-0.17504916268987622,0.03611520780323172,-0.19666016601295408,0.0,0.9271102357472476,0.061580780639538917,-0.29672986157312725,-0.05410315483360116,-0.1865278841030822,0.0,,,,
0.86,-0.7857174151166245,-1.0271107168842712,1.4347046135395094,-0.006137353614410753,0.09514956884140935,-0.0005830930530393634,0.9988638304157504,-0.0030513347948018777,0.047557507684640905,-0.00014527893946445405,0.5795843621250094,0.061613199192403274,-0.17799031535382517,0.03622857966331036,-0.20213196400156613,0.0,0.9084610541376072,0.0581550497093761,-0.29147162795359155,-0.06199622377207311,-0.13894033441891898,0.0,,,,
0.87,-0.7798764656467937,-1.0264917343656499,1.4329102265806548,-0.0057704392016801305,0.09310267969433568,-0.0005364734447256998,0.9989125243755833,-0.0028696076709187127,0.04653510638543335,-0.00013368287511875148,0.5885736062988176,0.06217757924566092,-0.18087802960793517,0.036265362388628895,-0.20723326754284666,0.0,0.8893062728960651,0.054719993915265365,-0.2860436907101183,-0.06946904410895012,-0.09343147410517712,0.0,,,,
0.88,-0.7739465894904727,-1.025867279867289,1.4310872365926819,-0.00540373888489688,0.09100655156356656,-0.0004911018330873019,0.998961258359647,-0.0026878999096827125,0.04548806997630168,-0.00012239451546070204,0.5973689111888578,0.06270759119538365,-0.18371065316636484,0.036228430635746496,-0.21197813865113366,0.0,0.8696785288388272,0.0512825668386538,-0.28045494055469333,-0.0765059870442849,-0.050097222923660346,0.0,,,,
0.89,-0.7679297491611872,-1.0252376970761117,1.4292362023796041,-0.00503798367095773,0.08886467356408338,-0.000447113518944496,0.999009876635318,-0.00250657313290182,0.04441813881327349,-0.00011144766029525233,0.6059657048277581,0.06320324502001319,-0.1864866208163942,0.036120866646762784,-0.21638184566956248,0.0,0.849609122378674,0.04784946172635774,-0.27471389621723546,-0.08309392223373417,-0.009017773102644568,0.0,,,,
0.9,-0.7618279513507089,-1.0246033292491703,1.4273576979781994,-0.004673870271651529,0.08668037688676329,-0.0004046286247567099,0.9990582330061958,-0.002325972918136139,0.043326974707301034,-0.00010087236806077819,0.6143597211332468,0.06366461624999949,-0.18920445054898918,0.03594593766148634,-0.22046072103926007,0.0,0.8291279138716139,0.04442709277136967,-0.26882867511561853,-0.08922228291001337,0.029742920215215327,0.0,,,,
0.91,-0.755643243943779,-1.023964518572368,1.4254523118464824,-0.004312059511740506,0.08445682487863267,-0.00036375229791023815,0.9991061909512745,-0.0021464279383370906,0.042216155963775974,-9.069500062207493e-05,0.6225469850413612,0.06409184309170138,-0.19186273941420492,0.03570707229099465,-0.22423201111422408,0.0,0.8082632325305723,0.04102157833416674,-0.26280696768859657,-0.09488312720708007,0.06613762071894606,0.0,,,,
0.92,-0.7493777131858366,-1.0233216055487449,1.4235206460948404,-0.003953174996400225,0.08219700466341864,-0.0003245750462822832,0.999153623645263,-0.00196824922354767,0.04108717318732948,-8.093830098787861e-05,0.6305237967948409,0.06448512339369951,-0.19446015913915712,0.03540783588222054,-0.22771371822033343,0.0,0.7870417986742876,0.03763872622312537,-0.2566560156155491,-0.10007119593748946,0.10013626519906872,0.0,,,,
0.93,-0.7430334810115147,-1.0226749284178016,1.4215633157620151,-0.0035978020435637726,0.07990372037942135,-0.00028717319197895877,0.9992004138676953,-0.0017917295494415677,0.039941425891031286,-7.162150057442544e-05,0.6382867155238489,0.06484471147670218,-0.19699545154856432,0.03505190489984363,-0.2309244351595393,0.0,0.7654886600792147,0.03428402115260792,-0.25038259414680364,-0.104783967067396,0.13172639074452291,0.0,,,,
0.94,-0.7366127025402718,-1.0220248226071142,1.419580948137687,-0.003246486886670911,0.07757958810967436,-0.0002516094285698702,0.9992464538093485,-0.0016171429573547565,0.038780219948094774,-6.276045247361496e-05,0.6458325422639783,0.0651709148494105,-0.199467423830074,0.03464304034827127,-0.23388317236043427,0.0,0.7436271432023249,0.03096261449728815,-0.2439929987683617,-0.10902170712343338,0.16091353532241817,0.0,,,,
0.95,-0.7301175637440218,-1.0213716202172607,1.4175741821330015,-0.002899736153382629,0.07522703257731075,-0.00021793346678917257,0.9992916447852426,-0.001444744410361179,0.037604765923177075,-5.436778707594067e-05,0.6531583025639801,0.06546409083391025,-0.20187494368884043,0.03418506025297016,-0.23660917787572472,0.0,0.7214788200427877,0.0276793164613085,-0.23749303642492572,-0.11278751975141169,0.18772161223331335,0.0,,,,
0.96,-0.7235502792900752,-1.0207156495408456,1.4155436676999065,-0.0025580166259633976,0.07284828567699514,-0.00018618275352443985,0.9993358968641216,-0.0012747695898596364,0.03641617831932973,-4.645308634069743e-05,0.6602612288435752,0.06572464312531513,-0.20421693443806627,0.033681811216955265,-0.23912175042447395,0.0,0.6990634914104703,0.024438590780832447,-0.23088802152495275,-0.11608739162865675,0.21219325894581162,0.0,,,,
0.97,-0.7169130905610508,-1.020057234616149,1.4134900652997038,-0.002221755289255473,0.07044538691125182,-0.00015638324895114923,0.9993791284248325,-0.001107434837076821,0.035215475775625,-3.902307299496026e-05,0.667138742669114,0.06595301831160251,-0.20649237007442067,0.03313713906489379,-0.24144004567429564,0.0,0.6763991873691045,0.021244552078580732,-0.2241827769516289,-0.11893023591030204,0.23439016080918765,0.0,,,,
0.98,-0.7102082638517219,-1.0193966948156616,1.4114140454207087,-0.0018913396724458493,0.06802018579853854,-0.00012855024686869542,0.9994212656504339,-0.0009429372438445149,0.03400358224946759,-3.208181097315969e-05,0.673788437122783,0.06614970238074337,-0.20870027038954636,0.03255485858416458,-0.24358287595550254,0.0,0.6535021856221233,0.018100965988910166,-0.2173816403035844,-0.12132793336535694,0.2543933501131164,0.0,,,,
0.99,-0.7034380887409325,-1.018734344469498,1.4093162881443935,-0.001567118491155004,0.06557434631793829,-0.00010268922363026542,0.9994622419711985,-0.00078145489698158,0.032781329216579766,-2.5630913475368505e-05,0.6802080594485672,0.0663152172434367,-0.21083969617104092,0.03193872236940114,-0.24556850359598864,0.0,0.6303870486089637,0.015011252172021814,-0.21048847558913394,-0.12329537133158591,0.2723034809174647,0.0,,,,
1.0,-0.696604876634884,-1.0180704925233792,1.407197482758841,-0.0012494025967349535,0.06310935345344706,-7.879670150791106e-05,0.9995019974679294,-0.0006231472805970482,0.03154945892066133,-1.9669755118572645e-05,0.6863954941659518,0.06645011730091904,-0.21290974454859202,0.031292388774579655,-0.24741442806382669,0.0,0.6070666800800324,0.011978490335888407,-0.203506690597941,-0.12485048059010893,0.28824108001350224,0.0,,,,
1.01,-0.6897109594761226,-1.0174054422305867,1.4050583274177721,-0.0009384662400369827,0.06062652189885756,-5.686111286969635e-05,0.9995404782472259,-0.00046815584062576083,0.03030862870369138,-1.4195684774940311e-05,0.692348746849906,0.06655498608852702,-0.21490954454314523,0.030619388974639446,-0.24913716710335007,0.0,0.5835524019178717,0.009005429384441863,-0.19643926017381552,-0.12601427023137832,0.30234677430313706,0.0,,,,
1.02,-0.6827586886105301,-1.016739490876968,1.4028995288428168,-0.0006345486573026312,0.05812700698240088,-3.6863652144130306e-05,0.9995776358004931,-0.0003166047159189641,0.029059416446870236,-9.204235828630055e-06,0.6980659287835974,0.06663043302687403,-0.21683825287923203,0.029923093137072088,-0.2507520320509039,0.0,0.5598540519727087,0.0060944998106311375,-0.18928875561263125,-0.1268108605557289,0.3147814948019819,0.0,,,,
1.03,-0.6757504338025501,-1.0160729295377566,1.4007218020660863,-0.00033785598621039544,0.05561181786836378,-1.8779103181638703e-05,0.999613426358648,-0.00016860164022433578,0.02780232715117419,-4.689330731397894e-06,0.7035452426976532,0.06667709031366541,-0.2186950501228455,0.029206675702727506,-0.25227289751888793,0.0,0.5359801036802864,0.003247829452915933,-0.18205738040900868,-0.1272675140241599,0.3257266573912,0.0,,,,
1.04,-0.6686885823866541,-1.0154060428646274,1.3985258702094712,-4.8563520481434653e-05,0.053081833090962365,-2.5766302722761257e-06,0.9996478102546086,-2.4239019408248225e-05,0.026537800685471118,-6.434768918300562e-07,0.7087849698177473,0.06669560999039645,-0.22047913720944828,0.02847307977448507,-0.25371196564062065,0.0,0.5119378082298852,0.00046726273374897307,-0.17474701257576247,-0.12741466425051898,0.33538432036663707,0.0,,,,
1.05,-0.6615755385408448,-1.0147391089010647,1.3963124642964315,0.00023318168819096808,0.050537818473750336,1.1779478276879623e-05,0.9996807513058023,0.00011640481170178213,0.025266220729084684,2.9420489116580794e-06,0.7137834584498325,0.06668666121934039,-0.22218973242898427,0.027724980612171473,-0.25507952507406667,0.0,0.4877333600502729,-0.002245616501321758,-0.1673592537598147,-0.12728594300504711,0.3439773187734397,0.0,,,,
1.06,-0.6544137226656359,-1.0140723989237561,1.3940823230913626,0.0005072578718069312,0.04798044748585648,2.4329124480757872e-05,0.999712216229086,0.0002532641484616135,0.02398792493464192,6.077030252615247e-06,0.7185391143399948,0.06665092780741731,-0.2238260689369523,0.026964748232291426,-0.25638370497020146,0.0,0.46337208638189,-0.004889458425419294,-0.15989548537842396,-0.12691820518401245,0.35174937547723784,0.0,,,,
1.07,-0.6472055708495413,-1.0134061773073568,1.3918361929609286,0.000773565221927984,0.04541032408414594,3.511578282145712e-05,0.9997421741006554,0.00038628428712459074,0.022703216335875524,8.772157427116878e-06,0.7230503930536445,0.06658910601474412,-0.22538739286288478,0.026194409111582814,-0.2576302241190127,0.0,0.43885866170274457,-0.007463116834362542,-0.15235693199963984,-0.12635155169100568,0.3589651889184091,0.0,,,,
1.08,-0.6399535343996239,-1.0127407014095824,1.3895748277510112,0.0010320221900836362,0.04282800808829815,4.4185959546384e-05,0.9997705958737146,0.0005154197026912673,0.021412376023935586,1.1038892851740313e-05,0.7273157946265025,0.06650190268681988,-0.22687296208977917,0.025415606994009417,-0.25882213549475447,0.0,0.41419734777635747,-0.009965614794341294,-0.14474473219063638,-0.12562935017524315,0.3659104975383938,0.0,,,,
1.09,-0.6326600794131039,-1.012076221473196,1.3872989886722011,0.0012825614028225448,0.04023404313345613,5.158873796817915e-05,0.9997974539668979,0.0006406320294535013,0.020115677114528215,1.2889357741991434e-05,0.7313338607473017,0.06639003375051618,-0.22828204578028255,0.024629562801416864,-0.2599595664284169,0.0,0.38939226008933253,-0.012396106214756933,-0.13706001705801157,-0.124798253581277,0.3728921209626421,0.0,,,,
1.1,-0.6253276863633591,-1.0114129805410437,1.3850094441859677,0.0015251251812779412,0.03762898724284353,5.737541815428972e-05,0.9998227219366521,0.0007618878397707811,0.018813400026997905,1.4336242206567055e-05,0.7351031747400574,0.06625422311519615,-0.22961392472768916,0.023837033648432347,-0.26103945463979505,0.0,0.36444766144667307,-0.014753833227561382,-0.12930399670356682,-0.12390821648591321,0.38023797819652444,0.0,,,,
1.11,-0.6179588496709718,-1.0107512143798765,1.3827069698828582,0.00175966065493187,0.03501344606040238,6.15992589591747e-05,0.9998463742469968,0.000879156216611611,0.01750584909522475,1.5392740780524776e-05,0.7386223646212496,0.06609520202152443,-0.2308678926119757,0.023038270962120886,-0.2620552803607306,0.0,0.3393682834928029,-0.017038079254543436,-0.12147805481963961,-0.1230125092321033,0.3882970833373707,0.0,,,,
1.12,-0.6105560772276358,-1.0100911514082647,1.3803923483432716,0.001986114459079922,0.03238810878118804,6.431532991766335e-05,0.9998683861502412,0.0009924061153798306,0.016193370528971605,1.607251530717783e-05,0.7418901095150806,0.06591370888162752,-0.23204325824344918,0.022232977705977864,-0.2629967947740452,0.0,0.31415967692598507,-0.019248117644035806,-0.11358385164772203,-0.12216772991931309,0.397439519661373,0.0,,,,
1.13,-0.603121889837938,-1.0094330126234679,1.3780663689705066,0.0022044270053007023,0.0297537868151434,6.558048005005192e-05,0.9998887336923257,0.0011016035105166123,0.014876371743177992,1.6389686955986543e-05,0.7449051497174931,0.0657104896555611,-0.23313934887871549,0.021420264705750883,-0.2638497449748437,0.0,0.2888285911742931,-0.02138315575838604,-0.10562343552414276,-0.12143381437574505,0.4080563934058449,0.0,,,,
1.1400000000000001,-0.5956588205409834,-1.0087770115216643,1.3757298277849226,0.0024145263140536817,0.027111455217922173,6.545343008351299e-05,0.9999073938564178,0.0012067083223388883,0.013555342071637737,1.635885902084305e-05,0.7476663007075177,0.0654862988101282,-0.23415551469597348,0.020598606070993234,-0.2645955956311034,0.0,0.2633833843010268,-0.023442274393683384,-0.09759936323674237,-0.12087404432311857,0.42055976916530446,0.0,,,,
1.15,-0.5881694137709284,-1.0081233540054872,1.3733835271671837,0.002616321398293764,0.02446229692087337,6.399499390891642e-05,0.9999243448581757,0.0013076711195070343,0.012230874880632103,1.599517196471014e-05,0.7501724714119676,0.06524190090733976,-0.2350911345188569,0.019765793700367972,-0.26521124747233016,0.0,0.23783446390723284,-0.025424362413126164,-0.08951482941632909,-0.12055505404916855,0.43538258956474163,0.0,,,,
1.16,-0.5806562243122724,-1.0074722382723253,1.371028275537642,0.0028096951867251064,0.021807749791417252,6.126843419516261e-05,0.9999395666056216,0.00140442959241839,0.01090369109756264,1.531439194469399e-05,0.7524226870373416,0.06497807287095822,-0.23594562288032517,0.01891889085039364,-0.26566875266655177,0.0,0.21219475979968938,-0.02732804647546644,-0.08137380518661011,-0.12054683603094234,0.4529785827838926,0.0,,,,
1.17,-0.5731218160026749,-1.0068238546763617,1.368664886957987,0.0029944969749758333,0.019149556554833486,5.7339955883046796e-05,0.999953041335766,0.00149690479267248,0.009574664169437816,1.4333033743579953e-05,0.7544161167905351,0.06469560698078854,-0.23671843852024754,0.01805418473553329,-0.26593502704986094,0.0,0.18648022919191498,-0.029151615739958777,-0.07318118629671543,-0.12092274610224153,0.4738221626022879,0.0,,,,
1.18,-0.565568760132743,-1.0061783855568185,1.3662941806403601,0.0031705343925396688,0.0164898176095201,5.227933967048497e-05,0.9999647544388973,0.0015849971335331254,0.008244846466505898,1.3068518623104219e-05,0.7561521068172189,0.06439531464552291,-0.2374090944126554,0.017167138111837156,-0.2659715590449064,0.0,0.16071039520623592,-0.030892941429220215,-0.06494295095983996,-0.1217595089348766,0.4984083269329418,0.0,,,,
1.19,-0.5579996334889465,-1.0055360050243658,1.363916980348132,0.00333756487278241,0.013831046770257743,4.616071545316393e-05,0.9999746954796747,0.0016685821460055322,0.006915497147493109,1.1539367069207733e-05,0.7576302186952221,0.06407803100615478,-0.23801716942089216,0.01625233977568988,-0.26573411493743454,0.0,0.13490891944502448,-0.03254939113147227,-0.05666632762195278,-0.12313722480606314,0.5272525623296406,0.0,,,,
1.2,-0.5504170159824014,-1.0048968786971215,1.3615341136715757,0.003495286612589513,0.011176229978323028,3.906347284989172e-05,0.999982859421739,0.0017475059847125386,0.005588111505004096,9.765425683278822e-06,0.7588502738268853,0.0637446204231905,-0.2385423216809646,0.015303453883112241,-0.2651724399674781,0.0,0.10910420939864504,-0.03411773772349541,-0.048359972884512666,-0.12513937885491722,0.5608907637099892,0.0,,,,
1.21,-0.5428234878027587,-1.0042611633771337,1.3591464111606402,0.0036433290073576504,0.008528887024122678,3.107330224955243e-05,0.9999892480593114,0.0018215806771921445,0.004264451813021109,7.768126543852122e-06,0.7598124040831205,0.06339598290199577,-0.2389843038158784,0.014313167961996838,-0.2642299544248091,0.0,0.08333006145822783,-0.03559406279583472,-0.04003415980476224,-0.1278528542904052,0.5998791805419127,0.0,,,,
1.22,-0.5352216260329077,-1.0036290066576892,1.356754705295983,0.0037812425458939526,0.005893136337788849,2.2283355066674328e-05,0.9999938716550464,0.0018905791094764983,0.002946579703318842,5.570776171140097e-06,0.760517109058635,0.06303306151188469,-0.23934298008577082,0.013273139449087664,-0.26284344361066264,0.0,0.05762634030158051,-0.03697365446162007,-0.03170097679772302,-0.13136795130279774,0.6447944030167319,0.0,,,,
1.23,-0.5276140006565275,-1.0030005464512242,1.3543598292783854,0.003908488148395015,0.0032737629164309545,1.2795505858866999e-05,0.9999967507780602,0.001954229739840279,0.0016368901042766656,3.1988697164653817e-06,0.7609653203062172,0.06265685085570102,-0.23961834558101675,0.012173940534088405,-0.26094274012767116,0.0,0.032039695419206746,-0.03825089943037712,-0.023374537363407617,-0.135778413750125,0.6962334042805014,0.0,,,,
1.24,-0.5200031698868696,-1.0023759104270487,1.3519626156155584,0.004024425928976973,0.0006762894747435806,2.7216913837019255e-06,0.9999979183293605,0.002012211031376296,0.00033814678466285173,6.804241067419006e-07,0.7611584729250981,0.06226840664782347,-0.23981054756765316,0.0110050010335527,-0.2584503964819426,0.0,0.0066243155494558085,-0.03941916922834538,-0.01507120086332459,-0.14118146604095153,0.7548136576238537,0.0,,,,
1.25,-0.5123916747412504,-1.0017552153474993,1.3495638944842774,0.004128303362119966,-0.001892949071472389,-7.814707744045246e-06,0.9999974217336394,0.0020641455924985813,-0.000946480443448337,-1.953678472833473e-06,0.7610985848864409,0.06186885645972848,-0.2399199090967427,0.009754548946355322,-0.2552813454123826,0.0,-0.01855727820995749,-0.04047070044672753,-0.006809804569990489,-0.14767786301472044,0.8211733506445672,0.0,,,,
1.26,-0.5047820327820368,-1.0011385662905519,1.3471644918446204,0.004219242829821512,-0.004426727650036159,-1.867748872702865e-05,0.999995325266308,0.002109594012540464,-0.002213376793585474,-4.669348259203554e-06,0.760788344486552,0.06145941169343325,-0.23994695499158417,0.00840954825880335,-0.2513425446954704,0.0,-0.04343339984632766,-0.04139646889913917,0.001388092786696285,-0.1553719560289998,0.8959717217768534,0.0,,,,
1.27,-0.49717673094073656,-1.0005260557463003,1.3447652272819735,0.0042962285231968695,-0.006916849429953029,-2.9716311681674703e-05,0.9999917124724516,0.0021480483772740155,-0.003458441757952637,-7.428961773792211e-06,0.7602312063259841,0.06104138084430295,-0.23989244032870458,0.006955633469313625,-0.24653260239944,0.0,-0.0679223256633756,-0.0421860575699138,0.009497955752421391,-0.1643717788975582,0.9798895482245534,0.0,,,,
1.28,-0.48957821733803064,-0.9999177625741037,1.342366911551254,0.0043580926684766265,-0.009354060351807579,-4.076552541461634e-05,0.9999866886197503,0.0021789254462900487,-0.0046770464342519745,-1.0191071146294945e-05,0.7594314962206862,0.06061618411591607,-0.2397573815311582,0.005377040189057144,-0.24074137767028034,0.0,-0.09193138053275664,-0.042827518234523104,0.017492004936933554,-0.17478915778112092,1.0736298181983064,0.0,,,,
1.29,-0.48198889200831807,-0.9993137508065563,1.3399703437966464,0.00440350104283126,-0.011727959516476942,-5.1643231827475274e-05,0.999980383109948,0.0022015594707351753,-0.005863988788017648,-1.2910173309995514e-05,0.7583945254586993,0.06018536945087331,-0.239543090194526,0.0036565310438749364,-0.23384955111808842,0.0,-0.11535598239718108,-0.04330722663354129,0.02533893763420191,-0.18673984960834933,1.177918624403489,0.0,,,,
1.3,-0.4744110964332226,-0.9987140682856676,1.3375763084188044,0.004430939340217933,-0.014026915495730837,-6.215078024624425e-05,0.999972951714476,0.002215195425412364,-0.00701345188048972,-1.5536586760045318e-05,0.7571267147857369,0.059750630037448016,-0.2392512097580419,0.0017785699507000955,-0.22574931930708445,0.0,-0.13807874710005572,-0.04360974695824575,0.03300366602312146,-0.19593529254971231,1.2648360300339727,0.0,,,,
1.31,-0.46684710210427904,-0.9981187451663568,1.3351855716542698,0.004439448378434473,-0.016242846108305425,-7.210657967750506e-05,0.9999645579196125,0.0022193563615871296,-0.008121393789069778,-1.8024905810886946e-05,0.7556355890557224,0.059313801814832444,-0.23888371448427356,-8.805811176802726e-05,-0.2175309378540691,0.0,-0.16001674926908008,-0.04372513206301316,0.04046109144521904,-0.18118819151638504,1.196682280060926,0.0,,,,
1.32,-0.4592991031673518,-0.9975277930655848,1.3327988793380279,0.004429847761868763,-0.018379145654770522,-8.141276600619386e-05,0.9999553233335127,0.002214454477496506,-0.009189511096241559,-2.0350663192868213e-05,0.7539288933968517,0.05887672532089585,-0.2384426523987069,-0.00184726938542613,-0.20980903530590234,0.0,-0.18120041311194296,-0.043661105139631014,0.04771909862997696,-0.16772412913249463,1.1375413937603762,0.0,,,,
1.33,-0.45176921834123057,-0.996941205661647,1.330416957364879,0.004403153811659547,-0.02044038322242965,-8.999646550759331e-05,0.9999453509535197,0.002201000264865452,-0.010220087975273937,-2.2495645706113948e-05,0.752013953387571,0.05844114523575092,-0.23792995933679167,-0.003509462211866711,-0.20250573021663437,0.0,-0.20167206350877043,-0.04342739000765239,0.05478898802223216,-0.15541210534210964,1.0864875702294718,0.0,,,,
1.34,-0.4442594950845337,-0.996358959656241,1.3280405128002732,0.004360284390803338,-0.022430388108916968,-9.779528967583105e-05,0.9999347340109034,0.0021794549737500384,-0.01121503887817711,-2.4444267643148626e-05,0.7498977072511298,0.05800871375465085,-0.23734746884779573,-0.005083935191097019,-0.19555088061903397,0.0,-0.22146696424755108,-0.04303277693393707,0.06167995103940799,-0.14412997369846267,1.0426547675343139,0.0,,,,
1.35,-0.43677191312781205,-0.9957810156543243,1.325670234801138,0.004302069601482682,-0.024352324836269416,-0.00010475568765693421,0.9999235581474686,0.0021502359421363467,-0.012175946022440116,-2.6183158256085042e-05,0.7475867730001748,0.05758099941973673,-0.23669693226452876,-0.0065789582008160714,-0.18888161055104363,0.0,-0.24061400506612377,-0.04248522242760802,0.06839927236773233,-0.13376403749209811,1.0052341525224686,0.0,,,,
1.3599999999999999,-0.42930838736794025,-0.9952073189605499,1.3233067953459434,0.004229261777762909,-0.026208763531853748,-0.00011083169288769619,0.9999119031791479,0.0021137215770766914,-0.013104094566656455,-2.7700847790220407e-05,0.745087508896124,0.05715949498243223,-0.23598003680408322,-0.008001839965028758,-0.1824418566784491,0.0,-0.2591363518044478,-0.04179194333880345,0.07495252150623256,-0.12420867004591783,0.9734716732439256,0.0,,,,
1.37,-0.42187077018981844,-0.9946378003016886,1.3209508497931601,0.0041425448114187375,-0.02800174586986066,-0.00011598399156758583,0.9998998445062265,0.0020702560043647307,-0.014000505570280802,-2.898753398179491e-05,0.7424060675877159,0.05674562435275261,-0.23519842180580358,-0.009358992460998836,-0.1761819336237104,0.0,-0.27705206056736315,-0.040959505400227164,0.08134373382089038,-0.11536595589471764,0.9466657383363813,0.0,,,,
1.38,-0.414460853276808,-0.9940723764838955,1.3186030372862196,0.004042542844543538,-0.029732846754421477,-0.00012017925199502893,0.999887454220944,0.002020153402320256,-0.014865966826768986,-3.0034913766646168e-05,0.739548444284127,0.05634074869040508,-0.2343536932100695,-0.010655992409050406,-0.17005811683856645,0.0,-0.29437465679804986,-0.03999390635049988,0.08757558137133971,-0.10714535007104985,0.924164989899785,0.0,,,,
