t,x,y,z,roll,pitch,yaw,qw,qx,qy,qz,vx,vy,vz,wx,wy,wz,ax,ay,az,wx_dot,wy_dot,wz_dot,tb,mx,my,mz
0.0,0.0,0.0,1.5,0.0,0.0,0.0,1.0,0.0,0.0,0.0,0.0,0.0,0.0,-0.0,0.0,0.0,0.0,0.0,0.0,-0.0,0.0,0.0,,,,
0.01,-4.305984115661551e-11,0.0,1.4999999997669302,-0.0,-8.687733191887895e-07,0.0,0.9999999999999056,-0.0,-4.343866595943811e-07,0.0,-2.1440435216701516e-08,0.0,-1.1609525455427233e-07,0.0,-0.00025791415245512446,0.0,-8.522626145609427e-06,0.0,-4.617503076570164e-05,0.0,-0.049985485416996676,0.0,,,,
0.02,-1.3495079868842536e-09,0.0,1.4999999926813548,-0.0,-6.73530898151165e-06,0.0,0.9999999999943294,-0.0,-3.3676544907494597e-06,0.0,-3.3455905680924677e-07,0.0,-1.815810665722903e-06,0.0,-0.0009890647181518947,0.0,-6.607096294222994e-05,0.0,-0.0003590284284043041,0.0,-0.09272278438724076,0.0,,,,
0.03,-1.0035553836460447e-08,0.0,1.4999999454676936,-0.0,-2.2023800091118974e-05,0.0,0.999999999939369,-0.0,-1.1011900045336932e-05,0.0,-1.6515359043893501e-06,0.0,-8.985161847008329e-06,0.0,-0.0021324649736691194,0.0,-0.0002160275465269303,0.0,-0.0011774717245619823,0.0,-0.12870227719986108,0.0,,,,
0.04,-4.140957130469379e-08,0.0,1.4999997745312825,-0.0,-5.056802097034337e-05,0.0,0.9999999996803594,-0.0,-2.5284010482477754e-05,0.0,-5.088891221211949e-06,0.0,-2.7753966097743532e-05,0.0,-0.003631017586592777,0.0,-0.0004959351646177951,0.0,-0.002711625279472732,0.0,-0.15839951088414655,0.0,,,,
0.05,-1.2372919784054413e-07,0.0,1.4999993249329657,-0.0,-9.56500871498969e-05,0.0,0.9999999988563826,-0.0,-4.782504355671727e-05,0.0,-1.2110788907940118e-05,0.0,-6.621599495931463e-05,0.0,-0.0054314759813300015,0.0,-0.0009378352932997924,0.0,-0.005144422921342166,0.0,-0.18227236678950604,0.0,,,,
0.06,-3.0140821533954807e-07,0.0,1.499998352082749,-0.0,-0.00016003850423116882,0.0,0.9999999967984596,-0.0,-8.001925203018946e-05,0.0,-2.4475672059064505e-05,0.0,-0.00013416492784580207,0.0,-0.007484343724385815,0.0,-0.0015685961006646468,0.0,-0.008633167633960728,0.0,-0.20075912902943552,0.0,,,,
0.07,-6.377060145087781e-07,0.0,1.4999965059969393,-0.0,-0.00024602497043961605,0.0,0.9999999924339643,-0.0,-0.00012301248490956905,0.0,-4.4186126967362426e-05,0.0,-0.0002428456205947334,0.0,-0.009743728393037393,0.0,-0.0024102301606737267,0.0,-0.013311038965226132,0.0,-0.21427730056850763,0.0,,,,
0.08,-1.2169314152653662e-06,0.0,1.4999933179680267,-0.0,-0.0003554595488607115,0.0,0.9999999842060637,-0.0,-0.0001777297734946715,0.0,-7.344187341547166e-05,0.0,-0.0004047202095104395,0.0,-0.012167163735819005,0.0,-0.0034802020206129557,0.0,-0.019288552829254898,0.0,-0.2232230301458186,0.0,,,,
0.09,-2.146191601108828e-06,0.0,1.4999881895013178,-0.0,-0.0004897839511739852,0.0,0.9999999700139602,-0.0,-0.00024489197313921245,0.0,-0.00011459578050734466,0.0,-0.0006332485781993043,0.0,-0.014715411525249201,0.0,-0.0047917257655087685,0.0,-0.026654974374762806,0.0,-0.22797102977621944,0.0,,,,
0.1,-3.556715925103514e-06,0.0,1.4999803833770333,-0.0,-0.0006500627777941065,0.0,0.9999999471772986,-0.0,-0.00032503138317404126,0.0,-0.00017011280872603803,0.0,-0.0009426827212229963,0.0,-0.017352252367230977,0.0,-0.006354052722874108,0.0,-0.03547968459239409,0.0,-0.22887487855385116,0.0,,,,
0.11,-5.604783359140546e-06,0.0,1.4999690167012014,-0.0,-0.0008370126424446184,0.0,0.9999999124262308,-0.0,-0.00041850630900558384,0.0,-0.00024253178033798332,0.0,-0.0013478745453225677,0.0,-0.020044272871534808,0.0,-0.00817274945115348,0.0,-0.045813501333679216,0.0,-0.2262676234447014,0.0,,,,
0.12,-8.47228138651848e-06,0.0,1.4999530558132377,-0.0,-0.0010510291750492414,0.0,0.9999998619172124,-0.0,-0.0005255145633364473,0.0,-0.00033442988169757456,0.0,-0.0018640966556931079,0.0,-0.022760654993792276,0.0,-0.010249966155236101,0.0,-0.05768995541430117,0.0,-0.22046260142647742,0.0,,,,
0.13,-1.236692318058872e-05,0.0,1.4999313129225984,-0.0,-0.0012922119479995462,0.0,0.9999997912735424,-0.0,-0.0006461059290466354,0.0,-0.0004483898024395984,0.0,-0.0025068756815154357,0.0,-0.025472972012676072,0.0,-0.012584695672406086,0.0,-0.07112652247434985,0.0,-0.21175441958494245,0.0,,,,
0.14,-1.7522148969255537e-05,0.0,1.4999024443513156,-0.0,-0.001560387409702314,0.0,0.9999996956489069,-0.0,-0.0007801936257002198,0.0,-0.0005869694179807226,0.0,-0.0032918377016781064,0.0,-0.028154994482579083,0.0,-0.01517302317209879,0.0,-0.08612581126824477,0.0,-0.20042004057660032,0.0,,,,
0.15,-2.4196736556500907e-05,0.0,1.4998649502635755,-0.0,-0.001855129937929317,0.0,0.9999995698116451,-0.0,-0.0009275648359554386,0.0,-0.0007526739231849486,0.0,-0.0042345653383498195,0.0,-0.03078250857604522,0.0,-0.018008366712832187,0.0,-0.10267670905700547,0.0,-0.18671993025842099,0.0,,,,
0.16,-3.267414505782224e-05,0.0,1.4998171757678003,-0.0,-0.00217578114572757,0.0,0.9999994082471091,-0.0,-0.0010878903582763127,0.0,-0.0009479303264816254,0.0,-0.005350466092789104,0.0,-0.03333314847507964,0.0,-0.02108170879968241,0.0,-0.12075548477554987,0.0,-0.17089923235178525,0.0,,,,
0.17,-4.326161500652516e-05,0.0,1.4997573132809086,-0.0,-0.002521467586080412,0.0,0.9999992052752569,-0.0,-0.0012607334590614082,0.0,-0.00117506421515831,0.0,-0.006654651504504968,0.0,-0.03578624386092635,0.0,-0.024381819085672433,0.0,-0.14032685064770026,0.0,-0.15318894186271959,0.0,,,,
0.18,-5.628904710220497e-05,0.0,1.4996834060485857,-0.0,-0.002891117009475875,0.0,0.9999989551804866,-0.0,-0.0014455580012886578,0.0,-0.00143627870398445,0.0,-0.008161826721608952,0.0,-0.03812268306443474,0.0,-0.02789546836044282,0.0,-0.16134498292157656,0.0,-0.13380705475015967,0.0,,,,
0.19,-7.210768100147866e-05,0.0,1.4995933527194902,-0.0,-0.003283473332150997,0.0,0.9999986523506623,-0.0,-0.001641735928580322,0.0,-0.0017336354807555568,0.0,-0.009886190076925922,0.0,-0.04032479205251264,0.0,-0.031607633969573695,0.0,-0.18375450239805713,0.0,-0.11295967614887696,0.0,,,,
0.2,-9.108859469409439e-05,0.0,1.4994849128753303,-0.0,-0.0036971104729518764,0.0,0.9999982914222554,-0.0,-0.001848554183675706,0.0,-0.0020690378637812246,0.0,-0.011841342271157605,0.0,-0.04237622912163748,0.0,-0.03550169680792688,0.0,-0.20749141542498628,0.0,-0.09084207344176931,0.0,,,,
0.21,-0.00011362104416494732,0.0,1.4993557134227133,-0.0,-0.0041304452142167745,0.0,0.9999978674285495,-0.0,-0.0020652211390299216,0.0,-0.0024442157877740413,0.0,-0.014040204771119792,0.0,-0.04426189493071962,0.0,-0.03955963003037708,0.0,-0.2324840160298094,0.0,-0.06763966375865353,0.0,,,,
0.22,-0.00014011066221426976,0.0,1.4992032557565425,-0.0,-0.004581749237441068,0.0,0.9999973759478883,-0.0,-0.002290872614928723,0.0,-0.0028607126360301314,0.0,-0.016494947037800845,0.0,-0.04596785731895074,0.0,-0.04376217962330147,0.0,-0.2586537498633142,0.0,-0.04352892816736554,0.0,,,,
0.23,-0.0001709775344943394,0.0,1.4990249236085658,-0.0,-0.005049160478178613,0.0,0.9999968132490007,-0.0,-0.002524577557352537,0.0,-0.0033198738382257515,0.0,-0.019216922205716,0.0,-0.04748129020804241,0.0,-0.048089036980196245,0.0,-0.28591604062715903,0.0,-0.018678247019051818,0.0,,,,
0.24,-0.00020665417002146164,0.0,1.4988179914984265,-0.0,-0.00553069393702916,0.0,0.9999961764305085,-0.0,-0.0027653434440149138,0.0,-0.0038228371545880636,0.0,-0.022216610841758692,0.0,-0.0487904257729335,0.0,-0.05251900362478956,0.0,-0.3141810796578675,0.0,0.00675134729693713,0.0,,,,
0.25,-0.00024758338263673236,0.0,1.4985796337082506,-0.0,-0.006024252074925266,0.0,0.9999954635517971,-0.0,-0.0030121214826766725,0.0,-0.004370524568631883,0.0,-0.025503572418477012,0.0,-0.04988451897295564,0.0,-0.05703014822501956,0.0,-0.3433545793399693,0.0,0.0326055024632675,0.0,,,,
0.26,-0.0002942160991181745,0.0,1.498306933705427,-0.0,-0.006527634911465289,0.0,0.999994673752536,-0.0,-0.003263811661097438,0.0,-0.004963635712087912,0.0,-0.029086404143430146,0.0,-0.050753823460551184,0.0,-0.0615999560412467,0.0,-0.373338491020968,0.0,0.05873596427020576,0.0,,,,
0.27,-0.0003470091088902616,0.0,1.497996893941779,-0.0,-0.0070385499348897245,0.0,0.9999938073582432,-0.0,-0.003519267702905491,0.0,-0.005602642747081634,0.0,-0.03297270679300643,0.0,-0.0513895778223663,0.0,-0.06620547095206933,0.0,-0.4040316881008129,0.0,0.0850000806195588,0.0,,,,
0.28,-0.00040642276953460914,0.0,1.4976464459608188,-0.0,-0.007554621921574756,0.0,0.9999928659694352,-0.0,-0.003777301978299157,0.0,-0.0062877866320557455,0.0,-0.0371690572058115,0.0,-0.05178400105456457,0.0,-0.07082343020111144,0.0,-0.4353306149685592,0.0,0.11126039067107346,0.0,,,,
0.29,-0.0004729186815777023,0.0,1.4972524607481785,-0.0,-0.008073402751700744,0.0,0.9999918525320647,-0.0,-0.004036690412879409,0.0,-0.0070190746993627085,0.0,-0.04168098709746177,0.0,-0.05193029612831425,0.0,-0.07543039200815174,0.0,-0.4671299024588916,0.0,0.1373842975446135,0.0,,,,
0.3,-0.0005469573453179711,0.0,1.4968117592636725,-0.0,-0.008592381296107798,0.0,0.9999907713871524,-0.0,-0.004296177432085697,0.0,-0.007796279473887663,0.0,-0.0465129678653454,0.0,-0.05182266046129956,0.0,-0.08000285618796311,0.0,-0.4993229505011953,0.0,0.16324382230630288,0.0,,,,
0.31,-0.0006289958117552916,0.0,1.4963211230967168,-0.0,-0.009108993437330744,0.0,0.9999896282977486,-0.0,-0.004554480972693194,0.0,-0.008618938663495663,0.0,-0.05166840105863946,0.0,-0.05145630207632785,0.0,-0.08451737792023097,0.0,-0.5318024786338504,0.0,0.1887154363321675,0.0,,,,
0.32,-0.0007194853390010965,0.0,1.4957773051900498,-0.0,-0.009620632275465498,0.0,0.9999884304516368,-0.0,-0.004810297586656707,0.0,-0.009486356253530845,0.0,-0.05714961419559893,0.0,-0.050827460198824385,0.0,-0.08895067481392047,0.0,-0.5644610450564337,0.0,0.2136799685398546,0.0,,,,
0.33,-0.0008188690648767312,0.0,1.4951770405798437,-0.0,-0.01012465855691562,0.0,0.9999871864385029,-0.0,-0.0050623076562834966,0.0,-0.01039760463902892,0.0,-0.06295786161686028,0.0,-0.04993342902196382,0.0,-0.09327972740946053,0.0,-0.5971915348925028,0.0,0.23802258339504392,0.0,,,,
0.34,-0.000927579705751464,0.0,1.4945170571033757,-0.0,-0.010618411351270595,0.0,0.999985906200653,-0.0,-0.005309180733318699,0.0,-0.011351527729737907,0.0,-0.06909333007022843,0.0,-0.048772583352531304,0.0,-0.09748187326211447,0.0,-0.6298876183356477,0.0,0.26163282502673924,0.0,,,,
0.35,-0.0010460372910296866,0.0,1.4937940860284349,-0.0,-0.011099218988656108,0.0,0.9999846009567521,-0.0,-0.0055495810080732726,0.0,-0.012346744964475942,0.0,-0.0755551487291436,0.0,-0.047344404843799585,0.0,-0.1015348947499059,0.0,-0.6624441793514856,0.0,0.2844047222222486,0.0,,,,
0.36,-0.0011746469420692873,0.0,1.4930048725615939,-0.0,-0.011564410256968452,0.0,0.999983283098502,-0.0,-0.0057821729082637935,0.0,-0.01338165617278842,0.0,-0.08234140335375029,0.0,-0.04564950752540859,0.0,-0.10541710074946882,0.0,-0.6947577156082803,0.0,0.30623694852003913,0.0,,,,
0.37,-0.0013137967036999827,0.0,1.492146186195344,-0.0,-0.012011325845573911,0.0,0.999981966060633,-0.0,-0.006005626820823215,0.0,-0.014454447223300701,0.0,-0.08944915431021899,0.0,-0.043689661356176974,0.0,-0.10910740232319124,0.0,-0.7267267103088659,0.0,0.32703303108240117,0.0,,,,
0.38,-0.0014638554359115096,0.0,1.4912148308569042,-0.0,-0.01243733000945045,0.0,0.9999806641650922,-0.0,-0.006218624923646932,0.0,-0.015563096399596032,0.0,-0.09687445817069597,0.0,-0.0414678125556589,0.0,-0.11258538256102134,0.0,-0.7582519765965569,0.0,0.3467016015186238,0.0,,,,
0.39,-0.001625170772697062,0.0,1.4902076548242615,-0.0,-0.01283982241552037,0.0,0.9999793924408212,-0.0,-0.006419867108132887,0.0,-0.01670538144588227,0.0,-0.10461239262298508,0.0,-0.03898809951566589,0.0,-0.11583136072030437,0.0,-0.7892369752077169,0.0,0.3651566813547184,0.0,,,,
0.4,-0.0017980671544671387,0.0,1.4891215603776664,-0.0,-0.013216250121231921,0.0,0.999978166421043,-0.0,-0.006608076967539201,0.0,-0.017878887226144426,0.0,-0.11265708442579146,0.0,-0.03625586315519874,0.0,-0.1188264508070206,0.0,-0.8195881060436774,0.0,0.3823179944207943,0.0,,,,
0.41,-0.0019828439398931344,0.0,1.4879535131574255,-0.0,-0.013564119624466868,0.0,0.9999770019205041,-0.0,-0.006782007820703485,0.0,-0.019081013941914058,0.0,-0.1210017401520841,0.0,-0.03327765066227724,0.0,-0.12155261474179217,0.0,-0.8492149743346776,0.0,0.3981112980668978,0.0,,,,
0.42,-0.00217977360249846,0.0,1.486700551201367,-0.0,-0.013881008913762967,0.0,0.9999759147956255,-0.0,-0.006940448735635909,0.0,-0.020308985855219834,0.0,-0.12963867946986027,0.0,-0.030061211664539487,0.0,-0.12399271025402941,0.0,-0.8780306320685062,0.0,0.4124687248375851,0.0,,,,
0.43,-0.002389100016787804,0.0,1.4853597936378307,-0.0,-0.014164579438826827,0.0,0.9999749206909945,-0.0,-0.007082230513003643,0.0,-0.02155986046471777,0.0,-0.1385593707163233,0.0,-0.02661548598725103,0.0,-0.12613053364758225,0.0,-0.9059517953565294,0.0,0.4253291260500026,0.0,,,,
0.44,-0.002611036838192294,0.0,1.4839284490124407,-0.0,-0.014412587913558943,0.0,0.9999740347760705,-0.0,-0.007206231585659409,0.0,-0.022830538084432705,0.0,-0.1477544685282102,0.0,-0.022950582291972072,0.0,-0.12795085758127098,0.0,-0.9328990384097783,0.0,0.4366384086439997,0.0,,,,
0.45,-0.002845765980609809,0.0,1.4824038232292576,-0.0,-0.014622897857486878,0.0,0.999973271476351,-0.0,-0.007311383787215496,0.0,-0.02411777177597704,0.0,-0.15721385329773283,0.0,-0.01907774704043212,0.0,-0.12943946400766046,0.0,-0.9587969647977864,0.0,0.4463498567185241,0.0,,,,
0.46,-0.0030934361948355203,0.0,1.4807833270891777,-0.0,-0.014793490776768671,0.0,0.9999726442035539,-0.0,-0.007396677940307592,0.0,-0.02541817758654561,0.0,-0.166926672230325,0.0,-0.015009323394376708,0.0,-0.13058317241344913,0.0,-0.983574356662842,0.0,0.4544244293465019,0.0,,,,
0.47,-0.003354161750707865,0.0,1.4790644834106546,-0.0,-0.014922476882920394,0.0,0.9999721650895912,-0.0,-0.007461169213697214,0.0,-0.026728245046420112,0.0,-0.17688138178711094,0.0,-0.010758699840879214,0.0,-0.13136986350484245,0.0,-1.0071643025623462,0.0,0.46083102657801767,0.0,,,,
0.48,-0.0036280212253397334,0.0,1.4772449337199502,-0.0,-0.015008105246250921,0.0,0.9999718447292356,-0.0,-0.007503982196782124,0.0,-0.028044347881149307,0.0,-0.18706579130174142,0.0,-0.006340248520867817,0.0,-0.13178849848127724,0.0,-1.0295043046119576,0.0,0.465546716002597,0.0,,,,
0.49,-0.003915056399363391,0.0,1.475322444500198,-0.0,-0.01504877328173306,0.0,0.9999716919363981,-0.0,-0.0075243156404606725,0.0,-0.02936275489500582,0.0,-0.1974671075679675,0.0,-0.0017692534328827764,0.0,-0.13182913404086868,0.0,-1.0505363656021907,0.0,0.4685569128456433,0.0,,,,
0.5,-0.004215271262690912,0.0,1.473294912990559,-0.0,-0.015043035467741748,0.0,0.9999717135188446,-0.0,-0.007521446814647258,0.0,-0.030679640983753295,0.0,-0.20807198020105167,0.0,0.0029381711195895317,0.0,-0.13148293326094812,0.0,-1.0702070567611686,0.0,0.46985550731706244,0.0,,,,
0.51,-0.004528631130879332,0.0,1.4711603725286908,-0.0,-0.014989611202747251,0.0,0.9999719140759696,-0.0,-0.007494735435061998,0.0,-0.031991098236191666,0.0,-0.21886654758283805,0.0,0.0077651712747552675,0.0,-0.13074217249705847,0.0,-1.0884675668361834,0.0,0.4694449338029385,0.0,,,,
0.52,-0.0048550618727916505,0.0,1.4689169974316136,-0.0,-0.014887391711621388,0.0,0.9999722958239243,-0.0,-0.007443627115196852,0.0,-0.03329314708538227,0.0,-0.22983648320703678,0.0,0.012694252803265929,0.0,-0.1296002444437805,0.0,-1.1052737331667697,0.0,0.46733617748046585,0.0,,,,
0.53,-0.005194449249860962,0.0,1.4665631074118626,-0.0,-0.014735445921604393,0.0,0.9999728584519646,-0.0,-0.007367656303546033,0.0,-0.034581747471887525,0.0,-0.24096704224799917,0.0,0.017707387817035545,0.0,-0.12805165750075517,0.0,-1.120586055421957,0.0,0.46354871502478084,0.0,,,,
0.54,-0.005546638366895457,0.0,1.4640971715275455,-0.0,-0.014533025238058779,0.0,0.9999735990133483,-0.0,-0.00726644867121595,0.0,-0.03585280998279421,0.0,-0.25224310818298784,0.0,0.02278612790952704,0.0,-0.12609203158727256,0.0,-1.1343696926743845,0.0,0.4581103872424832,0.0,,,,
0.55,-0.0059114332340070306,0.0,1.4615178116665928,-0.0,-0.014279567161724549,0.0,0.9999745118534842,-0.0,-0.0071397229208092,0.0,-0.03710220693172305,0.0,-0.26364923930467776,0.0,0.02791172250014017,0.0,-0.12371809054879812,0.0,-1.1465944444839444,0.0,0.4510572026863042,0.0,,,,
0.56,-0.006288596438905288,0.0,1.4588238055670883,-0.0,-0.01397469770207016,0.0,0.9999755885773371,-0.0,-0.006987291993900517,0.0,-0.03832578334646031,0.0,-0.27516971496734094,0.0,0.033065241038062125,0.0,-0.12092765129879961,0.0,-1.1572347166636738,0.0,0.4424330725514029,0.0,,,,
0.57,-0.0066778489284723035,0.0,1.4560140893770948,-0.0,-0.013618232555258224,0.0,0.9999768180573264,-0.0,-0.006809063661366728,0.0,-0.039519367832281826,0.0,-0.2867885814169076,0.0,0.03822769763033347,0.0,-0.11771960983925252,0.0,-1.1662694724005227,0.0,0.43228947839799786,0.0,,,,
0.58,-0.0070788698982215065,0.0,1.4530877597588587,-0.0,-0.01321017702992793,0.0,0.9999781864821601,-0.0,-0.0066050404881554045,0.0,-0.04067878328047257,0.0,-0.2984896970618088,0.0,0.04338017659735694,0.0,-0.11409392430318406,0.0,-1.1736821694037034,0.0,0.42068507545810696,0.0,,,,
0.59,-0.0074912967879459105,0.0,1.4500440755436756,-0.0,-0.012750724719145597,0.0,0.9999796774462267,-0.0,-0.006375319171632828,0.0,-0.04179985739297955,0.0,-0.31025677704824584,0.0,0.048503957428339774,0.0,-0.11005159516263095,0.0,-1.1794606837533357,0.0,0.407685235437649,0.0,,,,
0.6,-0.007914725381577973,0.0,1.4468824589450215,-0.0,-0.012240254932171025,0.0,0.9999812720783556,-0.0,-0.006120089260281932,0.0,-0.04287843299556833,0.0,-0.32207343701024954,0.0,0.05358063760996455,0.0,-0.10559464274537791,0.0,-1.1835972211219723,0.0,0.393361533791385,0.0,,,,
0.61,-0.008348710009013677,0.0,1.4436024963388248,-0.0,-0.011679328914819053,0.0,0.9999829492079676,-0.0,-0.0058396312670703976,0.0,-0.04391037811328857,0.0,-0.3339232358716218,0.0,0.05859225183385989,0.0,-0.1007260822038425,0.0,-1.1860882160418045,0.0,0.37779118740246376,0.0,,,,
0.62,-0.0087927638473991,0.0,1.4402039386209475,-0.0,-0.011068684901852505,0.0,0.9999846855659067,-0.0,-0.0055343141991231705,0.0,-0.04489159578348641,0.0,-0.34578971758358035,0.0,0.06352138615114755,0.0,-0.09544989607948491,0.0,-1.1869342198901287,0.0,0.3610564494186207,0.0,,,,
0.63,-0.009246359319137006,0.0,1.4366867011530697,-0.0,-0.01040923205872365,0.0,0.9999864560165668,-0.0,-0.00520459253226285,0.0,-0.04581803358303567,0.0,-0.35765645168865284,0.0,0.06835128573363797,0.0,-0.0897710046060981,0.0,-1.1861397782658114,0.0,0.3432439686654942,0.0,,,,
0.64,-0.009708928583645072,0.0,1.433050863309234,-0.0,-0.009702043382822953,0.0,0.9999882338173487,-0.0,-0.00485100266539413,0.0,-0.04668569284789419,0.0,-0.3695070726080938,0.0,0.07306595501844958,0.0,-0.08369523389536015,0.0,-1.1837132984294036,0.0,0.32444412156090185,0.0,,,,
0.65,-0.010179864119685435,0.0,1.4292966676363026,-0.0,-0.008948347645942299,0.0,0.9999899909009979,-0.0,-0.004474158895478273,0.0,-0.04749063756452416,0.0,-0.3813253175568223,0.0,0.07765024915257404,0.0,-0.07722928214801088,0.0,-1.1796669074796158,0.0,0.30475032478354397,0.0,,,,
0.66,-0.010658519394887819,0.0,1.4254245186424996,-0.0,-0.008149520469717033,0.0,0.999991698176001,-0.0,-0.004074748958871506,0.0,-0.048229002914149444,0.0,-0.3930950629966101,0.0,0.08208995581228105,0.0,-0.0703806840340186,0.0,-1.1740163019387768,0.0,0.2842583371022096,0.0,,,,
0.67,-0.011144209618905599,0.0,1.42143498122908,-0.0,-0.007307074634211078,0.0,0.9999933258399604,-0.0,-0.003653529189004334,0.0,-0.048897003452257434,0.0,-0.4048003595449718,0.0,0.08637186664489177,0.0,-0.06315777338512088,0.0,-1.166780589420023,0.0,0.26306555874899396,0.0,,,,
0.68,-0.01163621257647519,0.0,1.4173287787809483,-0.0,-0.006422649726424408,0.0,0.9999948437007427,-0.0,-0.0032113193436929715,0.0,-0.04949094090718503,0.0,-0.4164254652639399,0.0,0.09048383776275576,0.0,-0.05556964434308619,0.0,-1.1579821230488627,0.0,0.24127033652864976,0.0,,,,
0.69,-0.012133769536494695,0.0,1.4131067909327797,-0.0,-0.005498001240274516,0.0,0.9999962215001748,-0.0,-0.002748997157770265,0.0,-0.05000721158306373,0.0,-0.4279548772596258,0.0,0.09441483890646722,0.0,-0.04762611110708295,0.0,-1.1476463293117782,0.0,0.21897128250734454,0.0,,,,
0.7,-0.01263608623309783,0.0,1.4087700510278567,-0.0,-0.004534989242491672,0.0,0.9999974292351728,-0.0,-0.0022674926781803637,0.0,-0.05044231335383054,0.0,-0.4393733615302112,0.0,0.09815499108188365,0.0,-0.03933766642352348,0.0,-1.1358015300045876,0.0,0.19626661363261527,0.0,,,,
0.71,-0.013142333914573315,0.0,1.4043197432874162,-0.0,-0.003535566719899102,0.0,0.999998437471403,-0.0,-0.0017677824392121043,0.0,-0.05079285223644828,0.0,-0.45066598100671945,0.0,0.10169559265880809,0.0,-0.03071543896173943,0.0,-1.1224787589532446,0.0,0.17325351902056055,0.0,,,,
0.72,-0.013651650455868481,0.0,1.3997571997088334,-0.0,-0.002501767722789636,0.0,0.9999992176448846,-0.0,-0.0012508835351830053,0.0,-0.05105554853290774,0.0,-0.46181812173766235,0.0,0.10502913409423464,0.0,-0.021771149718868954,0.0,-1.1077115741796661,0.0,0.15002756092714503,0.0,,,,
0.73,-0.014163141530318654,0.0,1.395083896711417,-0.0,-0.0014356954166537218,0.0,0.9999997423473449,-0.0,-0.0007178476466750706,0.0,-0.051227242532023064,0.0,-0.47281551717537146,0.0,0.10814930160614089,0.0,-0.01251706759732755,0.0,-1.0915358661854144,0.0,0.1266821146201576,0.0,,,,
0.74,-0.014675881836161607,0.0,1.3903014515489838,-0.0,-0.00033951015049751523,0.0,0.9999999855916073,-0.0,-0.00016975507443345834,0.0,-0.05130489976346239,0.0,-0.48364427052856224,0.0,0.1110509702718388,0.0,-0.0029659642982133674,0.0,-1.0739896630258086,0.0,0.10330785151056238,0.0,,,,
0.75,-0.015188916373327031,0.0,1.3854116185086982,0.0,0.0007845823554130674,0.0,0.9999999230538169,0.0,0.0003922911676447641,0.0,-0.051285615797888595,0.0,-0.49429087515238995,0.0,0.11373018715539061,0.0,0.006868931325957046,0.0,-1.0551129328471598,0.0,0.07999226900964705,0.0,,,,
0.76,-0.015701261765938133,0.0,1.3804162849159207,0.0,0.0019343426061699334,0.0,0.9999995322898717,0.0,0.0009671711522996905,0.0,-0.051166620588521915,0.0,-0.5047422329539981,0.0,0.1161841451796672,0.0,0.016973979315841162,0.0,-1.0349473845598531,0.0,0.05681926967455615,0.0,,,,
0.77,-0.01621190762592167,0.0,1.3753174669649866,0.0,0.0031075086246100158,0.0,0.9999987929240113,0.0,0.0015537536871384503,0.0,-0.05094528235086769,0.0,-0.5149856707982792,0.0,0.11841114854914626,0.0,0.027335174903802377,0.0,-1.0135362673198958,0.0,0.03386879131061519,0.0,,,,
0.78,-0.016719817953097897,0.0,1.370117305395966,0.0,0.004301806859308338,0.0,0.99999768680811,0.0,0.0021509017711697897,0.0,-0.050619110978785985,0.0,-0.525008954905298,0.0,0.12041057059883822,0.0,0.03793819492301957,0.0,-0.9909241694916668,0.0,0.011216488833950808,0.0,,,,
0.79,-0.01722393256711072,0.0,1.3648180610375031,0.0,0.0055149626370248886,0.0,0.9999961981507981,0.0,0.002757477824002175,0.0,-0.050185760996514915,0.0,-0.5348003032375502,0.0,0.1221828049930276,0.0,0.04876844418380299,0.0,-0.9671568177645278,0.0,-0.011066532121047353,0.0,,,,
0.8,-0.01772316856656165,0.0,1.3594221102358133,0.0,0.006744710097846612,0.0,0.9999943136161011,0.0,0.0033723486567523993,0.0,-0.049643034047691915,0.0,-0.544348395881956,0.0,0.12372921122521831,0.0,0.05981110167375674,0.0,-0.9422808770959362,0.0,-0.03291393062299442,0.0,,,,
0.81,-0.01821642181072854,0.0,1.3539319401898422,0.0,0.007988801560834303,0.0,0.9999920223918097,0.0,0.003994390158490042,0.0,-0.048988880923851556,0.0,-0.5536423834382255,0.0,0.12505205537901135,0.0,0.07105116643840431,0.0,-0.916343752153824,0.0,-0.05426429635296229,0.0,,,,
0.82,-0.01870256841928263,0.0,1.348350144212437,0.0,0.009245016277550368,0.0,0.9999893162282774,0.0,0.004622491676822879,0.0,-0.04822140313631264,0.0,-0.5626718934319441,0.0,0.1261544470999864,0.0,0.08247350299891827,0.0,-0.8893933909308348,0.0,-0.07506126806707339,0.0,,,,
0.83,-0.01918046628546283,0.0,1.342679416937159,0.0,0.010511168540226061,0.0,0.9999861894487785,0.0,0.005255560075918835,0.0,-0.04733885403679869,0.0,-0.5714270347774647,0.0,0.1270402737029309,0.0,0.09406288616357872,0.0,-0.8614780912031432,0.0,-0.09525360719554575,0.0,,,,
0.84,-0.01964895659822769,0.0,1.3369225494900916,0.0,0.01178511512038313,0.0,0.9999826389329346,0.0,0.005892523459789767,0.0,-0.04633963949357449,0.0,-0.5798984003224062,0.0,0.12771413229879855,0.0,0.10580404508959888,0.0,-0.8326463105065722,0.0,-0.11479522959085997,0.0,,,,
0.85,-0.02010686536897984,0.0,1.3310824246456323,0.0,0.013064762022317612,0.0,0.9999786640750332,0.0,0.006532334552962355,0.0,-0.04522231813130712,0.0,-0.5880770675123154,0.0,0.12818126077395947,0.0,0.1176817064519501,0.0,-0.8029464803025861,0.0,-0.13364519877662312,0.0,,,,
0.86,-0.020553004958547436,0.0,1.325162011984859,0.0,0.014348070543875508,0.0,0.9999742667193263,0.0,0.007173973734677777,0.0,-0.04398560114430379,0.0,-0.5959545972207314,0.0,0.1284474683927233,0.0,0.1296806365757915,0.0,-0.7724268250069152,0.0,-0.15176768429980347,0.0,,,,
0.87,-0.02098617560021022,0.0,1.3191643630745478,0.0,0.015633062644327626,0.0,0.9999694510745856,0.0,0.007816451726457589,0.0,-0.042628351694204786,0.0,-0.6035230307966537,0.0,0.1285190667249983,0.0,0.14178568238917993,0.0,-0.7411351865535589,0.0,-0.16913188895520687,0.0,,,,
0.88,-0.021405166914676435,0.0,1.313092606684391,0.0,0.016917825625792107,0.0,0.9999642236103389,0.0,0.00845881193620182,0.0,-0.04114958390464071,0.0,-0.6107748853881296,0.0,0.12840280152661604,0.0,0.1539818110526569,0.0,-0.7091188551665804,0.0,-0.18571194873838312,0.0,,,,
0.89,-0.021808759413048613,0.0,1.3069499440593282,0.0,0.018200516140545978,0.0,0.9999585929372878,0.0,0.00910013246494072,0.0,-0.03954846146681468,0.0,-0.6177031476074109,0.0,0.1281057861221025,0.0,0.16625414812234007,0.0,-0.676424407012819,0.0,-0.2014868093979986,0.0,,,,
0.9,-0.02219572598396348,0.0,1.3007396442632193,0.0,0.01947936354167465,0.0,0.9999525696744455,0.0,0.009739527784924684,0.0,-0.03782429587137627,0.0,-0.6243012656098237,0.0,0.12763543676061345,0.0,0.1785880141032011,0.0,-0.6430975494076414,0.0,-0.21644008340815518,0.0,,,,
0.91,-0.022564833361251185,0.0,1.2944650396093356,0.0,0.020752672598806712,0.0,0.9999461663055189,0.0,0.010376150099895705,0.0,-0.0359765442834115,0.0,-0.6305631396652938,0.0,0.12699941033692397,0.0,0.1909689592490724,0.0,-0.6091829742469586,0.0,-0.23055989107410957,0.0,,,,
0.92,-0.022914843568635802,0.0,1.2881295211923147,0.0,0.022018825604232347,0.0,0.9999393970270063,0.0,0.011009190400168707,0.0,-0.034004807078799146,0.0,-0.6364831113080904,0.0,0.1262055447923178,0.0,0.2033827964661131,0.0,-0.5747242203378262,0.0,-0.24383868932888425,0.0,,,,
0.93,-0.02324451533818738,0.0,1.2817365345353533,0.0,0.023276283897459067,0.0,0.9999322775903919,0.0,0.011637879226537997,0.0,-0.031908825061609095,0.0,-0.6420559511572139,0.0,0.12526180243614324,0.0,0.2158156321762817,0.0,-0.5397635453003841,0.0,-0.2562730915825463,0.0,,,,
0.94,-0.02355260549944085,0.0,1.2752895753654219,0.0,0.02452358883832883,0.0,0.9999248251407066,0.0,0.012261487158067791,0.0,-0.02968847638366329,0.0,-0.6472768455064197,0.0,0.12417621635882369,0.0,0.22825389499750515,0.0,-0.504341807713959,0.0,-0.2678636817579284,0.0,,,,
0.95,-0.023837870336314168,0.0,1.2687921855283002,0.0,0.025759362260186082,0.0,0.99991705805358,0.0,0.012879325039516625,0.0,-0.02734377318881378,0.0,-0.6521413817897538,0.0,0.1229568400419548,0.0,0.24068436209713256,0.0,-0.4684983601798039,0.0,-0.2786148253951178,0.0,,,,
0.96,-0.024099066909192918,0.0,1.262247949054114,0.0,0.026982306435349383,0.0,0.999908995772757,0.0,0.013490743964534002,0.0,-0.024874858005907177,0.0,-0.656645533035103,0.0,0.12161170021133373,0.0,0.2530941830753503,0.0,-0.4322709539732765,0.0,-0.2885344804382884,0.0,,,,
0.97,-0.024334954339792894,0.0,1.255660488382897,0.0,0.028191203585312723,0.0,0.999900658649879,0.0,0.014095135030860776,0.0,-0.022281999915874796,0.0,-0.6607856414249903,0.0,0.1201487529250068,0.0,0.2654709012351305,0.0,-0.39569565595819345,0.0,-0.29763401004051576,0.0,,,,
0.98,-0.024544295056675283,0.0,1.2490334607584912,0.0,0.02938491496778943,0.0,0.9998920677881583,0.0,0.014691928883613235,0.0,-0.01956559051977952,0.0,-0.6645584010906648,0.0,0.11857584284052186,0.0,0.27780247209539327,0.0,-0.3588067784358056,0.0,-0.30592799943965043,0.0,,,,
0.99,-0.024725855999564707,0.0,1.2423705547977881,0.0,0.030562379571936825,0.0,0.9998832448913926,0.0,0.015280595062348148,0.0,-0.016726139736114313,0.0,-0.6679608402721282,0.0,0.11690066556397778,0.0,0.2900772790040144,0.0,-0.32163682260139603,0.0,-0.3134340786780518,0.0,,,,
1.0,-0.02487840978090969,0.0,1.235675487240961,0.0,0.03172261245193514,0.0,0.99987421211959,0.0,0.01586064116702679,0.0,-0.013764271457070744,0.0,-0.6709903029835775,0.0,0.11513073294793424,0.0,0.3022841457072516,0.0,-0.2842164362808793,0.0,-0.320172752664226,0.0,,,,
1.01,-0.025000735803429715,0.0,1.2289519998869116,0.0,0.0328647027276269,0.0,0.9998649919522996,0.0,0.016431611857265088,0.0,-0.010680719094924254,0.0,-0.6736444303304229,0.0,0.11327334117551623,0.0,0.31441234573229865,0.0,-0.24657438662027092,0.0,-0.3261672398100429,0.0,,,,
1.02,-0.025091621332711974,0.0,1.2222038567166502,0.0,0.03398781127915654,0.0,0.9998556070605772,0.0,0.01699308769837522,0.0,-0.007476321051132989,0.0,-0.6759211416307606,0.0,0.11133554144409295,0.0,0.3264516084395338,0.0,-0.20873754840061326,0.0,-0.3314433202261053,0.0,,,,
1.03,-0.025149862524254,0.0,1.2154348412057834,0.0,0.035091168160597805,0.0,0.9998460801883541,0.0,0.017544683866728993,0.0,-0.004152016142154423,0.0,-0.6778186155009209,0.0,0.10932411304319846,0.0,0.33839212160113713,0.0,-0.17073090865121793,0.0,-0.33602919422286703,0.0,,,,
1.04,-0.025174265404694758,0.0,1.2086487538256279,0.0,0.036174069755422034,0.0,0.999836434043831,0.0,0.01808604872590598,0.0,-0.0007088390174482671,0.0,-0.6793352710714596,0.0,0.10724553860746901,0.0,0.35022453036269113,0.0,-0.13257758823353363,0.0,-0.33995535164788954,0.0,,,,
1.05,-0.025163646807339856,0.0,1.2018494097308001,0.0,0.03723587569441912,0.0,0.99982669120138,0.0,0.018616862283968527,0.0,0.002852084393460445,0.0,-0.6804697495066183,0.0,0.10510598131604593,0.0,0.3619399324443696,0.0,-0.09429888106870662,0.0,-0.34325445239307073,0.0,,,,
1.06,-0.025116835262463,0.0,1.1950406366293451,0.0,0.03827600555437562,0.0,0.9998168740143109,0.0,0.019136834541050838,0.0,0.006529541366522358,0.0,-0.6812208960071132,0.0,0.10291126380441706,0.0,0.37352986943841393,0.0,-0.05591431168133714,0.0,-0.34596121822901343,0.0,,,,
1.07,-0.025032671843251395,0.0,1.188226272829644,0.0,0.03929393535344543,0.0,0.9998070045387492,0.0,0.019645703735263528,0.0,0.010322236761574736,0.0,-0.6815877424827138,0.0,0.1006668485527199,0.0,0.38498631405944417,0.0,-0.01744171173202866,0.0,-0.3481123359707388,0.0,,,,
1.08,-0.024910010968676753,0.0,1.1814101654564477,0.0,0.040289193856809756,0.0,0.9997971044687668,0.0,0.020143234493743688,0.0,0.01422879725240854,0.0,-0.6815694910879252,0.0,0.09837781951552071,0.0,0.3963016532043091,0.0,0.021102683788306365,0.0,-0.3497463718467863,0.0,,,,
1.09,-0.024747721164982205,0.0,1.1745961688264086,0.0,0.04126135870387012,0.0,0.9997871950828227,0.0,0.020629215894501972,0.0,0.01824777536590036,0.0,-0.6811654988206776,0.0,0.09604886476144166,0.0,0.40746866667803383,0.0,0.05970412003009884,0.0,-0.35090369683692524,0.0,,,,
1.1,-0.02454468578791621,0.0,1.1677881429714496,0.0,0.04221005236594849,0.0,0.9997772972014883,0.0,0.021103459443581007,0.0,0.02237765328612184,0.0,-0.6803752633908473,0.0,0.09368425989640759,0.0,0.41848050144259713,0.0,0.09834918474970962,0.0,-0.3516264226592251,0.0,,,,
1.11,-0.02429980370829014,0.0,1.1609899522962093,0.0,0.04313493794121303,0.0,0.9997674311563712,0.0,0.02156579697090898,0.0,0.02661684637796353,0.0,-0.6791984105718816,0.0,0.09128785205080575,0.0,0.42933064124504416,0.0,0.13702564909434928,0.0,-0.35195834802716297,0.0,,,,
1.12,-0.02401198996389507,0.0,1.154205464353651,0.0,0.04403571479141386,0.0,0.9997576167700891,0.0,0.02201607844716282,0.0,0.030963706383335707,0.0,-0.6776346832558645,0.0,0.08886304421857275,0.0,0.4400128714816934,0.0,0.17572228603498094,0.0,-0.3519449147626523,0.0,,,,
1.13,-0.023680176381297015,0.0,1.1474385487206478,0.0,0.04491211402290744,0.0,0.999747873347103,0.0,0.022454169722899448,0.0,0.035416524241592834,0.0,-0.6756839324387277,0.0,0.08641277974379986,0.0,0.450521239154917,0.0,0.21442866577381148,0.0,-0.3516331733398397,0.0,,,,
1.1400000000000001,-0.023303312171511836,0.0,1.1406930759531049,0.0,0.045763893812471916,0.0,0.9997382196751772,0.0,0.0228799501902231,0.0,0.0399735324843988,0.0,-0.6733461103693881,0.0,0.08393952675813494,0.0,0.4608500077793384,0.0,0.25313492745465715,0.0,-0.35107175744939173,0.0,,,,
1.15,-0.022880364504072492,0.0,1.1339729165977692,0.0,0.0465908345764443,0.0,0.9997286740372013,0.0,0.023293310366268027,0.0,0.04463290715378646,0.0,-0.6706212661030296,0.0,0.0814452623789312,0.0,0.4709936070938125,0.0,0.29183152650252675,0.0,-0.35031086721406035,0.0,,,,
1.16,-0.0224103190645194,0.0,1.1272819402354521,0.0,0.0473927339798821,0.0,0.9997192542330869,0.0,0.023694149396859175,0.0,0.04939276919079417,0.0,-0.6675095437056918,0.0,0.0789314564833356,0.0,0.4809465774360773,0.0,0.3305089569202852,0.0,-0.3494022607537028,0.0,,,,
1.17,-0.02189218060087557,0.0,1.1206240145279136,0.0,0.048169401780582675,0.0,0.9997099776114279,0.0,0.024082372477776233,0.0,0.054251185240540824,0.0,-0.664011183363809,0.0,0.07639905487680321,0.0,0.4907035086365503,0.0,0.36915744787003457,0.0,-0.3483992538923338,0.0,,,,
1.18,-0.021324973465218812,0.0,1.1140030042380145,0.0,0.048920654501005634,0.0,0.9997008611106014,0.0,0.02445788819014979,0.0,0.05920616781825334,0.0,-0.6601265256594485,0.0,0.07384846167514043,0.0,0.5002589732878978,0.0,0.40776663386544104,0.0,-0.3473567279241348,0.0,,,,
1.19,-0.02070774215702751,0.0,1.1074227701902073,0.0,0.04964630991932374,0.0,0.9996919213089707,0.0,0.02482060574560614,0.0,0.06425567477925992,0.0,-0.6558560192782722,0.0,0.07127952071621285,0.0,0.5096074542471218,0.0,0.44632519790353903,0.0,-0.34633114550828875,0.0,,,,
1.2,-0.020039551875548067,0.0,1.1008871681356258,0.0,0.050346181368946794,0.0,0.9996831744838439,0.0,0.025170432135834156,0.0,0.06939760803458234,0.0,-0.651200232424339,0.0,0.06869149581074625,0.0,0.5187432662266923,0.0,0.4848204868626364,0.0,-0.3453805749469707,0.0,,,,
1.21,-0.019319489089027482,0.0,1.0944000474833318,0.0,0.05102007183391023,0.0,0.9996746366788373,0.0,0.025507269180269153,0.0,0.07462981145226907,0.0,-0.6461598682223728,0.0,0.06608304962950373,0.0,0.5276604713313865,0.0,0.5232380984938726,0.0,-0.34456472331907995,0.0,,,,
1.22,-0.018546662129257437,0.0,1.0879652498564023,0.0,0.05166776782541121,0.0,0.9996663237792804,0.0,0.025831010464531692,0.0,0.07995006788324863,0.0,-0.6407357843949482,0.0,0.06345222100659342,0.0,0.536352788397478,0.0,0.5615614393333728,0.0,-0.34394497919498596,0.0,,,,
1.23,-0.01772020182050038,0.0,1.081586607428666,0.0,0.052289033022444385,0.0,0.9996582515953001,0.0,0.026141538161092003,0.0,0.0853560952489717,0.0,-0.63492901750878,0.0,0.06079640041411925,0.0,0.5448134959908603,0.0,0.5997712528631887,0.0,-0.3435844659483915,0.0,,,,
1.24,-0.01683926215249411,0.0,1.075267940994844,0.0,0.05288360165691396,0.0,0.99965043595221,0.0,0.026438719722340267,0.0,0.09084554162675086,0.0,-0.6287408120909568,0.0,0.058112303330713835,0.0,0.5530353289208808,0.0,0.6378451172471874,0.0,-0.3435481070124429,0.0,,,,
1.25,-0.015903021007889633,0.0,1.069013057723943,0.0,0.05345117162057703,0.0,0.9996428927878328,0.0,0.02672240443473032,0.0,0.09641597926718919,0.0,-0.6221726549227053,0.0,0.05539594118521963,0.0,0.5610103681262745,0.0,0.6757569119703197,0.0,-0.3439027048032671,0.0,,,,
1.26,-0.01491068095512936,0.0,1.0628257485424757,0.0,0.05399139726778315,0.0,0.9996356382563643,0.0,0.026992419820966698,0.0,0.10206489747677044,0.0,-0.6152263148251197,0.0,0.052642589504324794,0.0,0.5687299237900084,0.0,0.7134762527078713,0.0,-0.34471703545806703,0.0,,,,
1.27,-0.013861470118463047,0.0,1.0567097850910734,0.0,0.05450388188393689,0.0,0.9996286888383864,0.0,0.027248567875183514,0.0,0.10778969429711517,0.0,-0.6079038882577462,0.0,0.049846752828803104,0.0,0.5761844115397201,0.0,0.7509678937519909,0.0,-0.34606196201283057,0.0,,,,
1.28,-0.0127546431374722,0.0,1.0506689161946303,0.0,0.054988169784841855,0.0,0.9996220614566209,0.0,0.027490621113676974,0.0,0.11358766691107902,0.0,-0.6002078510580461,0.0,0.04700212588472378,0.0,0.5833632215900844,0.0,0.7881910973234193,0.0,-0.3480105691842727,0.0,,,,
1.29,-0.0115894822292016,0.0,1.044706863783005,0.0,0.05544373800656198,0.0,0.9996157735969919,0.0,0.027718318420989235,0.0,0.11945600070439637,0.0,-0.5921411166560286,0.0,0.044101550401331124,0.0,0.5902545806841594,0.0,0.82509896909533,0.0,-0.3506383235273911,0.0,,,,
1.3,-0.010365298366697053,0.0,1.0388273181957748,0.0,0.05586998753872445,0.0,0.9996098434345503,0.0,0.027931360667782373,0.0,0.12539175691011867,0.0,-0.5837071011053696,0.0,0.04113696685427448,0.0,0.5968454066899134,0.0,0.8616377592563584,0.0,-0.3540232634271057,0.0,,,,
1.31,-0.009081432588489181,0.0,1.033033932801102,0.0,0.056266234046394366,0.0,0.9996042899637726,0.0,0.028129406073041048,0.0,0.13139185876172163,0.0,-0.574909795279152,0.0,0.03809936027783964,0.0,0.6031211557089732,0.0,0.8977461284404945,0.0,-0.3582462241609977,0.0,,,,
1.32,-0.007737257454324487,0.0,1.027330317855434,0.0,0.05663169801623432,0.0,0.9995991331327123,0.0,0.028312065278429926,0.0,0.1374530760792324,0.0,-0.5657538445845515,0.0,0.03497869912935612,0.0,0.6090656615538407,0.0,0.9333543778516751,0.0,-0.36339110415692527,0.0,,,,
1.33,-0.0063321786631846955,0.0,1.0217200335268486,0.0,0.05696549425164189,0.0,0.9995943939804233,0.0,0.02847889609711757,0.0,0.1435720082113975,0.0,-0.5562446365583192,0.0,0.031763865998907105,0.0,0.6146609674504769,0.0,0.9683836429087745,0.0,-0.36954517958384436,0.0,,,,
1.34,-0.004865636850433204,0.0,1.0162065820015993,0.0,0.05726662062834944,0.0,0.9995900947770029,0.0,0.02862939789276925,0.0,0.14974506525539702,0.0,-0.5463883967108892,0.0,0.028442578731854098,0.0,0.6198871498228665,0.0,1.0027450497399517,0.0,-0.3767994755841767,0.0,,,,
1.35,-0.003337109581708801,0.0,1.0107933985893947,0.0,0.057533946006335615,0.0,0.999586259165512,0.0,0.02876300553658784,0.0,0.15596844747421,0.0,-0.5361922929941433,0.0,0.025001300264322512,0.0,0.6247221340159539,0.0,1.036338833853623,0.0,-0.3852492038104081,0.0,,,,
1.3599999999999999,-0.0017461135619921567,0.0,1.005483841739239,0.0,0.05776619717542275,0.0,0.9995829123049024,0.0,0.028879082881037525,0.0,0.1622381228303295,0.0,-0.5256645492743667,0.0,0.02142513515430562,0.0,0.6291415018139315,0.0,1.069053420311352,0.0,-0.39499427751185073,0.0,,,,
1.37,-9.220707910693325e-05,0.0,1.0002811818740085,0.0,0.05796194468983512,0.0,0.9995800810129222,0.0,0.02897691567782741,0.0,0.16854980255300334,0.0,-0.5148145681987798,0.0,0.01769771041299048,0.0,0.6331182906101661,0.0,1.1007644647328714,0.0,-0.40613991727701954,0.0,,,,
1.38,0.0016250073225947063,0.0,0.9951885890611853,0.0,0.05811994918119997,0.0,0.9995777886521461,0.0,0.029055884658457102,0.0,0.17489892752770855,0.0,-0.5036530034531925,0.0,0.01391627747662534,0.0,0.6366282470413612,0.0,1.131359486548487,0.0,-0.39437449010218817,0.0,,,,
1.3900000000000001,0.0034058806530708426,0.0,0.9902091228749236,0.0,0.058240527710824844,0.0,0.9995760350775923,0.0,0.029116148415615172,0.0,0.18128080909747568,0.0,-0.4921911076653505,0.0,0.010211749690144547,0.0,0.6396706659012855,0.0,1.1608356335823242,0.0,-0.38183620118672584,0.0,,,,
1.4,0.005250717204696694,0.0,0.9853457311630284,0.0,0.05832442011784066,0.0,0.9995748128863368,0.0,0.029158076809777174,0.0,0.18769080263986385,0.0,-0.48043992656411344,0.0,0.006578024927968722,0.0,0.6422516051758699,0.0,1.1892209342795348,0.0,-0.3698530305981261,0.0,,,,
1.41,0.0071597751174113725,0.0,0.9806012526611696,0.0,0.058372304573472256,0.0,0.9995741144905259,0.0,0.029182008849306797,0.0,0.19412432140271196,0.0,-0.4684102425077486,0.0,0.0030092278133499748,0.0,0.6443765888990691,0.0,1.2165400737302583,0.0,-0.35837006494430595,0.0,,,,
1.42,0.009133266931580829,0.0,0.9759784194631743,0.0,0.05838480330303033,0.0,0.9995739321019886,0.0,0.029188255552002048,0.0,0.20057683141982324,0.0,-0.4561126066508376,0.0,-0.0004999637835703201,0.0,0.6460506588328301,0.0,1.2428146503065658,0.0,-0.34733650029787655,0.0,,,,
1.43,0.01117136009259512,0.0,0.9714798591829569,0.0,0.05836248787695769,0.0,0.9995742577139474,0.0,0.02917710259109241,0.0,0.20704384694270667,0.0,-0.4435573685467338,0.0,-0.003954366219830357,0.0,0.6472784249976677,0.0,1.2680634269100342,0.0,-0.336705315002612,0.0,,,,
1.44,0.013274177412273604,0.0,0.9671080968328197,0.0,0.05830588405055614,0.0,0.9995750830814436,0.0,0.02914881271553123,0.0,0.21352092636683506,0.0,-0.43075470328816445,0.0,-0.007358332956306752,0.0,0.6480641140516995,0.0,1.2923025721244,0.0,-0.32643297310463776,0.0,,,,
1.45,0.015441797491916279,0.0,0.9628655564422378,0.0,0.05821547619587526,0.0,0.9995763997009918,0.0,0.029103627966338426,0.0,0.22000366863109158,0.0,-0.4177146362860519,0.0,-0.010715793324585162,0.0,0.6484116155554432,0.0,1.3155458914483327,0.0,-0.31647915500212354,0.0,,,,
1.46,0.01767425511162805,0.0,0.9587545624402544,0.0,0.05809171136468173,0.0,0.9995781987898863,0.0,0.029041771708465686,0.0,0.22648771006944818,0.0,-0.4044470657848763,0.0,-0.014030287610415816,0.0,0.6483245261596868,0.0,1.337805048783363,0.0,-0.3068065123595543,0.0,,,,
1.47,0.01997154159033503,0.0,0.954777340823637,0.0,0.05793500301743324,0.0,0.9995804712655133,0.0,0.02896345049565765,0.0,0.23296872169429372,0.0,-0.39096178321115505,0.0,-0.017304998827739934,0.0,0.6478061917537324,0.0,1.3590897783520017,0.0,-0.2973804447200108,0.0,,,,
1.48,0.02233360512070799,0.0,0.9509360201319876,0.0,0.05774573444967085,0.0,0.9995832077249602,0.0,0.02886885578402577,0.0,0.23944240689120186,0.0,-0.37726849144985974,0.0,-0.02054278151238669,0.0,0.6468597476113236,0.0,1.3794080872210905,0.0,-0.2881688955809932,0.0,,,,
1.49,0.024760351083007923,0.0,0.9472326322500599,0.0,0.05752426194415107,0.0,0.9995863984251614,0.0,0.028758165508504394,0.0,0.24590449950530194,0.0,-0.363376821141845,0.0,-0.023746187826011064,0.0,0.64548815657156,0.0,1.3987664486054165,0.0,-0.2791421659843541,0.0,,,,
1.5,0.02725164234167201,0.0,0.943669113056616,0.0,0.057270917674301855,0.0,0.9995900332637765,0.0,0.028631545534988586,0.0,0.2523507622997894,0.0,-0.3492963450936097,0.0,-0.02691749122771046,0.0,0.6436942452921056,0.0,1.4171699861266334,0.0,-0.27027274391575085,0.0,,,,
1.51,0.029807299528265753,0.0,0.9402473029382504,0.0,0.056986012382159806,0.0,0.9995941017609667,0.0,0.028489150999739046,0.0,0.25877698576748553,0.0,-0.335036590888964,0.0,-0.03005870794221021,0.0,0.6414807386119968,0.0,1.4346226492025191,0.0,-0.2615351480195409,0.0,,,,
1.52,0.032427101314237775,0.0,0.9369689471857208,0.0,0.056669837851782,0.0,0.9995985930421974,0.0,0.02833112754655641,0.0,0.26517898727672795,0.0,-0.3206070517904218,0.0,-0.03317161642886149,0.0,0.638850292061355,0.0,1.4511273797416164,0.0,-0.25290578431616684,0.0,,,,
1.53,0.03511078467672858,0.0,0.9338356962894566,0.0,0.0563226691971938,0.0,0.9996034958221776,0.0,0.02815761247126048,0.0,0.2715526105332493,0.0,-0.30601719601639177,0.0,-0.03625777503437186,0.0,0.635805522555312,0.0,1.4666862703182846,0.0,-0.244362814765051,0.0,,,,
1.54,0.03785804516050307,0.0,0.9308491061500656,0.0,0.05594476698219833,0.0,0.9996087983900245,0.0,0.02796873578214129,0.0,0.2778937253400707,0.0,-0.29127647447848515,0.0,-0.03931853799369696,0.0,0.6323490373094508,0.0,1.4813007140032042,0.0,-0.23588603665041177,0.0,,,,
1.55,0.04066853713889843,0.0,0.9280106382188206,0.0,0.05553637918781201,0.0,0.9996144885957257,0.0,0.027764621184267604,0.0,0.2841982276378129,0.0,-0.2763943270615129,0.0,-0.04235506992745041,0.0,0.6284834610140707,0.0,1.494971546024372,0.0,-0.22745677188330224,0.0,,,,
1.56,0.043541874076505525,0.0,0.9253216595822968,0.0,0.055097743041678325,0.0,0.9996205538379576,0.0,0.027545386994831698,0.0,0.2904620398082003,0.0,-0.2613801875269909,0.0,-0.04536835897018252,0.0,0.6242114613045803,0.0,1.5076991774336217,0.0,-0.21905776541317365,0.0,,,,
1.5699999999999998,0.046477628796130696,0.0,0.9227834430045254,0.0,0.054629086722530806,0.0,0.9996269810533123,0.0,0.02731114699606814,0.0,0.29668111122390384,0.0,-0.24624348711922245,0.0,-0.048359228651641065,0.0,0.6195357725653257,0.0,1.5194837209537075,0.0,-0.21067309202861145,0.0,,,,
1.58,0.049475333752419005,0.0,0.9203971669392506,0.0,0.05413063095161053,0.0,0.9996337567069727,0.0,0.02706201123170083,0.0,0.30285141902824586,0.0,-0.23099365695127883,0.0,-0.05132834864240588,0.0,0.6144592181041594,0.0,1.530325109180989,0.0,-0.20228807090150383,0.0,,,,
1.5899999999999999,0.05253448131435654,0.0,0.9181639155241117,0.0,0.05360259048187664,0.0,0.999640866784874,0.0,0.026798086752338794,0.0,0.30896896912865895,0.0,-0.2156401292464447,0.0,-0.05427624446586483,0.0,0.6089847307350548,0.0,1.5402232053187537,0.0,-0.1938891872934172,0.0,,,,
1.6,0.05565452405871032,0.0,0.9160846785678265,0.0,0.05304517549487201,0.0,0.9996482967873818,0.0,0.02651947831475254,0.0,0.3150297973881673,0.0,-0.20019233750894838,0.0,-0.057203306270194654,0.0,0.603115371806074,0.0,1.5491779066162144,0.0,-0.18546402089877048,0.0,,,,
1.6099999999999999,0.05883487507630902,0.0,0.9141603515407173,0.0,0.05245859291420681,0.0,0.9996560317245208,0.0,0.02622628903951246,0.0,0.32102997099952935,0.0,-0.18465971569604384,0.0,-0.06010979674666427,0.0,0.5968543487099927,0.0,1.5571892406882175,0.0,-0.17700118034773113,0.0,,,,
1.62,0.062074908292915905,0.0,0.9123917355782185,0.0,0.05184304764379199,0.0,0.9996640561127765,0.0,0.025918621031055435,0.0,0.32696559002705594,0.0,-0.1690516964617637,0.0,-0.06299585827406035,0.0,0.5902050309148898,0.0,1.564257454890703,0.0,-0.16849024343362096,0.0,,,,
1.63,0.06537395880629704,0.0,0.9107795375062994,0.0,0.05119874373818775,0.0,0.9996723539735038,0.0,0.025596575963861393,0.0,0.33283278910148917,0.0,-0.1533777085409087,0.0,-0.06586151936323577,0.0,0.5831709645520071,0.0,1.5703830989269472,0.0,-0.15992170266590564,0.0,,,,
1.6400000000000001,0.06873132324094434,0.0,0.9093243698970684,0.0,0.050525885511716925,0.0,0.9996809088329633,0.0,0.025260255638064052,0.0,0.338627739253702,0.0,-0.1376471733400917,0.0,-0.06870670047059402,0.0,0.5757558855981835,0.0,1.575567100859632,0.0,-0.15128691578130507,0.0,,,,
1.65,0.07214626012177174,0.0,0.9080267511621594,0.0,0.04982467859232962,0.0,0.9996897037240208,0.0,0.024909762507487606,0.0,0.3443466498733503,0.0,-0.1218695008009027,0.0,-0.07153121924467651,0.0,0.5679637316901718,0.0,1.5798108367037724,0.0,-0.14257806087284014,0.0,,,,
1.6600000000000001,0.07561799026796608,0.0,0.9068871056908604,0.0,0.049095330925585164,0.0,0.9996987211895325,0.0,0.02454520018279079,0.0,0.34998577077898285,0.0,-0.10605408459851107,0.0,-0.07433479526583306,0.0,0.5597986526081428,0.0,1.5831161937755431,0.0,-0.13378809582029055,0.0,,,,
1.67,0.0791456972080418,0.0,0.905905764039323,0.0,0.04833805373353604,0.0,0.9997079432874513,0.0,0.024166673912108576,0.0,0.3555413943864881,0.0,-0.09021029673727027,0.0,-0.07711705433517305,0.0,0.5512650194656823,0.0,1.5854856279720388,0.0,-0.12491072172603443,0.0,,,,
1.6800000000000002,0.08272852761701836,0.0,0.9050829631765801,0.0,0.0475530624327549,0.0,0.9997173515976818,0.0,0.023774291041309622,0.0,0.3610098579631285,0.0,-0.07434748160314131,0.0,-0.07987753236556075,0.0,0.5423674326435874,0.0,1.5869222151570066,0.0,-0.1159403500779995,0.0,,,,
1.69,0.08636559177651429,0.0,0.9044188467925126,0.0,0.04674057751523326,0.0,0.9997269272307208,0.0,0.02336816145573097,0.0,0.3663875459547873,0.0,-0.05847494953099974,0.0,-0.08261567892428667,0.0,0.5331107285047681,0.0,1.5874296968275876,0.0,-0.10687207337680169,0.0,,,,
1.7,0.09005596405842954,0.0,0.9039134656723337,0.0,0.04590082539539916,0.0,0.9997366508381114,0.0,0.02294839800501049,0.0,0.3716708923744252,0.0,-0.04260196994314064,0.0,-0.08533086047417648,0.0,0.5234999849275594,0.0,1.587012520237105,0.0,-0.09770163897739724,0.0,,,,
1.71,0.09379868343276986,0.0,0.903566778141603,0.0,0.04503403922604667,0.0,0.9997465026247506,0.0,0.02251511691240985,0.0,0.3768563832401183,0.0,-0.026737764113546336,0.0,-0.08802236335725473,0.0,0.5135405256947503,0.0,1.5856758731489347,0.0,-0.08842542590697217,0.0,,,,
1.72,0.09759275400005246,0.0,0.9033786505852505,0.0,0.04414045968554142,0.0,0.9997564623630825,0.0,0.02206843816980613,0.0,0.381940559051419,0.0,-0.010891497610730383,0.0,-0.09068939656263139,0.0,0.5032379237756347,0.0,1.5834257133964955,0.0,-0.07904042443056551,0.0,,,,
1.73,0.10143714554862135,0.0,0.9033488580435629,0.0,0.04322033573826112,0.0,0.9997665094092091,0.0,0.021608485919327264,0.0,0.3869200172931597,0.0,0.004927727529777659,0.0,-0.09333109431799091,0.0,0.49259800353839256,0.0,1.5802687934243995,0.0,-0.06954421814425667,0.0,,,,
1.74,0.10533079413709395,0.0,0.903477084887593,0.0,0.04227392536984721,0.0,0.9997766227209582,0.0,0.021135388822414447,0.0,0.39179141495618586,0.0,0.02071088085399453,0.0,-0.09594651854191988,0.0,0.48162684193010297,0.0,1.5762126799857943,0.0,-0.05993496838281843,0.0,,,,
1.75,0.10927260270205737,0.0,0.90376292557596,0.0,0.04130149629848147,0.0,0.9997867808779348,0.0,0.020649280416913277,0.0,0.39655147106488353,0.0,0.03644901171152981,0.0,-0.0985346611922741,0.0,0.47033076866169954,0.0,1.5712657691709382,0.0,-0.05021140073467733,0.0,,,,
1.76,0.11326144169103294,0.0,0.9042058854945464,0.0,0.04030332666305948,0.0,0.9997969621035895,0.0,0.02015029946262396,0.0,0.40119696920173686,0.0,0.052133257605301964,0.0,-0.10109444654385,0.0,0.45871636543517,0.0,1.5654372969420438,0.0,-0.04037279346198052,0.0,,,,
1.77,0.11729614972063249,0.0,0.9048053818801454,0.0,0.03927970568880913,0.0,0.9998071442893314,0.0,0.019638590275578544,0.0,0.4057247600195234,0.0,0.0677548526248658,0.0,-0.10362473342675561,0.0,0.4467904642503091,0.0,1.5587373453494284,0.0,-0.030418967627648976,0.0,,,,
1.78,0.12137553425973653,0.0,0.9055607448286834,0.0,0.038230934330598064,0.0,0.9998173050207064,0.0,0.019114303051160752,0.0,0.4101317637321309,0.0,0.08330513592103495,0.0,-0.10612431745506441,0.0,0.4345601448283285,0.0,1.5511768446040068,0.0,-0.02035027873461059,0.0,,,,
1.79,0.12549837233743824,0.0,0.9064712183882258,0.0,0.03715732589388649,0.0,0.9998274216056641,0.0,0.01857759417603967,0.0,0.41441497257534976,0.0,0.09877556018124278,0.0,-0.10859193327355648,0.0,0.42203273118963014,0.0,1.5427675711811637,0.0,-0.010167609685054339,0.0,,,,
1.8,0.1296634112754099,0.0,0.9075359617365762,0.0,0.036059206633012916,0.0,0.9998374711049225,0.0,0.018028626528753842,0.0,0.41857145322936906,0.0,0.11415770006682557,0.0,-0.1110262568485898,0.0,0.40921578742305,0.0,1.5335221421310457,0.0,0.00012763513037431244,0.0,,,,
1.81,0.1338693694442701,0.0,0.9087540504429044,0.0,0.034936916326248575,0.0,0.9998474303644418,0.0,0.017467569768656013,0.0,0.42259834919507844,0.0,0.1294432605751723,0.0,-0.11342590782738639,0.0,0.39611711268387584,0.0,1.523454005770305,0.0,0.010533534801926312,0.0,,,,
1.8199999999999998,0.13811493704345176,0.0,0.9101244778124709,0.0,0.03379080882682246,0.0,0.9998572760500039,0.0,0.01689460061281138,0.0,0.42649288311664896,0.0,0.14462408529142723,0.0,-0.11578945198824526,0.0,0.38274473545794735,0.0,1.5125774289303369,0.0,0.02104765611594014,0.0,,,,
1.83,0.14239877690399674,0.0,0.9116461563131777,0.0,0.03262125258890244,0.0,0.9998669846838917,0.0,0.016309903100333853,0.0,0.4302523590432411,0.0,0.15969216449618706,0.0,-0.1181154038023929,0.0,0.3691069071291423,0.0,1.500907480937044,0.0,0.03166705720227481,0.0,,,,
1.8399999999999999,0.1467195253136353,0.0,0.9133179190823404,0.0,0.031428631167320344,0.0,0.9998765326836486,0.0,0.015713668843545504,0.0,0.43387416462306005,0.0,0.17463964309738234,0.0,-0.12040222912634035,0.0,0.35521209488755695,0.0,1.4884600144971694,0.0,0.042388290799721715,0.0,,,,
1.85,0.15107579286344072,0.0,0.9151385215117759,0.0,0.030213343689649366,0.0,0.9998858964028909,0.0,0.015106097265254543,0.0,0.43735577322335134,0.0,0.1894588283562848,0.0,-0.12264834804172037,0.0,0.34106897401568287,0.0,1.4752516436662289,0.0,0.05320740732461097,0.0,,,,
1.8599999999999999,0.15546616531528853,0.0,0.917106642909001,0.0,0.02897580529908234,0.0,0.9998950521741344,0.0,0.014487395821366931,0.0,0.44069474597030417,0.0,0.20414219737933126,0.0,-0.12485213785761323,0.0,0.32668641958989164,0.0,1.4612997190730863,0.0,0.06411995792735195,0.0,,,,
1.87,0.15988920448929023,0.0,0.9192208882320676,0.0,0.027716447566419465,0.0,0.9999039763535834,0.0,0.013857780207976596,0.0,0.44388873370320087,0.0,0.2186824043492055,0.0,-0.1270119362883359,0.0,0.3120734976345271,0.0,1.4466223005762051,0.0,0.07512099772114564,0.0,,,,
1.88,0.16434344917031782,0.0,0.9214797898953008,0.0,0.026435718869354502,0.0,0.9999126453678174,0.0,0.013217474552019414,0.0,0.4469354788375266,0.0,0.23307228747037068,0.0,-0.12912604481754,0.0,0.2972394557659149,0.0,1.4312381275266137,0.0,0.08620508936646906,0.0,,,,
1.8900000000000001,0.1688274160326836,0.0,0.9238818096429668,0.0,0.025134084737151865,0.0,0.9999210357623002,0.0,0.012566711584527643,0.0,0.44983281713212386,0.0,0.24730487560599423,0.0,-0.13119273225725267,0.0,0.2821937133635957,0.0,1.4151665868126238,0.0,0.09736630719410191,0.0,,,,
1.9,0.17333960058199244,0.0,0.9264253404876799,0.0,0.023812028158730923,0.0,0.9999291242516154,0.0,0.011905732795483648,0.0,0.4525786793558502,0.0,0.26137339458495745,0.0,-0.13321023850817285,0.0,0.26694585130608384,0.0,1.3984276788613352,0.0,0.10859824204830726,0.0,,,,
1.9100000000000001,0.17787847811314073,0.0,0.9291087087101444,0.0,0.02247004985212406,0.0,0.9999368877713255,0.0,0.011234788569246788,0.0,0.45517109284957274,0.0,0.2752712731593947,0.0,-0.1351767785251181,0.0,0.25150560130846206,0.0,1.3810419817719688,0.0,0.11989400703025607,0.0,,,,
1.92,0.18244250468339626,0.0,0.9319301759166528,0.0,0.02110866849324762,0.0,0.999944303531329,0.0,0.010554138299513996,0.0,0.45760818297970246,0.0,0.28899214859495337,0.0,-0.13709054648898722,0.0,0.23588283489911444,0.0,1.3630306137560606,0.0,0.13124624431975718,0.0,,,,
1.9300000000000002,0.1870301180994562,0.0,0.9348879411505809,0.0,0.019728420901924882,0.0,0.9999513490705801,0.0,0.009864050482774786,0.0,0.45988817447984737,0.0,0.3025298718777193,0.0,-0.13894972018396776,0.0,0.2200875520729068,0.0,1.344415194059556,0.0,0.14264713325076794,0.0,,,,
1.94,0.19163973891734978,0.0,0.9379801430539753,0.0,0.018329862183126225,0.0,0.9999580023130143,0.0,0.009164802789234807,0.0,0.46200939267753466,0.0,0.3158785125235025,0.0,-0.1407524655759759,0.0,0.20412986965811664,0.0,1.3252178025418422,0.0,0.15408839981291628,0.0,,,,
1.95,0.19626977145402205,0.0,0.9412048620751923,0.0,0.016913565821446132,0.0,0.9999642416245127,0.0,0.008456682110209855,0.0,0.46397026460332685,0.0,0.32903236297692706,0.0,-0.14249694158546708,0.0,0.18802000943442138,0.0,1.3054609380867535,0.0,0.16556132774726848,0.0,,,,
1.96,0.2009186048094111,0.0,0.9445601227184325,0.0,0.015480123726919842,0.0,0.9999700458707177,0.0,0.007739984581034355,0.0,0.4657693199800286,0.0,0.34198594258952064,0.0,-0.1441813050448133,0.0,0.17176828603924998,0.0,1.2851674760205896,0.0,0.17705677139977466,0.0,,,,
1.97,0.20558461389780944,0.0,0.9480438958309105,0.0,0.014030146230395658,0.0,0.9999753944755001,0.0,0.007015015578585646,0.0,0.46740519209005355,0.0,0.35473400116774756,0.0,-0.1458037158274074,0.0,0.15538509469980383,0.0,1.2643606247121808,0.0,0.18856517049010893,0.0,,,,
1.98,0.21026616048728347,0.0,0.9516541009233257,0.0,0.01256426202682254,0.0,0.9999802674798609,0.0,0.006282089692597999,0.0,0.46887661851939616,0.0,0.3672715220836825,0.0,-0.1473623421325412,0.0,0.13888089882805082,0.0,1.2430638815300397,0.0,0.20007656694695353,0.0,,,,
1.99,0.21496159424591035,0.0,0.9553886085192271,0.0,0.011083118064988726,0.0,0.9999846456010377,0.0,0.005541530670029244,0.0,0.47018244177702295,0.0,0.379593724942772,0.0,-0.14885536590692516,0.0,0.12226621751600297,0.0,1.2213009883316335,0.0,0.21158062395308028,0.0,,,,
2.0,0.21966925379358246,0.0,0.9592452425288267,0.0,0.009587379382453503,0.0,0.9999885102915744,0.0,0.004793671331847077,0.0,0.47132160978887394,0.0,0.3916960678048754,0.0,-0.15028098838048695,0.0,0.10555161296857851,0.0,1.199095886659823,0.0,0.2230666473348174,0.0,,,,
2.01,0.224387467758123,0.0,0.9632217826427784,0.0,0.008077728884655121,0.0,0.9999918437980956,0.0,0.004038853461723637,0.0,0.47229317626603573,0.0,0.4035742489565387,0.0,-0.15163743569082522,0.0,0.08874767791135707,0.0,1.1764726728214874,0.0,0.2345236094205963,0.0,,,,
2.02,0.2291145558344538,0.0,0.9673159667414355,0.0,0.006554867067449974,0.0,0.9999946292195235,0.0,0.0032774276662642077,0.0,0.47309630094702243,0.0,0.4152242082341926,0.0,-0.15292296456742013,0.0,0.07186502301053421,0.0,1.1534555530233943,0.0,0.2459401754822625,0.0,,,,
2.03,0.2338488298455572,0.0,0.9715254933150986,0.0,0.00501951168264342,0.0,0.9999968505644616,0.0,0.0025097532065497434,0.0,0.4737302497144718,0.0,0.42664212789972633,0.0,-0.15413586804344187,0.0,0.05491426434237845,0.0,1.1300687987403342,0.0,0.2573047328606405,0.0,,,,
2.04,0.23858859480398018,0.0,0.9758480238907956,0.0,0.003472397346410743,0.0,0.9999984928074621,0.0,0.0017361978009433892,0.0,0.4741943945869401,0.0,0.4378244330716313,0.0,-0.1552744811597757,0.0,0.03790601094950008,0.0,1.1063367024905644,0.0,0.2686054228635263,0.0,,,,
2.049999999,0.2433321499726359,0.0,0.9802811854611686,0.0,0.0019142750908759947,0.0,0.9999995419438945,0.0,0.0009571373992970941,0.0,0.4744882135868478,0.0,0.44876779171666836,0.0,-0.1563371866227165,0.0,0.02085085252123453,0.0,1.0822835341936023,0.0,0.27983017550978995,0.0,,,,
2.06,0.24807778992367147,0.0,0.9848225729111091,0.0,0.00034591185951769477,0.0,0.9999999850431233,0.0,0.00017295592889655386,0.0,0.47461129048600625,0.0,0.45946911420875125,0.0,-0.15732242037372657,0.0,0.0037593472354481294,0.0,1.0579334982853936,0.0,0.290966747177709,0.0,,,,
2.069999999,0.25282380559418566,0.0,0.9894697514378514,-0.0,-0.001231910052498742,0.0,0.9999998102997087,-0.0,-0.0006159549873004213,0.0,0.47456331443052446,0.0,0.4699255524634982,0.0,-0.1582286770267008,0.0,-0.013357990200926761,0.0,1.0333106917659118,0.0,0.30200276119901526,0.0,,,,
2.08,0.25756848533760224,0.0,0.994220258960333,-0.0,-0.0028183936115030667,0.0,0.9999990070823457,-0.0,-0.0014091963393460401,0.0,0.47434407944727003,0.0,0.4801344986586529,0.0,-0.15905451512540195,0.0,-0.030490700275327742,0.0,1.0084390633542004,0.0,0.31292575142252643,0.0,,,,
2.0899999989999998,0.2623101159695256,0.0,0.9990716085137357,-0.0,-0.004412727709969837,0.0,0.9999975659802571,-0.0,-0.002206362064873567,0.0,0.4739534838344321,0.0,0.4900935835523206,0.0,-0.1597985621711226,0.0,-0.04762839011965292,0.0,0.9833423739259202,0.0,0.3237232087527004,0.0,,,,
2.1,0.2670469838069348,0.0,1.0040212906252564,-0.0,-0.006014087880079248,0.0,0.9999954788467782,-0.0,-0.0030070394082694586,0.0,0.4733915294391046,0.0,0.49980067441272236,0.0,-0.1604595193682597,0.0,-0.06476074464971149,0.0,0.9580441584084262,0.0,0.3343826306491609,0.0,,,,
2.109999999,0.27177737569960225,0.0,1.0090667756672953,-0.0,-0.007621637053096898,0.0,0.9999927388398663,-0.0,-0.0038108093028894636,0.0,0.47265832082518494,0.0,0.5092538725749163,0.0,-0.1610361660333537,0.0,-0.08187753735671977,0.0,0.9325676893084041,0.0,0.3448915735532209,0.0,,,,
2.12,0.2764995800526574,0.0,1.014205516184418,-0.0,-0.009234526360927597,0.0,0.9999893404592989,-0.0,-0.004617246774483872,0.0,0.4717540643352509,0.0,0.5184515106416889,0.0,-0.16152736361131037,0.0,-0.09896864071354172,0.0,0.9069359420471262,0.0,0.3552377081869285,0.0,,,,
2.13,0.28121188783925644,0.0,1.0194349491906245,-0.0,-0.010851895975626911,0.0,0.9999852795803321,-0.0,-0.005425921363710168,0.0,0.4706790670504594,0.0,0.5273921493475637,0.0,-0.1619320592409936,0.0,-0.11602403615836643,0.0,0.8811715622783347,0.0,0.3654088776492064,0.0,,,,
2.14,0.2859125936023594,0.0,1.0247524984336613,-0.0,-0.012472875982070161,0.0,0.9999805534836201,-0.0,-0.006236397565318156,0.0,0.4694337356528747,0.0,0.5360745741066346,0.0,-0.1622492888112014,0.0,-0.1330338236185169,0.0,0.8552968353638188,0.0,0.37539315821253894,0.0,,,,
